Humidity (%) 41.24
$GPGSV,4,3,16,17,73,147,08,19,53,189,13,21,14,03
Methane (PPM) 368.46
Temperature (*c) 18.33
Pressure (hPa) 1020.24
Altitude (m) -58.04

Humidity (%) 41.23
$GPRMC,010911.00,A,4919.17820,N,12419.03224,W,1.800,,210121,,,A
Methane (PPM) 368.46
Temperature (*c) 18.33
Pressure (hPa) 1020.21
Altitude (m) -58.02

Humidity (%) 41.21
$GPRMC,010913.00,A,4919.17852,N,12419.03190,W,1.273,,210121,,,A
Methane (PPM) 368.46
Temperature (*c) 18.33
Pressure (hPa) 1020.25
Altitude (m) -57.73

Humidity (%) 41.18
$GPRMC,010915.00,A,4919.17741,N,12419.03218,W,2.118,,210121,,,A
Methane (PPM) 368.46
Temperature (*c) 18.33
Pressure (hPa) 1020.21
Altitude (m) -57.99

Humidity (%) 41.16
$GPRMC,010917.00,A,4919.17675,N,12419.03179,W,1.990,,210121,,,A1,N,12419.03275,W,2.008,,210121,,,A*6A
Methane (PPM) 368.46
Temperature (*c) 18.34
Pressure (hPa) 1020.23
Altitude (m) -57.81

Humidity (%) 41.13
$GPRMC,010920.00,A,4919.17532,N,12419.03355,W,2.078,,210121,,,A
Methane (PPM) 368.46
Temperature (*c) 18.34
Pressure (hPa) 1020.23
Altitude (m) -57.80

Humidity (%) 41.10
$GPRMC,010922.00,A,4919.17437,N,12419.03424,W,2.020,,210121,,,A
Methane (PPM) 368.46
Temperature (*c) 18.34
Pressure (hPa) 1020.22
Altitude (m) -57.79

Humidity (%) 41.07
$GPRMC,010924.00,A,4919.17607,N,12419.03431,W,0.210,,210121,,,A
Methane (PPM) 368.46
Temperature (*c) 18.34
Pressure (hPa) 1020.19
Altitude (m) -57.91

Humidity (%) 41.05
$GPRMC,010926.00,A,4919.17613,N,12419.03437,W,0.196,,210121,,,A
Methane (PPM) 368.46
Temperature (*c) 18.34
Pressure (hPa) 1020.14
Altitude (m) -57.82

Humidity (%) 41.02
$GPRMC,010928.00,A,4919.17726,N,12419.03441,W,0.578,,210121,,,A
Methane (PPM) 366.02
Temperature (*c) 18.34
Pressure (hPa) 1020.19
Altitude (m) -57.83

Humidity (%) 41.00
$GPRMC,010930.00,A,4919.17714,N,12419.03298,W,0.620,,210121,,,A
Methane (PPM) 368.46
Temperature (*c) 18.35
Pressure (hPa) 1020.23
Altitude (m) -57.71

Humidity (%) 40.98
$GPRMC,010932.00,A,4919.17695,N,12419.03287,W,0.387,,210121,,,A
Methane (PPM) 368.46
Temperature (*c) 18.35
Pressure (hPa) 1020.22
Altitude (m) -57.70

Humidity (%) 40.97
$GPRMC,010934.00,A,4919.17706,N,12419.03215,W,0.685,,210121,,,A
Methane (PPM) 368.46
Temperature (*c) 18.35
Pressure (hPa) 1020.20
Altitude (m) -57.79

Humidity (%) 40.95
$GPRMC,010936.00,A,4919.17911,N,12419.03287,W,0.607,,210121,,,A,010938.00,A,4919.17911,N,12419.03272,W,0.130,,210121,,,A*63
Methane (PPM) 366.02
Temperature (*c) 18.36
Pressure (hPa) 1020.23
Altitude (m) -57.80

Humidity (%) 40.97
$GPRMC,010939.00,A,4919.17877,N,12419.03338,W,0.381,,210121,,,A
Methane (PPM) 368.46
Temperature (*c) 18.36
Pressure (hPa) 1020.19
Altitude (m) -57.77

Humidity (%) 40.99
$GPRMC,010941.00,A,4919.17896,N,12419.03377,W,0.445,,210121,,,A
Methane (PPM) 368.46
Temperature (*c) 18.36
Pressure (hPa) 1020.20
Altitude (m) -57.87

Humidity (%) 41.01
$GPRMC,010943.00,A,4919.17884,N,12419.03374,W,0.495,,210121,,,A
Methane (PPM) 368.46
Temperature (*c) 18.36
Pressure (hPa) 1020.21
Altitude (m) -58.03

Humidity (%) 41.15
$GPRMC,010945.00,A,4919.17825,N,12419.03437,W,0.983,,210121,,,A
Methane (PPM) 368.46
Temperature (*c) 18.37
Pressure (hPa) 1020.22
Altitude (m) -57.83

Humidity (%) 41.25
$GPRMC,010947.00,A,4919.17847,N,12419.03526,W,1.205,,210121,,,A
Methane (PPM) 368.46
Temperature (*c) 18.38
Pressure (hPa) 1020.22
Altitude (m) -57.70

Humidity (%) 41.27
$GPRMC,010949.00,A,4919.17775,N,12419.03603,W,1.748,,210121,,,A
Methane (PPM) 368.46
Temperature (*c) 18.38
Pressure (hPa) 1020.20
Altitude (m) -57.72

Humidity (%) 41.30
$GPRMC,010951.00,A,4919.18296,N,12419.03399,W,0.490,,210121,,,A
Methane (PPM) 368.46
Temperature (*c) 18.39
Pressure (hPa) 1020.23
Altitude (m) -57.58

Humidity (%) 41.34
$GPRMC,010953.00,A,4919.18516,N,12419.03285,W,0.861,,210121,,,A
Methane (PPM) 368.46
Temperature (*c) 18.39
Pressure (hPa) 1020.23
Altitude (m) -57.71

Humidity (%) 41.34
$GPRMC,010955.00,A,4919.18691,N,12419.03422,W,1.430,,210121,,,A
Methane (PPM) 368.46
Temperature (*c) 18.40
Pressure (hPa) 1020.19
Altitude (m) -58.08

Humidity (%) 41.34
$GPRMC,010958.00,A,4919.18741,N,12419.03341,W,1.061,,210121,,,A
Methane (PPM) 368.46
Temperature (*c) 18.40
Pressure (hPa) 1020.19
Altitude (m) -57.79

Humidity (%) 41.32
$GPRMC,011000.00,A,4919.18659,N,12419.03337,W,0.653,,210121,,,A
Methane (PPM) 368.46
Temperature (*c) 18.40
Pressure (hPa) 1020.21
Altitude (m) -57.96

Humidity (%) 41.27
$GPRMC,011002.00,A,4919.18666,N,12419.03445,W,0.838,,210121,,,A
Methane (PPM) 368.46
Temperature (*c) 18.40
Pressure (hPa) 1020.21
Altitude (m) -57.86

Humidity (%) 41.24
$GPRMC,011004.00,A,4919.18778,N,12419.03552,W,1.329,,210121,,,A
Methane (PPM) 368.46
Temperature (*c) 18.40
Pressure (hPa) 1020.22
Altitude (m) -58.10

Humidity (%) 41.20
$GPRMC,011006.00,A,4919.18976,N,12419.03628,W,1.603,,210121,,,A
Methane (PPM) 368.46
Temperature (*c) 18.41
Pressure (hPa) 1020.23
Altitude (m) -57.81

Humidity (%) 41.18
$GPRMC,011008.00,A,4919.19023,N,12419.03605,W,0.778,,210121,,,A
Methane (PPM) 368.46
Temperature (*c) 18.41
Pressure (hPa) 1020.22
Altitude (m) -57.71

Humidity (%) 41.16
$GPRMC,011010.00,A,4919.19023,N,12419.03420,W,0.622,,210121,,,A
Methane (PPM) 368.46
Temperature (*c) 18.41
Pressure (hPa) 1020.21
Altitude (m) -57.72

Humidity (%) 41.13
$GPRMC,011012.00,A,4919.19085,N,12419.03302,W,0.977,,210121,,,A
Methane (PPM) 368.46
Temperature (*c) 18.41
Pressure (hPa) 1020.21
Altitude (m) -57.58

Humidity (%) 41.11
$GPRMC,011014.00,A,4919.19027,N,12419.02978,W,2.007,,210121,,,A011016.00,A,4919.18914,N,12419.02943,W,1.592,,210121,,,A*68
Methane (PPM) 368.46
Temperature (*c) 18.41
Pressure (hPa) 1020.22
Altitude (m) -57.82

Humidity (%) 41.09
$GPRMC,011017.00,A,4919.18796,N,12419.02978,W,1.369,,210121,,,A
Methane (PPM) 368.46
Temperature (*c) 18.41
Pressure (hPa) 1020.19
Altitude (m) -57.71

Humidity (%) 41.06
$GPRMC,011019.00,A,4919.18620,N,12419.03041,W,1.324,,210121,,,A
Methane (PPM) 368.46
Temperature (*c) 18.42
Pressure (hPa) 1020.19
Altitude (m) -57.45

Humidity (%) 41.21
$GPRMC,011021.00,A,4919.18514,N,12419.03140,W,0.969,,210121,,,A
Methane (PPM) 368.46
Temperature (*c) 18.41
Pressure (hPa) 1020.16
Altitude (m) -57.29

Humidity (%) 41.23
$GPRMC,011023.00,A,4919.18520,N,12419.03189,W,0.952,,210121,,,A
Methane (PPM) 368.46
Temperature (*c) 18.42
Pressure (hPa) 1020.13
Altitude (m) -57.43

Humidity (%) 41.39
$GPRMC,011025.00,A,4919.18662,N,12419.03204,W,0.224,,210121,,,A
Methane (PPM) 366.02
Temperature (*c) 18.43
Pressure (hPa) 1020.18
Altitude (m) -57.47

Humidity (%) 41.42
$GPRMC,011027.00,A,4919.18754,N,12419.03253,W,0.720,,210121,,,A
Methane (PPM) 368.46
Temperature (*c) 18.43
Pressure (hPa) 1020.16
Altitude (m) -57.38

Humidity (%) 41.24
$GPRMC,011029.00,A,4919.18749,N,12419.03298,W,0.826,,210121,,,A
Methane (PPM) 366.02
Temperature (*c) 18.43
Pressure (hPa) 1020.15
Altitude (m) -57.45

Humidity (%) 41.15
$GPRMC,011031.00,A,4919.18973,N,12419.03420,W,1.056,,210121,,,A
Methane (PPM) 366.02
Temperature (*c) 18.43
Pressure (hPa) 1020.18
Altitude (m) -57.60

Humidity (%) 40.76
$GPRMC,011033.00,A,4919.18957,N,12419.03315,W,0.556,,210121,,,AC,011035.00,A,4919.19083,N,12419.03302,W,1.170,,210121,,,A*69
Methane (PPM) 366.02
Temperature (*c) 18.38
Pressure (hPa) 1020.21
Altitude (m) -57.68

Humidity (%) 39.71
$GPRMC,011036.00,A,4919.19035,N,12419.03323,W,0.495,,210121,,,A
Methane (PPM) 366.02
Temperature (*c) 18.27
Pressure (hPa) 1020.19
Altitude (m) -57.36

Humidity (%) 39.45
$GPRMC,011038.00,A,4919.19030,N,12419.03360,W,0.551,,210121,,,A
Methane (PPM) 366.02
Temperature (*c) 18.17
Pressure (hPa) 1020.15
Altitude (m) -57.31

Humidity (%) 39.19
$GPRMC,011040.00,A,4919.19084,N,12419.03438,W,0.614,,210121,,,A
Methane (PPM) 366.02
Temperature (*c) 18.05
Pressure (hPa) 1020.13
Altitude (m) -57.06

Humidity (%) 39.03
$GPRMC,011042.00,A,4919.19148,N,12419.03454,W,0.511,,210121,,,A
Methane (PPM) 366.02
Temperature (*c) 17.91
Pressure (hPa) 1020.09
Altitude (m) -56.77

Humidity (%) 39.04
$GPRMC,011044.00,A,4919.19144,N,12419.03634,W,2.201,286.15,2101
Methane (PPM) 366.02
Temperature (*c) 17.77
Pressure (hPa) 1020.06
Altitude (m) -56.51

Humidity (%) 39.09
$GPRMC,011046.00,A,4919.19099,N,12419.03860,W,2.603,267.42,2101
Methane (PPM) 363.57
Temperature (*c) 17.62
Pressure (hPa) 1020.07
Altitude (m) -56.62

Humidity (%) 39.31
$GPRMC,011048.00,A,4919.19114,N,12419.04034,W,2.230,284.83,2101
Methane (PPM) 363.57
Temperature (*c) 17.45
Pressure (hPa) 1020.03
Altitude (m) -56.48

Humidity (%) 39.65
$GPRMC,011050.00,A,4919.19141,N,12419.04219,W,2.605,288.23,2101
Methane (PPM) 363.57
Temperature (*c) 17.24
Pressure (hPa) 1020.02
Altitude (m) -56.44

Humidity (%) 39.97
$GPRMC,011052.00,A,4919.19170,N,12419.04445,W,2.976,288.48,210100,A,4919.19192,N,12419.04673,W,2.691,283.43,210121,,,A*70
Methane (PPM) 363.57
Temperature (*c) 17.04
Pressure (hPa) 1020.06
Altitude (m) -56.31

Humidity (%) 40.53
$GPRMC,011055.00,A,4919.19192,N,12419.04776,W,2.626,278.33,2101
Methane (PPM) 363.57
Temperature (*c) 16.84
Pressure (hPa) 1020.04
Altitude (m) -56.69

Humidity (%) 40.74
$GPRMC,011057.00,A,4919.19159,N,12419.04966,W,2.852,262.08,2101
Methane (PPM) 361.13
Temperature (*c) 16.62
Pressure (hPa) 1020.04
Altitude (m) -56.50

Humidity (%) 40.88
$GPRMC,011059.00,A,4919.19087,N,12419.05186,W,2.839,252.06,2101
Methane (PPM) 363.57
Temperature (*c) 16.47
Pressure (hPa) 1020.04
Altitude (m) -56.19

Humidity (%) 41.03
$GPRMC,011101.00,A,4919.19019,N,12419.05392,W,2.250,248.38,2101
Methane (PPM) 361.13
Temperature (*c) 16.33
Pressure (hPa) 1020.00
Altitude (m) -55.93

Humidity (%) 41.30
$GPRMC,011103.00,A,4919.18897,N,12419.05470,W,1.816,222.72,2101
Methane (PPM) 361.13
Temperature (*c) 16.15
Pressure (hPa) 1020.04
Altitude (m) -56.36

Humidity (%) 41.65
$GPRMC,011105.00,A,4919.18842,N,12419.05476,W,0.235,,210121,,,A
Methane (PPM) 363.57
Temperature (*c) 15.97
Pressure (hPa) 1020.03
Altitude (m) -56.36

Humidity (%) 42.03
$GPRMC,011107.00,A,4919.18829,N,12419.05466,W,0.077,,210121,,,A
Methane (PPM) 363.57
Temperature (*c) 15.85
Pressure (hPa) 1020.01
Altitude (m) -56.32

Humidity (%) 42.21
$GPRMC,011109.00,A,4919.18819,N,12419.05431,W,0.411,,210121,,,A
Methane (PPM) 363.57
Temperature (*c) 15.67
Pressure (hPa) 1020.01
Altitude (m) -56.17

Humidity (%) 42.49
$GPRMC,011111.00,A,4919.18812,N,12419.05425,W,0.097,,210121,,,A50,N,12419.05430,W,0.344,,210121,,,A*60
Methane (PPM) 363.57
Temperature (*c) 15.42
Pressure (hPa) 1020.02
Altitude (m) -56.01

Humidity (%) 42.91
$GPRMC,011114.00,A,4919.18737,N,12419.05468,W,0.635,,210121,,,A
Methane (PPM) 363.57
Temperature (*c) 15.21
Pressure (hPa) 1020.02
Altitude (m) -56.09

Humidity (%) 43.21
$GPRMC,011116.00,A,4919.18786,N,12419.05546,W,0.899,,210121,,,A
Methane (PPM) 366.02
Temperature (*c) 15.10
Pressure (hPa) 1020.02
Altitude (m) -56.25

Humidity (%) 43.39
$GPRMC,011118.00,A,4919.18780,N,12419.05565,W,0.060,,210121,,,A
Methane (PPM) 363.57
Temperature (*c) 14.99
Pressure (hPa) 1020.06
Altitude (m) -56.32

Humidity (%) 43.64
$GPRMC,011120.00,A,4919.18774,N,12419.05571,W,0.588,,210121,,,A
Methane (PPM) 363.57
Temperature (*c) 14.84
Pressure (hPa) 1020.03
Altitude (m) -56.29

Humidity (%) 43.84
$GPRMC,011122.00,A,4919.18771,N,12419.05614,W,0.413,,210121,,,A
Methane (PPM) 363.57
Temperature (*c) 14.75
Pressure (hPa) 1020.03
Altitude (m) -56.38

Humidity (%) 44.05
$GPRMC,011124.00,A,4919.18775,N,12419.05642,W,0.139,,210121,,,A
Methane (PPM) 363.57
Temperature (*c) 14.66
Pressure (hPa) 1020.04
Altitude (m) -56.59

Humidity (%) 44.25
$GPRMC,011126.00,A,4919.18770,N,12419.05689,W,0.123,,210121,,,A
Methane (PPM) 366.02
Temperature (*c) 14.58
Pressure (hPa) 1020.05
Altitude (m) -56.59

Humidity (%) 44.38
$GPRMC,011128.00,A,4919.18756,N,12419.05695,W,0.087,,210121,,,A
Methane (PPM) 366.02
Temperature (*c) 14.51
Pressure (hPa) 1020.05
Altitude (m) -56.58

Humidity (%) 44.49
$GPRMC,011130.00,A,4919.18735,N,12419.05702,W,0.020,,210121,,,A00,A,4919.18732,N,12419.05706,W,0.045,,210121,,,A*63
Methane (PPM) 363.57
Temperature (*c) 14.41
Pressure (hPa) 1020.04
Altitude (m) -56.32

Humidity (%) 44.59
$GPRMC,011133.00,A,4919.18729,N,12419.05713,W,0.058,,210121,,,A
Methane (PPM) 363.57
Temperature (*c) 14.35
Pressure (hPa) 1020.07
Altitude (m) -56.50

Humidity (%) 44.66
$GPRMC,011135.00,A,4919.18726,N,12419.05728,W,0.052,,210121,,,A
Methane (PPM) 363.57
Temperature (*c) 14.29
Pressure (hPa) 1020.05
Altitude (m) -56.30

Humidity (%) 44.79
$GPRMC,011137.00,A,4919.18708,N,12419.05731,W,0.081,,210121,,,A
Methane (PPM) 363.57
Temperature (*c) 14.22
Pressure (hPa) 1020.06
Altitude (m) -56.54

Humidity (%) 44.91
$GPRMC,011139.00,A,4919.18700,N,12419.05733,W,0.008,,210121,,,A
Methane (PPM) 363.57
Temperature (*c) 14.16
Pressure (hPa) 1020.05
Altitude (m) -56.67

Humidity (%) 45.04
$GPRMC,011141.00,A,4919.18702,N,12419.05733,W,0.051,,210121,,,A
Methane (PPM) 363.57
Temperature (*c) 14.11
Pressure (hPa) 1020.07
Altitude (m) -56.62

Humidity (%) 45.26
$GPRMC,011143.00,A,4919.18683,N,12419.05737,W,0.213,,210121,,,A
Methane (PPM) 363.57
Temperature (*c) 14.05
Pressure (hPa) 1020.09
Altitude (m) -56.68

Humidity (%) 45.40
$GPRMC,011145.00,A,4919.18686,N,12419.05732,W,0.027,,210121,,,A
Methane (PPM) 363.57
Temperature (*c) 14.00
Pressure (hPa) 1020.10
Altitude (m) -56.75

Humidity (%) 45.51
$GPRMC,011147.00,A,4919.18692,N,12419.05733,W,0.044,,210121,,,A
Methane (PPM) 363.57
Temperature (*c) 13.95
Pressure (hPa) 1020.06
Altitude (m) -56.70

Humidity (%) 45.58
$GPRMC,011149.00,A,4919.18695,N,12419.05728,W,0.041,,210121,,,A8693,N,12419.05724,W,0.024,,210121,,,A*6B
Methane (PPM) 363.57
Temperature (*c) 13.88
Pressure (hPa) 1020.07
Altitude (m) -56.41

Humidity (%) 45.76
$GPRMC,011152.00,A,4919.18695,N,12419.05721,W,0.061,,210121,,,A
Methane (PPM) 363.57
Temperature (*c) 13.84
Pressure (hPa) 1020.09
Altitude (m) -56.59

Humidity (%) 45.92
$GPRMC,011154.00,A,4919.18704,N,12419.05714,W,0.086,,210121,,,A
Methane (PPM) 363.57
Temperature (*c) 13.79
Pressure (hPa) 1020.06
Altitude (m) -56.50

Humidity (%) 46.07
$GPRMC,011156.00,A,4919.18711,N,12419.05714,W,0.021,,210121,,,A
Methane (PPM) 363.57
Temperature (*c) 13.73
Pressure (hPa) 1020.05
Altitude (m) -56.46

Humidity (%) 46.14
$GPRMC,011158.00,A,4919.18723,N,12419.05714,W,0.017,,210121,,,A
Methane (PPM) 363.57
Temperature (*c) 13.69
Pressure (hPa) 1020.06
Altitude (m) -56.44

Humidity (%) 46.23
$GPRMC,011200.00,A,4919.18710,N,12419.05713,W,0.210,,210121,,,A
Methane (PPM) 363.57
Temperature (*c) 13.64
Pressure (hPa) 1020.03
Altitude (m) -56.54

Humidity (%) 46.32
$GPRMC,011202.00,A,4919.18702,N,12419.05710,W,0.237,,210121,,,A
Methane (PPM) 363.57
Temperature (*c) 13.59
Pressure (hPa) 1020.04
Altitude (m) -56.45

Humidity (%) 46.43
$GPRMC,011204.00,A,4919.18711,N,12419.05712,W,0.108,,210121,,,A
Methane (PPM) 363.57
Temperature (*c) 13.55
Pressure (hPa) 1020.06
Altitude (m) -56.52

Humidity (%) 46.48
$GPRMC,011206.00,A,4919.18714,N,12419.05714,W,0.035,,210121,,,A
Methane (PPM) 363.57
Temperature (*c) 13.50
Pressure (hPa) 1020.01
Altitude (m) -56.32

Humidity (%) 46.56
$GPRMC,011208.00,A,4919.18732,N,12419.05713,W,0.052,,210121,,,A.18761,N,12419.05709,W,0.045,,210121,,,A*69
Methane (PPM) 363.57
Temperature (*c) 13.44
Pressure (hPa) 1020.04
Altitude (m) -56.48

Humidity (%) 46.72
$GPRMC,011211.00,A,4919.18767,N,12419.05720,W,0.099,,210121,,,A
Methane (PPM) 363.57
Temperature (*c) 13.40
Pressure (hPa) 1020.07
Altitude (m) -56.79

Humidity (%) 46.82
$GPRMC,011213.00,A,4919.18774,N,12419.05727,W,0.045,,210121,,,A
Methane (PPM) 361.13
Temperature (*c) 13.36
Pressure (hPa) 1020.04
Altitude (m) -56.43

Humidity (%) 46.91
$GPRMC,011215.00,A,4919.18789,N,12419.05743,W,0.171,,210121,,,A
Methane (PPM) 363.57
Temperature (*c) 13.31
Pressure (hPa) 1020.02
Altitude (m) -56.58

Humidity (%) 47.01
$GPRMC,011217.00,A,4919.18798,N,12419.05745,W,0.084,,210121,,,A
Methane (PPM) 361.13
Temperature (*c) 13.27
Pressure (hPa) 1020.07
Altitude (m) -56.33

Humidity (%) 47.13
$GPRMC,011219.00,A,4919.18812,N,12419.05743,W,0.088,,210121,,,A
Methane (PPM) 361.13
Temperature (*c) 13.24
Pressure (hPa) 1020.05
Altitude (m) -56.52

Humidity (%) 47.17
$GPRMC,011221.00,A,4919.18814,N,12419.05743,W,0.067,,210121,,,A
Methane (PPM) 361.13
Temperature (*c) 13.20
Pressure (hPa) 1020.05
Altitude (m) -56.81

Humidity (%) 47.23
$GPRMC,011223.00,A,4919.18818,N,12419.05740,W,0.037,,210121,,,A
Methane (PPM) 361.13
Temperature (*c) 13.17
Pressure (hPa) 1020.07
Altitude (m) -56.49

Humidity (%) 47.33
$GPRMC,011225.00,A,4919.18820,N,12419.05743,W,0.115,,210121,,,A
Methane (PPM) 361.13
Temperature (*c) 13.13
Pressure (hPa) 1020.07
Altitude (m) -56.45

Humidity (%) 47.53
$GPRMC,011227.00,A,4919.18819,N,12419.05741,W,0.074,,210121,,,A919.18821,N,12419.05736,W,0.076,,210121,,,A*64
Methane (PPM) 361.13
Temperature (*c) 13.08
Pressure (hPa) 1020.07
Altitude (m) -56.26

Humidity (%) 47.69
$GPRMC,011230.00,A,4919.18828,N,12419.05735,W,0.078,,210121,,,A
Methane (PPM) 361.13
Temperature (*c) 13.03
Pressure (hPa) 1020.09
Altitude (m) -56.63

Humidity (%) 47.85
$GPRMC,011232.00,A,4919.18826,N,12419.05720,W,0.014,,210121,,,A
Methane (PPM) 361.13
Temperature (*c) 12.99
Pressure (hPa) 1020.05
Altitude (m) -56.48

Humidity (%) 47.98
$GPRMC,011234.00,A,4919.18819,N,12419.05705,W,0.023,,210121,,,A
Methane (PPM) 361.13
Temperature (*c) 12.95
Pressure (hPa) 1020.03
Altitude (m) -56.36

Humidity (%) 48.14
$GPRMC,011236.00,A,4919.18819,N,12419.05701,W,0.056,,210121,,,A
Methane (PPM) 361.13
Temperature (*c) 12.92
Pressure (hPa) 1020.03
Altitude (m) -56.36

Humidity (%) 48.35
$GPRMC,011238.00,A,4919.18815,N,12419.05694,W,0.049,,210121,,,A
Methane (PPM) 361.13
Temperature (*c) 12.88
Pressure (hPa) 1020.11
Altitude (m) -56.73

Humidity (%) 48.57
$GPRMC,011240.00,A,4919.18815,N,12419.05682,W,0.154,,210121,,,A
Methane (PPM) 361.13
Temperature (*c) 12.85
Pressure (hPa) 1020.07
Altitude (m) -56.67

Humidity (%) 48.73
$GPRMC,011242.00,A,4919.18819,N,12419.05672,W,0.068,,210121,,,A
Methane (PPM) 361.13
Temperature (*c) 12.82
Pressure (hPa) 1020.05
Altitude (m) -56.79

Humidity (%) 48.88
$GPRMC,011244.00,A,4919.18820,N,12419.05662,W,0.183,,210121,,,A
Methane (PPM) 361.13
Temperature (*c) 12.79
Pressure (hPa) 1020.04
Altitude (m) -56.53

Humidity (%) 49.03
$GPRMC,011246.00,A,4919.18825,N,12419.05655,W,0.142,,210121,,,A.00,A,4919.18829,N,12419.05646,W,0.019,,210121,,,A*64
Methane (PPM) 361.13
Temperature (*c) 12.74
Pressure (hPa) 1020.06
Altitude (m) -56.72

Humidity (%) 49.26
$GPRMC,011249.00,A,4919.18828,N,12419.05642,W,0.038,,210121,,,A
Methane (PPM) 363.57
Temperature (*c) 12.71
Pressure (hPa) 1020.08
Altitude (m) -56.53

Humidity (%) 49.43
$GPRMC,011251.00,A,4919.18835,N,12419.05636,W,0.026,,210121,,,A
Methane (PPM) 361.13
Temperature (*c) 12.68
Pressure (hPa) 1020.08
Altitude (m) -56.90

Humidity (%) 49.61
$GPRMC,011253.00,A,4919.18838,N,12419.05632,W,0.104,,210121,,,A
Methane (PPM) 363.57
Temperature (*c) 12.65
Pressure (hPa) 1020.11
Altitude (m) -56.87

Humidity (%) 49.80
$GPRMC,011255.00,A,4919.18845,N,12419.05631,W,0.017,,210121,,,A
Methane (PPM) 363.57
Temperature (*c) 12.62
Pressure (hPa) 1020.10
Altitude (m) -56.73

Humidity (%) 49.92
$GPRMC,011257.00,A,4919.18846,N,12419.05632,W,0.066,,210121,,,A
Methane (PPM) 363.57
Temperature (*c) 12.60
Pressure (hPa) 1020.12
Altitude (m) -56.77

Humidity (%) 50.05
$GPRMC,011259.00,A,4919.18852,N,12419.05634,W,0.089,,210121,,,A
Methane (PPM) 363.57
Temperature (*c) 12.55
Pressure (hPa) 1020.08
Altitude (m) -56.68

Humidity (%) 50.24
$GPRMC,011301.00,A,4919.18855,N,12419.05634,W,0.081,,210121,,,A
Methane (PPM) 363.57
Temperature (*c) 12.52
Pressure (hPa) 1020.10
Altitude (m) -56.76

Humidity (%) 50.55
$GPRMC,011303.00,A,4919.18861,N,12419.05635,W,0.071,,210121,,,A
Methane (PPM) 363.57
Temperature (*c) 12.50
Pressure (hPa) 1020.09
Altitude (m) -56.65

Humidity (%) 50.80
$GPRMC,011305.00,A,4919.18863,N,12419.05625,W,0.024,,210121,,,A,A,4919.18861,N,12419.05612,W,0.078,,210121,,,A*64
Methane (PPM) 363.57
Temperature (*c) 12.47
Pressure (hPa) 1020.05
Altitude (m) -56.52

Humidity (%) 50.95
$GPRMC,011308.00,A,4919.18852,N,12419.05607,W,0.063,,210121,,,A
Methane (PPM) 363.57
Temperature (*c) 12.44
Pressure (hPa) 1020.10
Altitude (m) -56.76

Humidity (%) 51.04
$GPRMC,011310.00,A,4919.18856,N,12419.05594,W,0.072,,210121,,,A
Methane (PPM) 363.57
Temperature (*c) 12.43
Pressure (hPa) 1020.06
Altitude (m) -56.81

Humidity (%) 51.10
$GPRMC,011312.00,A,4919.18857,N,12419.05590,W,0.101,,210121,,,A
Methane (PPM) 363.57
Temperature (*c) 12.40
Pressure (hPa) 1020.07
Altitude (m) -56.55

Humidity (%) 51.18
$GPRMC,011314.00,A,4919.18853,N,12419.05573,W,0.116,,210121,,,A
Methane (PPM) 363.57
Temperature (*c) 12.37
Pressure (hPa) 1020.07
Altitude (m) -56.51

Humidity (%) 51.36
$GPRMC,011316.00,A,4919.18841,N,12419.05568,W,0.127,,210121,,,A
Methane (PPM) 363.57
Temperature (*c) 12.34
Pressure (hPa) 1020.00
Altitude (m) -56.57

Humidity (%) 51.49
$GPRMC,011318.00,A,4919.18836,N,12419.05568,W,0.095,,210121,,,A
Methane (PPM) 363.57
Temperature (*c) 12.31
Pressure (hPa) 1020.06
Altitude (m) -56.51

Humidity (%) 51.73
$GPRMC,011320.00,A,4919.18833,N,12419.05570,W,0.021,,210121,,,A
Methane (PPM) 363.57
Temperature (*c) 12.28
Pressure (hPa) 1020.05
Altitude (m) -56.56

Humidity (%) 51.92
$GPRMC,011322.00,A,4919.18828,N,12419.05599,W,0.022,,210121,,,A
Methane (PPM) 363.57
Temperature (*c) 12.26
Pressure (hPa) 1020.04
Altitude (m) -56.73

Humidity (%) 51.98
$GPRMC,011324.00,A,4919.18822,N,12419.05636,W,0.124,,210121,,,AA,4919.18850,N,12419.05704,W,0.078,,210121,,,A*63
Methane (PPM) 363.57
Temperature (*c) 12.23
Pressure (hPa) 1020.05
Altitude (m) -56.73

Humidity (%) 52.05
$GPRMC,011327.00,A,4919.18866,N,12419.05733,W,0.203,,210121,,,A
Methane (PPM) 363.57
Temperature (*c) 12.20
Pressure (hPa) 1020.08
Altitude (m) -56.43

Humidity (%) 52.13
$GPRMC,011329.00,A,4919.18878,N,12419.05762,W,0.142,,210121,,,A
Methane (PPM) 363.57
Temperature (*c) 12.18
Pressure (hPa) 1020.07
Altitude (m) -56.94

Humidity (%) 52.28
$GPRMC,011331.00,A,4919.18880,N,12419.05771,W,0.063,,210121,,,A
Methane (PPM) 366.02
Temperature (*c) 12.16
Pressure (hPa) 1020.05
Altitude (m) -56.72

Humidity (%) 52.37
$GPRMC,011333.00,A,4919.18872,N,12419.05775,W,0.147,,210121,,,A
Methane (PPM) 363.57
Temperature (*c) 12.14
Pressure (hPa) 1020.07
Altitude (m) -56.57

Humidity (%) 52.38
$GPRMC,011335.00,A,4919.18846,N,12419.05788,W,0.066,,210121,,,A
Methane (PPM) 363.57
Temperature (*c) 12.12
Pressure (hPa) 1020.11
Altitude (m) -56.99

Humidity (%) 52.40
$GPRMC,011337.00,A,4919.18836,N,12419.05780,W,0.245,,210121,,,A
Methane (PPM) 363.57
Temperature (*c) 12.09
Pressure (hPa) 1020.08
Altitude (m) -56.86

Humidity (%) 52.38
$GPRMC,011339.00,A,4919.18868,N,12419.05776,W,0.225,,210121,,,A
Methane (PPM) 363.57
Temperature (*c) 11.89
Pressure (hPa) 1020.08
Altitude (m) -56.80

Humidity (%) 52.56
$GPRMC,011341.00,A,4919.18892,N,12419.05755,W,0.719,,210121,,,A
Methane (PPM) 363.57
Temperature (*c) 12.03
Pressure (hPa) 1020.11
Altitude (m) -56.73

Humidity (%) 52.63
$GPRMC,011343.00,A,4919.18887,N,12419.05725,W,0.217,,210121,,,A.18869,N,12419.05721,W,0.224,,210121,,,A*60
Methane (PPM) 363.57
Temperature (*c) 12.01
Pressure (hPa) 1020.12
Altitude (m) -56.79

Humidity (%) 52.82
$GPRMC,011346.00,A,4919.18873,N,12419.05726,W,0.120,,210121,,,A
Methane (PPM) 363.57
Temperature (*c) 11.98
Pressure (hPa) 1020.08
Altitude (m) -56.83

Humidity (%) 52.88
$GPRMC,011348.00,A,4919.18871,N,12419.05735,W,0.200,,210121,,,A
Methane (PPM) 363.57
Temperature (*c) 11.95
Pressure (hPa) 1020.10
Altitude (m) -57.07

Humidity (%) 52.95
$GPRMC,011350.00,A,4919.18874,N,12419.05739,W,0.091,,210121,,,A
Methane (PPM) 363.57
Temperature (*c) 11.94
Pressure (hPa) 1020.09
Altitude (m) -56.81

Humidity (%) 52.97
$GPRMC,011352.00,A,4919.18871,N,12419.05736,W,0.206,,210121,,,A
Methane (PPM) 366.02
Temperature (*c) 11.93
Pressure (hPa) 1020.09
Altitude (m) -56.77

Humidity (%) 53.01
$GPRMC,011354.00,A,4919.18865,N,12419.05749,W,0.193,,210121,,,A
Methane (PPM) 363.57
Temperature (*c) 11.91
Pressure (hPa) 1020.08
Altitude (m) -56.81

Humidity (%) 53.20
$GPRMC,011356.00,A,4919.18859,N,12419.05756,W,0.466,,210121,,,A
Methane (PPM) 363.57
Temperature (*c) 11.89
Pressure (hPa) 1020.08
Altitude (m) -56.69

Humidity (%) 53.44
$GPRMC,011358.00,A,4919.18839,N,12419.05770,W,0.066,,210121,,,A
Methane (PPM) 363.57
Temperature (*c) 11.87
Pressure (hPa) 1020.12
Altitude (m) -57.16

Humidity (%) 53.65
$GPRMC,011400.00,A,4919.18837,N,12419.05787,W,0.113,,210121,,,A
Methane (PPM) 363.57
Temperature (*c) 11.85
Pressure (hPa) 1020.10
Altitude (m) -56.65

Humidity (%) 53.70
$GPRMC,011402.00,A,4919.18835,N,12419.05791,W,0.051,,210121,,,A.18856,N,12419.05810,W,0.206,,210121,,,A*63
Methane (PPM) 366.02
Temperature (*c) 11.83
Pressure (hPa) 1020.08
Altitude (m) -56.76

Humidity (%) 53.76
$GPRMC,011405.00,A,4919.18859,N,12419.05813,W,0.511,,210121,,,A
Methane (PPM) 366.02
Temperature (*c) 11.82
Pressure (hPa) 1020.17
Altitude (m) -57.55

Humidity (%) 53.97
$GPRMC,011407.00,A,4919.18866,N,12419.05830,W,0.114,,210121,,,A
Methane (PPM) 366.02
Temperature (*c) 11.81
Pressure (hPa) 1020.29
Altitude (m) -56.43

Humidity (%) 54.10
$GPRMC,011409.00,A,4919.18858,N,12419.05822,W,0.065,,210121,,,A
Methane (PPM) 363.57
Temperature (*c) 11.79
Pressure (hPa) 1020.29
Altitude (m) -58.39

Humidity (%) 54.09
$GPRMC,011411.00,A,4919.18867,N,12419.05820,W,0.038,,210121,,,A
Methane (PPM) 366.02
Temperature (*c) 11.78
Pressure (hPa) 1020.28
Altitude (m) -58.40

Humidity (%) 54.13
$GPRMC,011413.00,A,4919.18860,N,12419.05803,W,0.212,,210121,,,A
Methane (PPM) 363.57
Temperature (*c) 11.77
Pressure (hPa) 1020.26
Altitude (m) -58.09

Humidity (%) 54.29
$GPRMC,011415.00,A,4919.18871,N,12419.05796,W,0.022,,210121,,,A
Methane (PPM) 366.02
Temperature (*c) 11.76
Pressure (hPa) 1020.29
Altitude (m) -58.34

Humidity (%) 54.42
$GPRMC,011417.00,A,4919.18871,N,12419.05795,W,0.075,,210121,,,A
Methane (PPM) 366.02
Temperature (*c) 11.75
Pressure (hPa) 1020.27
Altitude (m) -58.30

Humidity (%) 54.64
$GPRMC,011419.00,A,4919.18864,N,12419.05785,W,0.034,,210121,,,A
Methane (PPM) 366.02
Temperature (*c) 11.74
Pressure (hPa) 1020.28
Altitude (m) -58.39

Humidity (%) 54.99
$GPRMC,011421.00,A,4919.18864,N,12419.05775,W,0.101,,210121,,,AA,4919.18859,N,12419.05775,W,0.048,,210121,,,A*6D
Methane (PPM) 366.02
Temperature (*c) 11.73
Pressure (hPa) 1020.26
Altitude (m) -58.23

Humidity (%) 55.11
$GPRMC,011424.00,A,4919.18857,N,12419.05771,W,0.025,,210121,,,A
Methane (PPM) 366.02
Temperature (*c) 11.73
Pressure (hPa) 1020.27
Altitude (m) -58.36

Humidity (%) 55.24
$GPRMC,011426.00,A,4919.18855,N,12419.05770,W,0.059,,210121,,,A
Methane (PPM) 366.02
Temperature (*c) 11.72
Pressure (hPa) 1020.25
Altitude (m) -57.97

Humidity (%) 55.36
$GPRMC,011428.00,A,4919.18825,N,12419.05777,W,0.737,,210121,,,A
Methane (PPM) 366.02
Temperature (*c) 11.72
Pressure (hPa) 1020.26
Altitude (m) -58.10

Humidity (%) 55.71
$GPRMC,011430.00,A,4919.18771,N,12419.05773,W,0.887,199.64,2101
Methane (PPM) 366.02
Temperature (*c) 11.71
Pressure (hPa) 1020.26
Altitude (m) -58.24

Humidity (%) 55.97
$GPRMC,011432.00,A,4919.18683,N,12419.05802,W,1.820,195.07,2101
Methane (PPM) 366.02
Temperature (*c) 11.71
Pressure (hPa) 1020.24
Altitude (m) -58.14

Humidity (%) 56.16
$GPRMC,011434.00,A,4919.18603,N,12419.05857,W,1.653,,210121,,,A
Methane (PPM) 366.02
Temperature (*c) 11.70
Pressure (hPa) 1020.25
Altitude (m) -58.14

Humidity (%) 56.16
$GPRMC,011436.00,A,4919.18557,N,12419.05915,W,0.619,,210121,,,A
Methane (PPM) 366.02
Temperature (*c) 11.70
Pressure (hPa) 1020.27
Altitude (m) -58.21

Humidity (%) 59.34
$GPRMC,011438.00,A,4919.18567,N,12419.05872,W,1.515,,210121,,,A
Methane (PPM) 366.02
Temperature (*c) 11.71
Pressure (hPa) 1020.24
Altitude (m) -58.37

Humidity (%) 61.16
$GPRMC,011440.00,A,4919.18563,N,12419.05535,W,5.479,100.41,2101919.18495,N,12419.04888,W,8.154,98.20,210121,,,A*43
Methane (PPM) 366.02
Temperature (*c) 11.71
Pressure (hPa) 1020.27
Altitude (m) -58.44

Humidity (%) 61.08
$GPRMC,011443.00,A,4919.18498,N,12419.04572,W,7.612,93.63,21012
Methane (PPM) 368.46
Temperature (*c) 11.72
Pressure (hPa) 1020.36
Altitude (m) -58.86

Humidity (%) 61.50
$GPRMC,011445.00,A,4919.18492,N,12419.03788,W,9.517,90.21,21012
Methane (PPM) 368.46
Temperature (*c) 11.73
Pressure (hPa) 1020.33
Altitude (m) -58.90

Humidity (%) 61.47
$GPRMC,011447.00,A,4919.18423,N,12419.02970,W,9.293,97.15,21012
Methane (PPM) 368.46
Temperature (*c) 11.73
Pressure (hPa) 1020.36
Altitude (m) -59.20

Humidity (%) 61.15
$GPRMC,011449.00,A,4919.18386,N,12419.02375,W,5.797,95.56,21012
Methane (PPM) 368.46
Temperature (*c) 11.73
Pressure (hPa) 1020.36
Altitude (m) -59.25

Humidity (%) 60.64
$GPRMC,011451.00,A,4919.18374,N,12419.02028,W,2.640,93.38,21012
Methane (PPM) 368.46
Temperature (*c) 11.74
Pressure (hPa) 1020.36
Altitude (m) -59.18

Humidity (%) 60.05
$GPRMC,011453.00,A,4919.18355,N,12419.01780,W,3.401,95.32,21012
Methane (PPM) 368.46
Temperature (*c) 11.74
Pressure (hPa) 1020.34
Altitude (m) -58.80

Humidity (%) 59.49
$GPRMC,011455.00,A,4919.18221,N,12419.01535,W,5.043,140.03,2101
Methane (PPM) 368.46
Temperature (*c) 11.74
Pressure (hPa) 1020.27
Altitude (m) -58.17

Humidity (%) 59.24
$GPRMC,011457.00,A,4919.17734,N,12419.01406,W,11.071,175.21,210
Methane (PPM) 368.46
Temperature (*c) 11.74
Pressure (hPa) 1020.15
Altitude (m) -57.10

Humidity (%) 59.13
$GPRMC,011459.00,A,4919.16904,N,12419.01363,W,16.889,178.91,2106,N,12419.01345,W,20.075,179.84,210121,,,A*4D
Methane (PPM) 368.46
Temperature (*c) 11.74
Pressure (hPa) 1020.04
Altitude (m) -56.04

Humidity (%) 59.80
$GPRMC,011502.00,A,4919.15249,N,12419.01302,W,21.403,177.20,210
Methane (PPM) 368.46
Temperature (*c) 11.75
Pressure (hPa) 1019.98
Altitude (m) -55.74

Humidity (%) 61.04
$GPRMC,011504.00,A,4919.14113,N,12419.01030,W,21.207,167.40,210
Methane (PPM) 368.46
Temperature (*c) 11.76
Pressure (hPa) 1019.95
Altitude (m) -55.49

Humidity (%) 61.73
$GPRMC,011506.00,A,4919.12942,N,12419.00318,W,20.431,153.54,210
Methane (PPM) 368.46
Temperature (*c) 11.76
Pressure (hPa) 1019.93
Altitude (m) -55.55

Humidity (%) 61.39
$GPRMC,011508.00,A,4919.12050,N,12418.99427,W,19.502,143.19,210
Methane (PPM) 368.46
Temperature (*c) 11.77
Pressure (hPa) 1019.94
Altitude (m) -55.29

Humidity (%) 60.65
$GPRMC,011510.00,A,4919.11263,N,12418.98283,W,19.085,133.06,210
Methane (PPM) 368.46
Temperature (*c) 11.77
Pressure (hPa) 1019.91
Altitude (m) -55.16

Humidity (%) 60.11
$GPRMC,011512.00,A,4919.10617,N,12418.96971,W,19.332,121.68,210
Methane (PPM) 368.46
Temperature (*c) 11.78
Pressure (hPa) 1019.87
Altitude (m) -55.23

Humidity (%) 59.84
$GPRMC,011514.00,A,4919.10176,N,12418.95490,W,19.265,110.99,210
Methane (PPM) 368.46
Temperature (*c) 11.78
Pressure (hPa) 1019.93
Altitude (m) -55.53

Humidity (%) 59.70
$GPRMC,011516.00,A,4919.09911,N,12418.93870,W,19.316,99.07,2101
Methane (PPM) 368.46
Temperature (*c) 11.78
Pressure (hPa) 1020.01
Altitude (m) -56.20

Humidity (%) 59.61
$GPRMC,011519.00,A,4919.09820,N,12418.91568,W,15.987,92.50,2101
Methane (PPM) 368.46
Temperature (*c) 11.78
Pressure (hPa) 1020.02
Altitude (m) -56.48

Humidity (%) 59.44
$GPRMC,011521.00,A,4919.09669,N,12418.90446,W,12.297,104.29,210
Methane (PPM) 368.46
Temperature (*c) 11.78
Pressure (hPa) 1020.05
Altitude (m) -56.39

Humidity (%) 59.25
$GPRMC,011523.00,A,4919.09306,N,12418.89759,W,9.500,136.26,2101
Methane (PPM) 368.46
Temperature (*c) 11.78
Pressure (hPa) 1020.01
Altitude (m) -55.83

Humidity (%) 59.09
$GPRMC,011525.00,A,4919.08814,N,12418.89542,W,10.734,167.13,210
Methane (PPM) 368.46
Temperature (*c) 11.79
Pressure (hPa) 1019.87
Altitude (m) -54.84

Humidity (%) 58.92
$GPRMC,011527.00,A,4919.08044,N,12418.89931,W,17.373,209.11,210
Methane (PPM) 368.46
Temperature (*c) 11.80
Pressure (hPa) 1019.73
Altitude (m) -53.34

Humidity (%) 58.82
$GPRMC,011529.00,A,4919.07058,N,12418.91033,W,24.462,218.11,210
Methane (PPM) 368.46
Temperature (*c) 11.80
Pressure (hPa) 1019.59
Altitude (m) -51.86

Humidity (%) 58.67
$GPRMC,011531.00,A,4919.05866,N,12418.92437,W,28.122,217.97,210
Methane (PPM) 368.46
Temperature (*c) 11.81
Pressure (hPa) 1019.44
Altitude (m) -51.37

Humidity (%) 58.55
$GPRMC,011533.00,A,4919.04577,N,12418.93995,W,29.801,218.34,210
Methane (PPM) 368.46
Temperature (*c) 11.80
Pressure (hPa) 1019.36
Altitude (m) -50.36

Humidity (%) 58.41
$GPRMC,011535.00,A,4919.03336,N,12418.95523,W,27.929,219.36,21079,N,12418.97012,W,27.116,220.21,210121,,,A*47
Methane (PPM) 368.46
Temperature (*c) 11.81
Pressure (hPa) 1019.21
Altitude (m) -49.23

Humidity (%) 58.34
$GPRMC,011538.00,A,4919.01628,N,12418.97806,W,27.005,223.23,210
Methane (PPM) 368.46
Temperature (*c) 11.81
Pressure (hPa) 1019.11
Altitude (m) -48.77

Humidity (%) 58.38
$GPRMC,011540.00,A,4919.00484,N,12418.99333,W,27.444,222.63,210
Methane (PPM) 368.46
Temperature (*c) 11.82
Pressure (hPa) 1018.97
Altitude (m) -47.47

Humidity (%) 58.55
$GPRMC,011542.00,A,4918.99335,N,12419.00986,W,29.057,222.26,210
Methane (PPM) 368.46
Temperature (*c) 11.83
Pressure (hPa) 1018.83
Altitude (m) -46.37

Humidity (%) 58.64
$GPRMC,011544.00,A,4918.98160,N,12419.02740,W,29.838,225.71,210
Methane (PPM) 368.46
Temperature (*c) 11.83
Pressure (hPa) 1018.72
Altitude (m) -45.54

Humidity (%) 58.63
$GPRMC,011546.00,A,4918.96926,N,12419.04494,W,30.469,225.00,210
Methane (PPM) 368.46
Temperature (*c) 11.84
Pressure (hPa) 1018.62
Altitude (m) -44.26

Humidity (%) 58.90
$GPRMC,011548.00,A,4918.95689,N,12419.06327,W,30.992,225.08,210
Methane (PPM) 368.46
Temperature (*c) 11.84
Pressure (hPa) 1018.53
Altitude (m) -43.43

Humidity (%) 58.97
$GPRMC,011550.00,A,4918.94454,N,12419.08185,W,31.078,225.27,210
Methane (PPM) 368.46
Temperature (*c) 11.85
Pressure (hPa) 1018.44
Altitude (m) -42.90

Humidity (%) 58.99
$GPRMC,011552.00,A,4918.93250,N,12419.10015,W,30.338,225.38,210$GPRMC,011554.00,A,4918.92073,N,12419.11826,W,30.025,224.78,210121,,,A*4E
Methane (PPM) 368.46
Temperature (*c) 11.85
Pressure (hPa) 1018.28
Altitude (m) -41.52

Humidity (%) 58.99
$GPRMC,011555.00,A,4918.91481,N,12419.12720,W,29.652,224.60,210
Methane (PPM) 368.46
Temperature (*c) 11.86
Pressure (hPa) 1018.16
Altitude (m) -40.50

Humidity (%) 59.02
$GPRMC,011557.00,A,4918.90333,N,12419.14506,W,29.543,225.49,210
Methane (PPM) 368.46
Temperature (*c) 11.86
Pressure (hPa) 1018.08
Altitude (m) -39.91

Humidity (%) 59.01
$GPRMC,011559.00,A,4918.89177,N,12419.16300,W,29.403,225.26,210
Methane (PPM) 370.90
Temperature (*c) 11.87
Pressure (hPa) 1017.96
Altitude (m) -39.22

Humidity (%) 59.01
$GPRMC,011601.00,A,4918.88036,N,12419.18099,W,29.338,225.91,210
Methane (PPM) 368.46
Temperature (*c) 11.88
Pressure (hPa) 1017.86
Altitude (m) -38.13

Humidity (%) 58.97
$GPRMC,011603.00,A,4918.86885,N,12419.19882,W,29.509,225.31,210
Methane (PPM) 370.90
Temperature (*c) 11.88
Pressure (hPa) 1017.73
Altitude (m) -37.68

Humidity (%) 58.93
$GPRMC,011605.00,A,4918.85711,N,12419.21675,W,30.058,225.35,210
Methane (PPM) 368.46
Temperature (*c) 11.89
Pressure (hPa) 1017.61
Altitude (m) -35.97

Humidity (%) 58.78
$GPRMC,011607.00,A,4918.84543,N,12419.23477,W,29.746,224.89,210
Methane (PPM) 368.46
Temperature (*c) 11.89
Pressure (hPa) 1017.51
Altitude (m) -35.31

Humidity (%) 58.69
$GPRMC,011609.00,A,4918.83359,N,12419.25229,W,29.630,223.39,210
Methane (PPM) 368.46
Temperature (*c) 11.90
Pressure (hPa) 1017.44
Altitude (m) -34.42

Humidity (%) 58.60
$GPRMC,011611.00,A,4918.82119,N,12419.26854,W,29.342,219.21,2102,N,12419.28321,W,28.661,215.02,210121,,,A*46
Methane (PPM) 370.90
Temperature (*c) 11.91
Pressure (hPa) 1017.34
Altitude (m) -33.83

Humidity (%) 58.55
$GPRMC,011614.00,A,4918.80181,N,12419.28971,W,27.659,213.37,210
Methane (PPM) 368.46
Temperature (*c) 11.92
Pressure (hPa) 1017.26
Altitude (m) -33.25

Humidity (%) 58.52
$GPRMC,011616.00,A,4918.78912,N,12419.30080,W,25.650,208.43,210
Methane (PPM) 368.46
Temperature (*c) 11.92
Pressure (hPa) 1017.24
Altitude (m) -33.07

Humidity (%) 58.48
$GPRMC,011618.00,A,4918.77728,N,12419.31029,W,23.320,206.34,210
Methane (PPM) 368.46
Temperature (*c) 11.92
Pressure (hPa) 1017.16
Altitude (m) -32.71

Humidity (%) 58.46
$GPRMC,011620.00,A,4918.76612,N,12419.31804,W,21.236,202.64,210
Methane (PPM) 368.46
Temperature (*c) 11.93
Pressure (hPa) 1017.18
Altitude (m) -32.58

Humidity (%) 58.45
$GPRMC,011622.00,A,4918.75591,N,12419.32412,W,18.601,200.46,210
Methane (PPM) 368.46
Temperature (*c) 11.93
Pressure (hPa) 1017.17
Altitude (m) -32.52

Humidity (%) 58.45
$GPRMC,011624.00,A,4918.74834,N,12419.32829,W,11.904,198.62,210
Methane (PPM) 370.90
Temperature (*c) 11.94
Pressure (hPa) 1017.20
Altitude (m) -32.72

Humidity (%) 58.43
$GPRMC,011626.00,A,4918.74422,N,12419.33015,W,4.988,196.83,2101
Methane (PPM) 368.46
Temperature (*c) 11.95
Pressure (hPa) 1017.21
Altitude (m) -32.85

Humidity (%) 58.39
$GPRMC,011628.00,A,4918.74369,N,12419.33040,W,0.026,,210121,,,A$GPRMC,011630.00,A,4918.74376,N,12419.33046,W,0.099,,210121,,,A*6E
Methane (PPM) 368.46
Temperature (*c) 11.95
Pressure (hPa) 1017.21
Altitude (m) -32.66

Humidity (%) 58.38
$GPRMC,011631.00,A,4918.74378,N,12419.33058,W,0.015,,210121,,,A
Methane (PPM) 370.90
Temperature (*c) 11.96
Pressure (hPa) 1017.18
Altitude (m) -33.02

Humidity (%) 58.38
$GPRMC,011633.00,A,4918.74375,N,12419.33054,W,0.112,,210121,,,A
Methane (PPM) 370.90
Temperature (*c) 11.96
Pressure (hPa) 1017.22
Altitude (m) -32.71

Humidity (%) 58.35
$GPRMC,011635.00,A,4918.74367,N,12419.33032,W,0.136,,210121,,,A
Methane (PPM) 370.90
Temperature (*c) 11.96
Pressure (hPa) 1017.19
Altitude (m) -32.82

Humidity (%) 58.30
$GPRMC,011637.00,A,4918.74365,N,12419.33031,W,0.118,,210121,,,A
Methane (PPM) 370.90
Temperature (*c) 11.97
Pressure (hPa) 1017.19
Altitude (m) -32.89

Humidity (%) 58.27
$GPRMC,011639.00,A,4918.74369,N,12419.33033,W,0.052,,210121,,,A
Methane (PPM) 370.90
Temperature (*c) 11.98
Pressure (hPa) 1017.19
Altitude (m) -32.84

Humidity (%) 58.25
$GPRMC,011641.00,A,4918.74364,N,12419.33029,W,0.067,,210121,,,A
Methane (PPM) 370.90
Temperature (*c) 11.99
Pressure (hPa) 1017.23
Altitude (m) -32.75

Humidity (%) 58.23
$GPRMC,011643.00,A,4918.74367,N,12419.33033,W,0.115,,210121,,,A
Methane (PPM) 370.90
Temperature (*c) 11.99
Pressure (hPa) 1017.20
Altitude (m) -32.92

Humidity (%) 58.21
$GPRMC,011645.00,A,4918.74357,N,12419.33015,W,0.142,,210121,,,A
Methane (PPM) 368.46
Temperature (*c) 12.00
Pressure (hPa) 1017.22
Altitude (m) -32.81

Humidity (%) 58.23
$GPRMC,011647.00,A,4918.74356,N,12419.33016,W,0.029,,210121,,,A.00,A,4918.74358,N,12419.33021,W,0.206,,210121,,,A*69
Methane (PPM) 370.90
Temperature (*c) 12.00
Pressure (hPa) 1017.21
Altitude (m) -32.82

Humidity (%) 58.77
$GPRMC,011650.00,A,4918.74351,N,12419.33011,W,0.220,,210121,,,A
Methane (PPM) 370.90
Temperature (*c) 12.03
Pressure (hPa) 1017.22
Altitude (m) -32.81

Humidity (%) 58.94
$GPRMC,011652.00,A,4918.74352,N,12419.33016,W,0.153,,210121,,,A
Methane (PPM) 370.90
Temperature (*c) 12.03
Pressure (hPa) 1017.20
Altitude (m) -32.69

Humidity (%) 58.97
$GPRMC,011654.00,A,4918.74320,N,12419.33023,W,0.960,195.78,2101
Methane (PPM) 370.90
Temperature (*c) 12.05
Pressure (hPa) 1017.18
Altitude (m) -32.73

Humidity (%) 58.93
$GPRMC,011656.00,A,4918.74192,N,12419.33069,W,3.248,196.56,2101
Methane (PPM) 370.90
Temperature (*c) 12.05
Pressure (hPa) 1017.15
Altitude (m) -32.40

Humidity (%) 58.85
$GPRMC,011658.00,A,4918.73820,N,12419.33236,W,9.290,197.12,2101
Methane (PPM) 370.90
Temperature (*c) 12.06
Pressure (hPa) 1017.07
Altitude (m) -31.58

Humidity (%) 58.79
$GPRMC,011700.00,A,4918.73126,N,12419.33493,W,14.450,194.02,210
Methane (PPM) 370.90
Temperature (*c) 12.07
Pressure (hPa) 1017.00
Altitude (m) -30.76

Humidity (%) 58.75
$GPRMC,011702.00,A,4918.72235,N,12419.33881,W,18.761,194.69,210
Methane (PPM) 370.90
Temperature (*c) 12.08
Pressure (hPa) 1016.84
Altitude (m) -29.42

Humidity (%) 58.72
$GPRMC,011704.00,A,4918.71044,N,12419.34376,W,24.428,194.70,210
Methane (PPM) 370.90
Temperature (*c) 12.09
Pressure (hPa) 1016.70
Altitude (m) -28.45

Humidity (%) 58.72
$GPRMC,011706.00,A,4918.69600,N,12419.34974,W,28.035,195.02,2104918.68013,N,12419.35650,W,31.102,195.41,210121,,,A*49
Methane (PPM) 370.90
Temperature (*c) 12.10
Pressure (hPa) 1016.55
Altitude (m) -27.15

Humidity (%) 58.74
$GPRMC,011709.00,A,4918.67154,N,12419.36007,W,32.476,195.38,210
Methane (PPM) 370.90
Temperature (*c) 12.10
Pressure (hPa) 1016.39
Altitude (m) -25.77

Humidity (%) 58.96
$GPRMC,011711.00,A,4918.65388,N,12419.36753,W,33.420,195.28,210M
ethane (PPM) 370.90
Temperature (*c) 12.11
Pressure (hPa) 1016.20
Altitude (m) -23.98

Humidity (%) 59.05
$GPRMC,011713.00,A,4918.63609,N,12419.37523,W,33.661,195.58,210
Methane (PPM) 370.90
Temperature (*c) 12.12
Pressure (hPa) 1016.04
Altitude (m) -22.73

Humidity (%) 59.01
$GPRMC,011715.00,A,4918.61827,N,12419.38290,W,33.319,195.74,210
Methane (PPM) 370.90
Temperature (*c) 12.14
Pressure (hPa) 1015.81
Altitude (m) -21.71

Humidity (%) 59.00
$GPRMC,011717.00,A,4918.60050,N,12419.39037,W,33.413,195.11,210
Methane (PPM) 373.34
Temperature (*c) 12.15
Pressure (hPa) 1015.77
Altitude (m) -19.83

Humidity (%) 58.98
$GPRMC,011719.00,A,4918.58291,N,12419.39760,W,31.764,195.06,210
Methane (PPM) 370.90
Temperature (*c) 12.15
Pressure (hPa) 1015.56
Altitude (m) -18.87

Humidity (%) 58.93
$GPRMC,011721.00,A,4918.56636,N,12419.40427,W,30.281,195.13,210
Methane (PPM) 373.34
Temperature (*c) 12.16
Pressure (hPa) 1015.41
Altitude (m) -17.80

Humidity (%) 58.86
$GPRMC,011723.00,A,4918.55019,N,12419.41087,W,29.924,195.33,210$GPRMC,011725.00,A,4918.53416,N,12419.41753,W,29.826,195.04,210121,,,A*49
Methane (PPM) 373.34
Temperature (*c) 12.17
Pressure (hPa) 1015.19
Altitude (m) -15.82

Humidity (%) 58.79
$GPRMC,011726.00,A,4918.52613,N,12419.42091,W,30.146,194.96,210
Methane (PPM) 373.34
Temperature (*c) 12.18
Pressure (hPa) 1015.03
Altitude (m) -14.22

Humidity (%) 58.72
$GPRMC,011728.00,A,4918.50997,N,12419.42765,W,30.372,195.09,210
Methane (PPM) 373.34
Temperature (*c) 12.18
Pressure (hPa) 1014.78
Altitude (m) -12.46

Humidity (%) 58.69
$GPRMC,011730.00,A,4918.49366,N,12419.43448,W,30.753,194.98,210
Methane (PPM) 373.34
Temperature (*c) 12.19
Pressure (hPa) 1014.72
Altitude (m) -11.81

Humidity (%) 58.64
$GPRMC,011732.00,A,4918.47714,N,12419.44137,W,31.168,195.03,210
Methane (PPM) 373.34
Temperature (*c) 12.20
Pressure (hPa) 1014.58
Altitude (m) -10.84

Humidity (%) 58.61
$GPRMC,011734.00,A,4918.46103,N,12419.44814,W,29.981,194.83,210
Methane (PPM) 373.34
Temperature (*c) 12.20
Pressure (hPa) 1014.43
Altitude (m) -9.60

Humidity (%) 58.60
$GPRMC,011736.00,A,4918.44459,N,12419.45504,W,31.567,195.11,210
Methane (PPM) 375.78
Temperature (*c) 12.21
Pressure (hPa) 1014.20
Altitude (m) -7.28

Humidity (%) 58.61
$GPRMC,011738.00,A,4918.42728,N,12419.46339,W,33.483,199.12,210
Methane (PPM) 375.78
Temperature (*c) 12.21
Pressure (hPa) 1013.97
Altitude (m) -5.08

Humidity (%) 58.61
$GPRMC,011740.00,A,4918.40929,N,12419.47443,W,35.754,203.58,210
Methane (PPM) 375.78
Temperature (*c) 12.22
Pressure (hPa) 1013.67
Altitude (m) -3.32

Humidity (%) 58.63
$GPRMC,011742.00,A,4918.39106,N,12419.48862,W,37.313,208.68,2105,N,12419.50535,W,37.291,212.83,210121,,,A*45
Methane (PPM) 375.78
Temperature (*c) 12.23
Pressure (hPa) 1013.37
Altitude (m) -0.55

Humidity (%) 58.70
$GPRMC,011745.00,A,4918.36491,N,12419.51424,W,37.152,214.66,210
Methane (PPM) 375.78
Temperature (*c) 12.24
Pressure (hPa) 1013.16
Altitude (m) 1.21

Humidity (%) 58.72
$GPRMC,011747.00,A,4918.34901,N,12419.53400,W,36.720,221.14,210
Methane (PPM) 375.78
Temperature (*c) 12.25
Pressure (hPa) 1012.94
Altitude (m) 2.97

Humidity (%) 58.64
$GPRMC,011749.00,A,4918.33467,N,12419.55562,W,36.166,227.66,210
Methane (PPM) 375.78
Temperature (*c) 12.27
Pressure (hPa) 1012.65
Altitude (m) 5.46

Humidity (%) 58.56
$GPRMC,011751.00,A,4918.32115,N,12419.57912,W,37.171,229.75,210
Methane (PPM) 375.78
Temperature (*c) 12.28
Pressure (hPa) 1012.41
Altitude (m) 7.06

Humidity (%) 58.53
$GPRMC,011753.00,A,4918.30871,N,12419.60398,W,36.835,235.24,210
Methane (PPM) 375.78
Temperature (*c) 12.29
Pressure (hPa) 1012.14
Altitude (m) 9.84

Humidity (%) 58.59
$GPRMC,011755.00,A,4918.29821,N,12419.63060,W,36.583,241.48,210
Methane (PPM) 375.78
Temperature (*c) 12.30
Pressure (hPa) 1011.95
Altitude (m) 11.58

Humidity (%) 58.67
$GPRMC,011757.00,A,4918.28905,N,12419.65853,W,36.784,245.20,210
Methane (PPM) 375.78
Temperature (*c) 12.32
Pressure (hPa) 1011.67
Altitude (m) 13.80

Humidity (%) 58.71
$GPRMC,011759.00,A,4918.28203,N,12419.68807,W,37.062,251.56,210$GPRMC,011801.00,A,4918.27682,N,12419.71895,W,38.147,256.89,210121,,,A*4D
Methane (PPM) 375.78
Temperature (*c) 12.32
Pressure (hPa) 1011.35
Altitude (m) 16.29

Humidity (%) 58.73
$GPRMC,011802.00,A,4918.27488,N,12419.73520,W,38.936,260.10,210
Methane (PPM) 375.78
Temperature (*c) 12.33
Pressure (hPa) 1011.14
Altitude (m) 17.73

Humidity (%) 58.72
$GPRMC,011804.00,A,4918.27292,N,12419.76824,W,39.408,265.79,210
Methane (PPM) 378.22
Temperature (*c) 12.35
Pressure (hPa) 1011.04
Altitude (m) 18.78

Humidity (%) 58.71
$GPRMC,011806.00,A,4918.27220,N,12419.80193,W,39.440,269.95,210
Methane (PPM) 378.22
Temperature (*c) 12.35
Pressure (hPa) 1010.89
Altitude (m) 19.89

Humidity (%) 58.70
$GPRMC,011808.00,A,4918.27258,N,12419.83567,W,39.883,270.91,210
Methane (PPM) 378.22
Temperature (*c) 12.36
Pressure (hPa) 1010.81
Altitude (m) 20.19

Humidity (%) 58.69
$GPRMC,011810.00,A,4918.27321,N,12419.86956,W,39.729,272.44,210
Methane (PPM) 375.78
Temperature (*c) 12.37
Pressure (hPa) 1010.81
Altitude (m) 20.32

Humidity (%) 58.65
$GPRMC,011812.00,A,4918.27410,N,12419.90304,W,39.016,272.37,210
Methane (PPM) 378.22
Temperature (*c) 12.37
Pressure (hPa) 1010.73
Altitude (m) 20.84

Humidity (%) 58.64
$GPRMC,011814.00,A,4918.27476,N,12419.93578,W,38.389,272.05,210
Methane (PPM) 378.22
Temperature (*c) 12.38
Pressure (hPa) 1010.69
Altitude (m) 21.21

Humidity (%) 58.66
$GPRMC,011816.00,A,4918.27541,N,12419.96849,W,38.505,271.90,210$GPRMC,011818.00,A,4918.27605,N,12420.00096,W,38.204,271.18,210121,,,A*44
Methane (PPM) 378.22
Temperature (*c) 12.39
Pressure (hPa) 1010.66
Altitude (m) 21.55

Humidity (%) 58.66
$GPRMC,011819.00,A,4918.27621,N,12420.01711,W,38.026,270.77,210
Methane (PPM) 378.22
Temperature (*c) 12.39
Pressure (hPa) 1010.65
Altitude (m) 21.46

Humidity (%) 58.68
$GPRMC,011821.00,A,4918.27644,N,12420.04918,W,37.574,270.65,210
Methane (PPM) 378.22
Temperature (*c) 12.40
Pressure (hPa) 1010.60
Altitude (m) 21.83

Humidity (%) 58.72
$GPRMC,011823.00,A,4918.27687,N,12420.08129,W,37.899,271.47,210
Methane (PPM) 378.22
Temperature (*c) 12.40
Pressure (hPa) 1010.62
Altitude (m) 22.27

Humidity (%) 58.74
$GPRMC,011825.00,A,4918.27725,N,12420.11391,W,38.649,270.50,210
Methane (PPM) 378.22
Temperature (*c) 12.41
Pressure (hPa) 1010.55
Altitude (m) 22.12

Humidity (%) 58.72
$GPRMC,011827.00,A,4918.27717,N,12420.14720,W,39.431,268.56,210
Methane (PPM) 378.22
Temperature (*c) 12.42
Pressure (hPa) 1010.51
Altitude (m) 23.17

Humidity (%) 58.79
$GPRMC,011829.00,A,4918.27605,N,12420.18024,W,38.522,265.75,210
Methane (PPM) 378.22
Temperature (*c) 12.43
Pressure (hPa) 1010.50
Altitude (m) 23.14

Humidity (%) 58.91
$GPRMC,011831.00,A,4918.27501,N,12420.21310,W,38.808,267.69,210
Methane (PPM) 378.22
Temperature (*c) 12.45
Pressure (hPa) 1010.45
Altitude (m) 23.07

Humidity (%) 58.97
$GPRMC,011833.00,A,4918.27457,N,12420.24631,W,39.352,269.46,210
Methane (PPM) 378.22
Temperature (*c) 12.46
Pressure (hPa) 1010.36
Altitude (m) 23.83

Humidity (%) 59.09
$GPRMC,011835.00,A,4918.27489,N,12420.28011,W,39.976,270.91,2109,N,12420.31395,W,39.726,270.42,210121,,,A*4F
Methane (PPM) 378.22
Temperature (*c) 12.47
Pressure (hPa) 1010.41
Altitude (m) 23.61

Humidity (%) 59.08
$GPRMC,011838.00,A,4918.27534,N,12420.33086,W,39.908,270.53,210
Methane (PPM) 378.22
Temperature (*c) 12.48
Pressure (hPa) 1010.45
Altitude (m) 23.46

Humidity (%) 59.03
$GPRMC,011840.00,A,4918.27562,N,12420.36472,W,39.896,270.88,210
Methane (PPM) 378.22
Temperature (*c) 12.49
Pressure (hPa) 1010.50
Altitude (m) 22.47

Humidity (%) 59.01
$GPRMC,011842.00,A,4918.27592,N,12420.39853,W,39.916,270.77,210
Methane (PPM) 378.22
Temperature (*c) 12.50
Pressure (hPa) 1010.64
Altitude (m) 21.95

Humidity (%) 59.01
$GPRMC,011844.00,A,4918.27623,N,12420.43229,W,39.256,270.75,210
Methane (PPM) 378.22
Temperature (*c) 12.51
Pressure (hPa) 1010.70
Altitude (m) 20.84

Humidity (%) 59.04
$GPRMC,011846.00,A,4918.27657,N,12420.46508,W,38.266,271.08,210
Methane (PPM) 378.22
Temperature (*c) 12.52
Pressure (hPa) 1010.72
Altitude (m) 20.41

Humidity (%) 59.08
$GPRMC,011848.00,A,4918.27699,N,12420.49741,W,37.908,271.17,210
Methane (PPM) 378.22
Temperature (*c) 12.52
Pressure (hPa) 1010.80
Altitude (m) 21.44

Humidity (%) 59.10
$GPRMC,011850.00,A,4918.27745,N,12420.52972,W,38.191,271.44,210
Methane (PPM) 378.22
Temperature (*c) 12.53
Pressure (hPa) 1010.76
Altitude (m) 20.78

Humidity (%) 59.09
$GPRMC,011852.00,A,4918.27788,N,12420.56179,W,37.441,270.27,210PRMC,011854.00,A,4918.27821,N,12420.59360,W,37.178,270.66,210121,,,A*4D
Methane (PPM) 378.22
Temperature (*c) 12.55
Pressure (hPa) 1010.66
Altitude (m) 21.59

Humidity (%) 59.08
$GPRMC,011855.00,A,4918.27844,N,12420.60952,W,37.422,270.84,210
Methane (PPM) 378.22
Temperature (*c) 12.56
Pressure (hPa) 1010.56
Altitude (m) 22.34

Humidity (%) 59.05
$GPRMC,011857.00,A,4918.27884,N,12420.64159,W,37.650,271.05,210
Methane (PPM) 378.22
Temperature (*c) 12.57
Pressure (hPa) 1010.43
Altitude (m) 23.39

Humidity (%) 59.02
$GPRMC,011859.00,A,4918.27931,N,12420.67364,W,37.665,271.22,210
Methane (PPM) 378.22
Temperature (*c) 12.58
Pressure (hPa) 1010.38
Altitude (m) 24.08

Humidity (%) 59.00
$GPRMC,011901.00,A,4918.27975,N,12420.70555,W,37.506,270.73,210
Methane (PPM) 378.22
Temperature (*c) 12.58
Pressure (hPa) 1010.31
Altitude (m) 25.00

Humidity (%) 58.96
$GPRMC,011903.00,A,4918.28009,N,12420.73748,W,37.207,270.82,210
Methane (PPM) 378.22
Temperature (*c) 12.59
Pressure (hPa) 1010.15
Altitude (m) 25.75

Humidity (%) 58.93
$GPRMC,011905.00,A,4918.28042,N,12420.76911,W,37.162,270.72,210
Methane (PPM) 378.22
Temperature (*c) 12.60
Pressure (hPa) 1010.11
Altitude (m) 26.35

Humidity (%) 58.95
$GPRMC,011907.00,A,4918.28085,N,12420.80043,W,36.797,270.95,210
Methane (PPM) 378.22
Temperature (*c) 12.60
Pressure (hPa) 1010.04
Altitude (m) 26.83

Humidity (%) 58.93
$GPRMC,011909.00,A,4918.28136,N,12420.83190,W,37.314,271.26,210$GPRMC,011911.00,A,4918.28238,N,12420.86411,W,38.260,273.64,210121,,,A*47
Methane (PPM) 378.22
Temperature (*c) 12.62
Pressure (hPa) 1009.96
Altitude (m) 27.56

Humidity (%) 58.89
$GPRMC,011912.00,A,4918.28315,N,12420.88044,W,39.125,274.86,210
Methane (PPM) 375.78
Temperature (*c) 12.62
Pressure (hPa) 1009.91
Altitude (m) 28.33

Humidity (%) 58.86
$GPRMC,011914.00,A,4918.28572,N,12420.91362,W,39.717,277.86,210
Methane (PPM) 378.22
Temperature (*c) 12.64
Pressure (hPa) 1009.71
Altitude (m) 28.81

Humidity (%) 58.86
$GPRMC,011916.00,A,4918.28906,N,12420.94700,W,39.965,279.71,210
Methane (PPM) 375.78
Temperature (*c) 12.65
Pressure (hPa) 1009.79
Altitude (m) 29.56

Humidity (%) 58.87
$GPRMC,011918.00,A,4918.29338,N,12420.98039,W,39.975,282.78,210
Methane (PPM) 378.22
Temperature (*c) 12.67
Pressure (hPa) 1009.71
Altitude (m) 29.65

Humidity (%) 58.92
$GPRMC,011920.00,A,4918.29856,N,12421.01314,W,39.542,283.93,210
Methane (PPM) 378.22
Temperature (*c) 12.67
Pressure (hPa) 1009.63
Altitude (m) 30.03

Humidity (%) 58.92
$GPRMC,011922.00,A,4918.30367,N,12421.04565,W,39.261,283.62,210
Methane (PPM) 375.78
Temperature (*c) 12.69
Pressure (hPa) 1009.63
Altitude (m) 30.41

Humidity (%) 58.91
$GPRMC,011924.00,A,4918.30867,N,12421.07799,W,38.883,283.79,210
Methane (PPM) 375.78
Temperature (*c) 12.70
Pressure (hPa) 1009.63
Altitude (m) 30.36

Humidity (%) 58.92
$GPRMC,011926.00,A,4918.31390,N,12421.11005,W,38.681,284.31,210
Methane (PPM) 375.78
Temperature (*c) 12.72
Pressure (hPa) 1009.57
Altitude (m) 30.68

Humidity (%) 58.91
$GPRMC,011928.00,A,4918.31908,N,12421.14197,W,38.794,283.96,21032420,N,12421.17418,W,38.991,283.67,210121,,,A*49
Methane (PPM) 375.78
Temperature (*c) 12.73
Pressure (hPa) 1009.53
Altitude (m) 31.23

Humidity (%) 58.91
$GPRMC,011931.00,A,4918.32667,N,12421.19034,W,39.055,283.25,210
Methane (PPM) 375.78
Temperature (*c) 12.74
Pressure (hPa) 1009.51
Altitude (m) 31.39

Humidity (%) 58.89
$GPRMC,011933.00,A,4918.33114,N,12421.22267,W,38.609,282.01,210
Methane (PPM) 375.78
Temperature (*c) 12.75
Pressure (hPa) 1009.46
Altitude (m) 31.51

Humidity (%) 58.84
$GPRMC,011935.00,A,4918.33507,N,12421.25446,W,37.624,280.40,210
Methane (PPM) 375.78
Temperature (*c) 12.76
Pressure (hPa) 1009.43
Altitude (m) 31.41

Humidity (%) 58.79
$GPRMC,011937.00,A,4918.33850,N,12421.28509,W,35.590,279.65,210
Methane (PPM) 375.78
Temperature (*c) 12.77
Pressure (hPa) 1009.43
Altitude (m) 31.71

Humidity (%) 58.76
$GPRMC,011939.00,A,4918.34139,N,12421.31371,W,33.298,277.86,210
Methane (PPM) 375.78
Temperature (*c) 12.78
Pressure (hPa) 1009.49
Altitude (m) 31.49

Humidity (%) 58.77
$GPRMC,011941.00,A,4918.34340,N,12421.33982,W,28.624,276.42,210
Methane (PPM) 375.78
Temperature (*c) 12.79
Pressure (hPa) 1009.53
Altitude (m) 31.04

Humidity (%) 58.76
$GPRMC,011943.00,A,4918.34486,N,12421.36040,W,22.054,275.84,210
Methane (PPM) 375.78
Temperature (*c) 12.80
Pressure (hPa) 1009.57
Altitude (m) 30.65

Humidity (%) 58.71
$GPRMC,011945.00,A,4918.34549,N,12421.37519,W,14.285,270.81,210$GPRMC,011947.00,A,4918.34292,N,12421.38368,W,10.850,237.59,210121,,,A*49
Methane (PPM) 375.78
Temperature (*c) 12.81
Pressure (hPa) 1009.58
Altitude (m) 30.22

Humidity (%) 58.63
$GPRMC,011948.00,A,4918.34038,N,12421.38610,W,10.451,212.45,210
Methane (PPM) 375.78
Temperature (*c) 12.83
Pressure (hPa) 1009.59
Altitude (m) 30.47

Humidity (%) 58.61
$GPRMC,011950.00,A,4918.33403,N,12421.38800,W,13.260,187.04,210
Methane (PPM) 375.78
Temperature (*c) 12.84
Pressure (hPa) 1009.57
Altitude (m) 30.74

Humidity (%) 58.60
$GPRMC,011952.00,A,4918.32522,N,12421.38897,W,17.440,183.87,210
Methane (PPM) 375.78
Temperature (*c) 12.86
Pressure (hPa) 1009.54
Altitude (m) 30.95

Humidity (%) 58.58
$GPRMC,011954.00,A,4918.31521,N,12421.38957,W,18.209,182.07,210
Methane (PPM) 375.78
Temperature (*c) 12.87
Pressure (hPa) 1009.50
Altitude (m) 31.27

Humidity (%) 58.54
$GPRMC,011956.00,A,4918.30483,N,12421.38992,W,18.837,181.54,210
Methane (PPM) 375.78
Temperature (*c) 12.88
Pressure (hPa) 1009.45
Altitude (m) 31.91

Humidity (%) 58.49
$GPRMC,011958.00,A,4918.29421,N,12421.39042,W,19.076,182.45,210
Methane (PPM) 375.78
Temperature (*c) 12.89
Pressure (hPa) 1009.35
Altitude (m) 32.94

Humidity (%) 58.41
$GPRMC,012000.00,A,4918.28333,N,12421.39107,W,19.551,182.87,210
Methane (PPM) 375.78
Temperature (*c) 12.94
Pressure (hPa) 1009.25
Altitude (m) 33.47

Humidity (%) 58.22
$GPRMC,012002.00,A,4918.27227,N,12421.39197,W,19.401,184.59,210$GPRMC,012004.00,A,4918.26119,N,12421.39283,W,19.278,182.96,210121,,,A*45
Methane (PPM) 375.78
Temperature (*c) 12.97
Pressure (hPa) 1009.22
Altitude (m) 33.85

Humidity (%) 57.86
$GPRMC,012005.00,A,4918.25608,N,12421.39338,W,18.071,184.69,210
Methane (PPM) 375.78
Temperature (*c) 13.00
Pressure (hPa) 1009.21
Altitude (m) 33.68

Humidity (%) 57.58
$GPRMC,012007.00,A,4918.24591,N,12421.39561,W,18.724,191.28,210
Methane (PPM) 375.78
Temperature (*c) 13.04
Pressure (hPa) 1009.21
Altitude (m) 33.82

Humidity (%) 57.48
$GPRMC,012009.00,A,4918.23633,N,12421.39985,W,18.032,199.38,210
Methane (PPM) 375.78
Temperature (*c) 13.09
Pressure (hPa) 1009.26
Altitude (m) 33.00

Humidity (%) 57.45
$GPRMC,012011.00,A,4918.22737,N,12421.40521,W,17.305,203.59,210
Methane (PPM) 375.78
Temperature (*c) 13.12
Pressure (hPa) 1009.33
Altitude (m) 32.22

Humidity (%) 57.40
$GPRMC,012013.00,A,4918.21770,N,12421.40919,W,17.745,195.92,210
Methane (PPM) 375.78
Temperature (*c) 13.14
Pressure (hPa) 1009.32
Altitude (m) 33.03

Humidity (%) 57.31
$GPRMC,012015.00,A,4918.20775,N,12421.41327,W,19.032,192.11,210
Methane (PPM) 375.78
Temperature (*c) 13.16
Pressure (hPa) 1009.31
Altitude (m) 32.86

Humidity (%) 57.25
$GPRMC,012017.00,A,4918.19760,N,12421.41600,W,17.752,189.27,210
Methane (PPM) 375.78
Temperature (*c) 13.18
Pressure (hPa) 1009.30
Altitude (m) 32.83

Humidity (%) 57.23
$GPRMC,012019.00,A,4918.18771,N,12421.41567,W,17.962,176.77,210$GPRMC,012021.00,A,4918.17793,N,12421.41060,W,19.412,154.94,210121,,,A*47
Methane (PPM) 375.78
Temperature (*c) 13.20
Pressure (hPa) 1009.33
Altitude (m) 32.82

Humidity (%) 57.27
$GPRMC,012022.00,A,4918.17266,N,12421.40686,W,20.486,154.85,210
Methane (PPM) 375.78
Temperature (*c) 13.21
Pressure (hPa) 1009.28
Altitude (m) 33.18

Humidity (%) 57.38
$GPRMC,012024.00,A,4918.16261,N,12421.39942,W,18.780,152.22,210
Methane (PPM) 375.78
Temperature (*c) 13.23
Pressure (hPa) 1009.21
Altitude (m) 33.68

Humidity (%) 57.40
$GPRMC,012026.00,A,4918.15270,N,12421.39208,W,18.658,152.78,210
Methane (PPM) 375.78
Temperature (*c) 13.25
Pressure (hPa) 1009.21
Altitude (m) 33.70

Humidity (%) 57.52
$GPRMC,012028.00,A,4918.14192,N,12421.38398,W,20.362,153.58,210
Methane (PPM) 375.78
Temperature (*c) 13.27
Pressure (hPa) 1009.22
Altitude (m) 33.98

Humidity (%) 57.61
$GPRMC,012030.00,A,4918.13253,N,12421.37651,W,17.888,150.32,210
Methane (PPM) 375.78
Temperature (*c) 13.28
Pressure (hPa) 1009.23
Altitude (m) 33.42

Humidity (%) 57.58
$GPRMC,012032.00,A,4918.12509,N,12421.36785,W,16.135,140.06,210
Methane (PPM) 375.78
Temperature (*c) 13.29
Pressure (hPa) 1009.32
Altitude (m) 32.59

Humidity (%) 57.57
$GPRMC,012034.00,A,4918.12131,N,12421.35734,W,13.852,117.71,210
Methane (PPM) 375.78
Temperature (*c) 13.30
Pressure (hPa) 1009.33
Altitude (m) 32.72

Humidity (%) 57.58
$GPRMC,012036.00,A,4918.12046,N,12421.34334,W,17.784,93.39,2101$GPRMC,012038.00,A,4918.11941,N,12421.32416,W,22.080,90.69,210121,,,A*75
Temperature (*c) 13.32
Pressure (hPa) 1009.46
Altitude (m) 31.66

Humidity (%) 57.63
$GPRMC,012041.00,A,4918.11796,N,12421.29527,W,21.536,94.68,2101
Methane (PPM) 375.78
Temperature (*c) 13.36
Pressure (hPa) 1009.62
Altitude (m) 30.06

Humidity (%) 57.70
$GPRMC,012043.00,A,4918.11682,N,12421.27782,W,18.852,96.32,2101
Methane (PPM) 375.78
Temperature (*c) 13.39
Pressure (hPa) 1009.63
Altitude (m) 29.98

Humidity (%) 57.88
$GPRMC,012045.00,A,4918.11401,N,12421.26554,W,14.548,116.65,210
Methane (PPM) 375.78
Temperature (*c) 13.42
Pressure (hPa) 1009.64
Altitude (m) 29.89

Humidity (%) 57.63
$GPRMC,012047.00,A,4918.10679,N,12421.25656,W,14.936,143.48,210
Methane (PPM) 375.78
Temperature (*c) 13.46
Pressure (hPa) 1009.65
Altitude (m) 30.01

Humidity (%) 57.43
$GPRMC,012049.00,A,4918.09907,N,12421.25506,W,14.077,172.65,210
Methane (PPM) 375.78
Temperature (*c) 13.47
Pressure (hPa) 1009.62
Altitude (m) 30.48
