+839.65
@28.51
#1014.90
%-87.99
:2
&31.32
GPRMC,062646.00,A,4916.54909,N,12416.61940,W,0.076,,110221,,,D*
+839.65
@28.51
#1014.92
%-88.13
:5
&31.32
$GPRMC,062649.00,A,4916.54893,N,12416.61920,W,0.209,,110221,,,D2416.61909,W,062651.00,A,D*77

+839.65
@28.52
#1014.92
%-87.95
:7
&31.29
$GPRMC,062652.00,A,4916.54879,N,12416.61902,W,0.321,,110221,,,D61883,W,2,10,0.93,89.3,M,-17.7,M,,0000*5A

+839.65
@28.51
#1014.91
%-87.92
:10
&31.29
$GPGSA,A,3,20,23,02,18,29,25,46,05,51,26,,,1.67,0.93,1.38*01

+839.65
@28.50
#1014.91
%-87.79
:12
&31.29
$$GPRMC,062657.00,A,4916.54884,N,12416.61878,W,0.228,,110221,,,,18,47,255,28,20,15,205,18,23,10,200,21*70

+839.65
@28.51
#1014.89
%-87.83
:15
&31.29
$GPGSV,4,3,14,25,29,189,23,26,33,303,26,29,84,084,30,31,05,261,
+839.65
@28.51
#1014.91
%-87.90
:18
&31.30
$GPRMC,062702.00,A,4916.54883,N,12416.61862,W,0.073,,110221,,,D04.00,A,D*7F

+839.65
@28.50
#1014.91
%-88.05
:20
&31.31
$GPRMC,062705.00,A,4916.54884,N,12416.61856,W,0.126,,110221,,,D52,W,2,10,0.93,89.3,M,-17.7,M,,0000*5E

+839.65
@28.49
#1014.90
%-88.06
:23
&31.33
$GPGSA,A,3,20,23,02,18,29,25,46,05,51,26,,,1.67,0.93,1.38*01

+839.65
@28.49
#1014.93
%-88.01
:25
&31.38
$$GPRMC,062710.00,A,4916.54905,N,12416.61851,W,0.030,,110221,,,4,,18,47,255,29,20,15,205,16,23,10,200,23*7D

+839.65
@28.49
#1014.93
%-88.10
:28
&31.39
$GPGSV,4,3,14,25,29,189,22,26,33,302,26,29,84,087,30,31,05,260,
+839.65
@28.47
#1014.90
%-87.95
:31
&31.39
$GPRMC,062715.00,A,4916.54908,N,12416.61847,W,0.087,,110221,,,D,A,D*72

+839.65
@28.46
#1014.91
%-88.21
:33
&31.39
$GPRMC,062718.00,A,4916.54913,N,12416.61848,W,0.103,,110221,,,D61850,W,2,10,0.93,89.2,M,-17.7,M,,0000*51

+839.65
@28.45
#1014.93
%-88.05
:36
&31.40
$GPGSA,A,3,20,23,02,18,29,25,46,05,51,26,,,1.67,0.93,1.38*01

+839.65
@28.44
#1014.92
%-88.02
:38
&31.41
$$GPRMC,062723.00,A,4916.54901,N,12416.61847,W,0.043,,110221,,,18,47,255,31,20,15,205,12,23,10,200,26*75

+839.65
@28.46
#1014.93
%-87.90
:41
&31.41
$GPGSV,4,3,14,25,29,189,23,26,33,302,28,29,84,087,31,31,05,260,
+839.65
@28.47
#1014.93
%-88.08
:44
&31.46
$GPRMC,062728.00,A,4916.54883,N,12416.61859,W,0.047,,110221,,,D,A,D*73

+842.09
@28.47
#1014.93
%-88.18
:46
&31.49
$GPRMC,062731.00,A,4916.54869,N,12416.61857,W,0.099,,110221,,,D.61851,W,2,10,0.93,91.4,M,-17.7,M,,0000*50

+839.65
@28.47
#1014.93
%-88.05
:49
&31.47
$GPGSA,A,3,20,23,02,18,29,25,46,05,51,26,,,1.67,0.93,1.39*00

+839.65
@28.45
#1014.90
%-88.11
:51
&31.46
$$GPRMC,062736.00,A,4916.54850,N,12416.61850,W,0.088,,110221,,,18,47,255,28,20,15,205,21,23,10,200,27*7B

+839.65
@28.48
#1014.92
%-87.87
:54
&31.46
$GPGSV,4,3,14,25,29,189,19,26,33,302,28,29,84,087,31,31,05,260,
+839.65
@28.48
#1014.92
%-88.34
:57
&31.46
$GPRMC,062741.00,A,4916.54849,N,12416.61849,W,0.161,,110221,,,D.00,A,D*78

+839.65
@28.48
#1014.91
%-88.13
:59
&33.04
$GPRMC,062744.00,A,4916.54850,N,12416.61851,W,0.145,,110221,,,D45,W,2,09,0.97,93.4,M,-17.7,M,,0000*57

+854.30
@28.47
#1014.91
%-88.01
:62
&31.85
$GPGSA,A,3,20,23,02,18,29,25,05,51,26,,,,1.71,0.97,1.41*0E

+844.53
@28.46
#1014.92
%-87.99
:64
&31.63
$GP$GPRMC,062749.00,A,4916.54848,N,12416.61840,W,0.226,,110221,23,,18,47,255,31,20,15,205,22,23,11,200,26*70

+842.09
@28.47
#1014.94
%-88.16
:67
&31.55
$GPGSV,4,3,14,25,28,189,22,26,33,302,28,29,84,089,31,31,04,260,
+839.65
@28.48
#1014.94
%-88.08
:70
&31.49
$GPRMC,062754.00,A,4916.54838,N,12416.61824,W,0.084,,110221,,,D6.00,A,D*74

+839.65
@28.47
#1014.94
%-88.22
:72
&31.45
$GPRMC,062757.00,A,4916.54834,N,12416.61818,W,0.074,,110221,,,DW,2,10,0.93,94.1,M,-17.7,M,,0000*50

+839.65
@28.48
#1014.91
%-88.21
:75
&31.43
$GPGSA,A,3,20,23,02,18,29,25,46,05,51,26,,,1.67,0.93,1.39*00

+839.65
@28.47
#1014.94
%-88.21
:77
&31.41
$$GPRMC,062802.00,A,4916.54840,N,12416.61812,W,0.100,,110221,,,,18,47,255,30,20,15,205,21,23,11,200,25*71

+839.65
@28.47
#1014.93
%-88.33
:80
&31.39
$GPGSV,4,3,14,25,28,189,19,26,33,302,28,29,84,089,32,31,04,260,
+837.21
@28.47
#1014.95
%-88.33
:83
&31.38
$GPRMC,062807.00,A,4916.54828,N,12416.61809,W,0.061,,110221,,,D62809.00,A,D*7B

+837.21
@28.47
#1014.92
%-88.27
:85
&31.37
$GPRMC,062810.00,A,4916.54824,N,12416.61808,W,0.099,,110221,,,D6,W,2,10,0.93,93.8,M,-17.7,M,,0000*5E

+837.21
@28.49
#1014.91
%-88.35
:88
&31.36
$GPGSA,A,3,20,23,02,18,29,25,46,05,51,26,,,1.67,0.93,1.39*00

+837.21
@28.50
#1014.94
%-88.17
:90
&31.35
$$GPRMC,062815.00,A,4916.54811,N,12416.61793,W,0.098,,110221,,,255,28,20,15,205,18,23,11,200,24*73

+837.21
@28.52
#1014.96
%-88.22
:93
&31.33
$GPGSV,4,3,14,25,28,189,13,26,33,302,29,29,84,089,32,31,04,260,
+837.21
@28.53
#1014.92
%-88.30
:96
&31.32
$GPRMC,062820.00,A,4916.54807,N,12416.61794,W,0.063,,110221,,,D22.00,A,D*78

+837.21
@28.53
#1014.94
%-88.18
:98
&31.31
$GPRMC,062823.00,A,4916.54814,N,12416.61793,W,0.050,,110221,,,D6.61794,W,2,10,0.93,93.4,M,-17.7,M,,0000*50

+837.21
@28.54
#1014.93
%-88.24
:101
&31.28
$GPGSA,A,3,20,23,02,18,29,25,46,05,51,26,,,1.67,0.93,1.39*00

+837.21
@28.53
#1014.94
%-88.38
:103
&31.26
$$GPRMC,062828.00,A,4916.54818,N,12416.61792,W,0.162,,110221,,,,18,48,255,31,20,15,205,14,23,11,200,22*7B

+837.21
@28.53
#1014.96
%-88.30
:106
&31.25
$GPGSV,4,3,14,25,28,189,20,26,33,302,27,29,84,089,34,31,04,260,
+837.21
@28.53
#1014.95
%-88.25
:109
&31.24
$GPRMC,062833.00,A,4916.54812,N,12416.61768,W,0.065,,110221,,,DD*73

+837.21
@28.54
#1014.95
%-88.12
:111
&31.24
$GPRMC,062836.00,A,4916.54813,N,12416.61770,W,0.055,,110221,,,D.61775,W,2,09,1.28,93.7,M,-17.7,M,,0000*51

+837.21
@28.54
#1014.96
%-88.38
:114
&31.23
$GPGSA,A,3,23,02,18,29,25,46,05,51,26,,,,2.57,1.28,2.23*0B

+837.21
@28.56
#1014.96
%-88.30
:116
&31.23
$GP$GPRMC,062841.00,A,4916.54813,N,12416.61775,W,0.004,,110221,48,255,30,20,15,205,13,23,11,200,21*72

+837.21
@28.56
#1014.98
%-88.39
:119
&31.22
$GPGSV,4,3,14,25,28,189,21,26,33,302,26,29,83,091,34,31,04,260,
+837.21
@28.55
#1014.95
%-88.45
:122
&31.21
$GPRMC,062846.00,A,4916.54806,N,12416.61771,W,0.053,,110221,,,D848.00,A,D*75

+837.21
@28.58
#1014.95
%-88.19
:124
&31.19
$GPRMC,062849.00,A,4916.54808,N,12416.61769,W,0.018,,110221,,,D771,W,2,08,1.28,92.6,M,-17.7,M,,0000*52

+837.21
@28.55
#1014.96
%-88.45
:127
&31.18
$GPGSA,A,3,23,18,29,25,46,05,51,26,,,,,2.58,1.28,2.23*06

+837.21
@28.56
#1014.97
%-88.45
:129
&31.18
$GPGS$GPRMC,062854.00,A,4916.54817,N,12416.61781,W,0.085,,1102212,323,18,18,48,255,28,20,15,205,08,23,11,200,23*73

+837.21
@28.59
#1014.99
%-88.52
:132
&31.17
$GPGSV,4,3,14,25,28,189,22,26,33,302,25,29,83,091,34,31,04,260,
+837.21
@28.59
#1014.97
%-88.70
:135
&31.15
$GPRMC,062859.00,A,4916.54807,N,12416.61784,W,0.042,,110221,,,D*7A

+837.21
@28.58
#1014.97
%-88.74
:137
&31.15
$GPRMC,062902.00,A,4916.54802,N,12416.61784,W,0.102,,110221,,,D.61785,W,2,09,0.95,91.7,M,-17.7,M,,0000*59

+837.21
@28.59
#1014.97
%-88.59
:140
&31.14
$GPGSA,A,3,23,02,18,29,25,46,05,51,26,,,,1.74,0.95,1.45*0D

+837.21
@28.59
#1014.98
%-88.64
:142
&31.12
$GP$GPRMC,062907.00,A,4916.54801,N,12416.61780,W,0.095,,110221,,18,18,48,256,29,20,16,205,13,23,11,200,22*78

+837.21
@28.60
#1014.98
%-88.66
:145
&31.12
$GPGSV,4,3,14,25,28,189,25,26,33,302,27,29,83,091,35,31,04,260,
+837.21
@28.60
#1014.99
%-88.80
:148
&31.12
$GPRMC,062912.00,A,4916.54815,N,12416.61771,W,0.143,,110221,,,D73

+837.21
@28.60
#1015.00
%-88.76
:150
&31.11
$GPRMC,062915.00,A,4916.54823,N,12416.61768,W,0.090,,110221,,,D416.61762,W,2,09,1.28,89.7,M,-17.7,M,,0000*59

+837.21
@28.60
#1015.00
%-88.76
:153
&31.11
$GPGSA,A,3,23,02,18,29,25,46,05,51,26,,,,2.58,1.28,2.24*03

+837.21
@28.61
#1015.00
%-88.74
:155
&31.11
$GP$GPRMC,062920.00,A,4916.54825,N,12416.61762,W,0.100,,110221,323,18,18,48,256,27,20,16,205,15,23,11,200,18*79

+837.21
@28.59
#1015.01
%-88.66
:158
&31.14
$GPGSV,4,3,14,25,28,189,25,26,34,301,27,29,83,093,35,31,04,260,
+837.21
@28.59
#1014.99
%-88.38
:161
&31.14
$GPRMC,062925.00,A,4916.54836,N,12416.61779,W,0.213,,110221,,,D0,A,D*78

+837.21
@28.58
#1014.99
%-88.69
:163
&31.15
$GPRMC,062928.00,A,4916.54843,N,12416.61783,W,0.140,,110221,,,D,W,2,10,1.28,88.1,M,-17.7,M,,0000*5C

+837.21
@28.59
#1014.95
%-88.82
:166
&31.14
$GPGSA,A,3,20,23,02,18,29,25,46,05,51,26,,,2.51,1.28,2.17*08

+837.21
@28.60
#1014.99
%-88.72
:168
&31.12
$$GPRMC,062933.00,A,4916.54837,N,12416.61790,W,0.051,,110221,,,,19,18,48,256,27,20,16,205,20,23,11,200,17*71

+834.77
@28.60
#1015.00
%-88.50
:171
&31.12
$GPGSV,4,3,14,25,28,189,22,26,34,301,25,29,83,093,34,31,04,260,
+837.21
@28.60
#1014.97
%-88.78
:174
&31.13
$GPRMC,062938.00,A,4916.54832,N,12416.61791,W,0.095,,110221,,,D40.00,A,D*7E

+837.21
@28.60
#1015.01
%-88.66
:176
&31.11
$GPRMC,062941.00,A,4916.54840,N,12416.61799,W,0.230,,110221,,,D,W,2,10,1.28,86.6,M,-17.7,M,,0000*5C

+837.21
@28.59
#1014.99
%-88.49
:179
&31.11
$GPGSA,A,3,20,23,02,18,29,25,46,05,51,26,,,2.52,1.28,2.17*0B

+837.21
@28.57
#1014.99
%-88.39
:181
&31.11
$$GPRMC,062946.00,A,4916.54859,N,12416.61809,W,0.026,,110221,,,8,48,256,24,20,16,205,23,23,11,200,18*75

+837.21
@28.59
#1014.98
%-88.67
:184
&31.11
$GPGSV,4,3,14,25,28,189,25,26,34,301,25,29,83,093,34,31,04,260,
+834.77
@28.59
#1015.02
%-88.60
:187
&31.12
$GPRMC,062951.00,A,4916.54890,N,12416.61846,W,0.194,,110221,,,D953.00,A,D*70

+837.21
@28.57
#1014.97
%-88.63
:189
&31.12
$GPRMC,062954.00,A,4916.54910,N,12416.61882,W,0.070,,110221,,,D6,W,2,10,0.94,83.6,M,-17.7,M,,0000*55

+834.77
@28.57
#1014.99
%-88.53
:192
&31.12
$GPGSA,A,3,20,23,02,18,29,25,46,05,51,26,,,1.68,0.94,1.40*06

+834.77
@28.60
#1014.97
%-88.67
:194
&31.12
$$GPRMC,062959.00,A,4916.54928,N,12416.61893,W,0.359,,110221,,,,23,18,48,256,20,20,16,205,25,23,12,200,18*76

+837.21
@28.60
#1015.02
%-88.90
:197
&31.11
$GPGSV,4,3,14,25,27,189,23,26,34,301,23,29,83,095,33,31,04,260,
+837.21
@28.60
#1015.01
%-88.76
:200
&31.11
$GPRMC,063004.00,A,4916.54935,N,12416.61925,W,0.118,,110221,,,D*7B

+834.77
@28.60
#1015.00
%-88.84
:202
&31.10
$GPRMC,063007.00,A,4916.54943,N,12416.61950,W,0.197,,110221,,,D61938,W,2,10,0.94,84.0,M,-17.7,M,,0000*59

+837.21
@28.59
#1014.98
%-88.60
:205
&31.10
$GPGSA,A,3,20,23,02,18,29,25,46,05,51,26,,,1.68,0.94,1.40*06

+837.21
@28.60
#1014.97
%-88.55
:207
&31.10
$$GPRMC,063012.00,A,4916.54921,N,12416.61937,W,0.162,,110221,,,,18,48,256,17,20,16,205,25,23,12,200,22*7A

+834.77
@28.59
#1014.98
%-88.70
:210
&31.10
$GPGSV,4,3,14,25,27,189,22,26,34,301,23,29,83,095,33,31,04,259,
+837.21
@28.57
#1014.98
%-88.65
:213
&31.12
$GPRMC,063017.00,A,4916.54944,N,12416.62015,W,0.520,,110221,,,D.00,A,D*77

+834.77
@28.57
#1014.98
%-88.52
:215
&31.12
$GPRMC,063020.00,A,4916.54944,N,12416.62021,W,0.220,,110221,,,D2020,W,2,10,0.94,84.1,M,-17.7,M,,0000*54

+834.77
@28.57
#1014.97
%-88.48
:218
&31.12
$GPGSA,A,3,20,23,02,18,29,25,46,05,51,26,,,1.68,0.94,1.40*06

+837.21
@28.57
#1014.98
%-88.52
:220
&31.13
$$GPRMC,063025.00,A,4916.54930,N,12416.62020,W,0.084,,110221,,,,18,48,256,18,20,16,205,25,23,12,200,23*74

+837.21
@28.56
#1014.96
%-88.46
:223
&31.15
$GPGSV,4,3,14,25,27,189,23,26,34,301,23,29,83,095,33,31,04,259,
+834.77
@28.56
#1014.96
%-88.62
:226
&31.16
$GPRMC,063030.00,A,4916.54931,N,12416.62025,W,0.328,,110221,,,D,A,D*7E

+837.21
@28.55
#1014.98
%-88.45
:228
&31.17
$GPRMC,063033.00,A,4916.54933,N,12416.62035,W,0.093,,110221,,,D,W,2,10,0.94,84.9,M,-17.7,M,,0000*52

+834.77
@28.54
#1014.93
%-88.41
:231
&31.18
$GPGSA,A,3,20,23,02,18,29,25,46,05,51,26,,,1.68,0.94,1.40*06

+837.21
@28.53
#1014.95
%-88.21
:233
&31.17
$$GPRMC,063038.00,A,4916.54929,N,12416.62056,W,0.126,,110221,,,23,22,18,48,256,15,20,16,205,25,23,12,200,23*79

+834.77
@28.53
#1014.94
%-88.48
:236
&31.17
$GPGSV,4,3,14,25,27,189,25,26,34,301,22,29,83,095,33,31,04,259,
+837.21
@28.53
#1014.95
%-88.48
:239
&31.17
$GPRMC,063043.00,A,4916.54980,N,12416.62143,W,0.872,,110221,,,D00,A,D*7A

+834.77
@28.53
#1014.99
%-88.49
:241
&31.17
$GPRMC,063046.00,A,4916.54987,N,12416.62189,W,0.128,,110221,,,D64,W,2,10,0.94,84.4,M,-17.7,M,,0000*5B

+834.77
@28.55
#1014.96
%-88.38
:244
&31.18
$GPGSA,A,3,20,23,02,18,29,25,46,05,51,26,,,1.69,0.94,1.40*07

+834.77
@28.54
#1014.94
%-88.31
:246
&31.11
$$GPRMC,063051.00,A,4916.54976,N,12416.62182,W,0.126,,110221,,,8,48,256,13,20,16,205,25,23,12,200,24*79

+837.21
@28.55
#1014.97
%-88.51
:249
&31.15
$GPGSV,4,3,14,25,27,189,25,26,34,301,21,29,83,096,32,31,04,259,
+837.21
@28.56
#1014.97
%-88.39
:252
&31.16
$GPRMC,063056.00,A,4916.54967,N,12416.62163,W,0.148,,110221,,,D0,A,D*7B

+834.77
@28.55
#1014.96
%-88.59
:254
&31.16
$GPRMC,063059.00,A,4916.54973,N,12416.62178,W,0.152,,110221,,,D6.62213,W,2,10,0.94,84.7,M,-17.7,M,,0000*5C

+834.77
@28.54
#1014.98
%-88.46
:257
&31.14
$GPGSA,A,3,20,23,02,18,29,25,46,05,51,26,,,1.69,0.94,1.40*07

+834.77
@28.52
#1014.95
%-88.26
:259
&31.14
$$GPRMC,063104.00,A,4916.55018,N,12416.62247,W,0.415,,110221,,,22,18,48,256,18,20,16,205,24,23,12,200,26*70

+834.77
@28.55
#1014.95
%-88.34
:262
&35.74
$GPGSV,4,3,14,25,27,189,26,26,34,301,22,29,83,096,31,31,04,259,
+846.97
@28.54
#1014.94
%-88.65
:265
&36.18
$GPRMC,063109.00,A,4916.54984,N,12416.62161,W,0.210,,110221,,,D,D*75

+886.04
@28.57
#1014.96
%-88.56
:267
&36.97
$GPRMC,063112.00,A,4916.54973,N,12416.62132,W,0.481,,110221,,,D113,W,2,10,0.94,84.7,M,-17.7,M,,0000*56

+890.92
@28.60
#1014.99
%-88.66
:270
&38.59
$GPGSA,A,3,20,23,02,18,29,25,46,05,51,26,,,1.69,0.94,1.40*07

+908.01
@28.64
#1014.99
%-88.75
:272
&36.22
$$GPRMC,063117.00,A,4916.54946,N,12416.62076,W,0.702,,110221,,,3,21,18,49,256,16,20,16,205,22,23,12,200,27*7C

+971.48
@28.60
#1014.98
%-88.48
:275
&33.51
$GPGSV,4,3,14,25,27,189,27,26,34,301,23,29,83,096,31,31,04,259,
+981.25
@28.60
#1014.99
%-88.45
:278
&32.81
$GPRMC,063122.00,A,4916.54937,N,12416.62056,W,0.287,,110221,,,DD*79

+971.48
@28.61
#1014.99
%-88.66
:280
&32.60
$GPRMC,063125.00,A,4916.54924,N,12416.62046,W,0.431,,110221,,,D047,W,2,09,0.99,86.6,M,-17.7,M,,0000*50

+954.39
@28.62
#1014.96
%-88.67
:283
&32.21
$GPGSA,A,3,20,23,02,29,25,46,05,51,26,,,,1.75,0.99,1.44*0A

+934.86
@28.61
#1015.00
%-88.70
:285
&32.07
$GP$GPRMC,063130.00,A,4916.54935,N,12416.62059,W,0.081,,110221,,18,49,256,08,20,17,205,21,23,12,200,28*7B

+915.33
@28.61
#1014.98
%-88.61
:288
&32.01
$GPGSV,4,3,14,25,27,189,27,26,34,301,24,29,82,098,31,31,03,259,
+898.24
@28.64
#1014.97
%-88.71
:291
&31.84
$GPRMC,063135.00,A,4916.54932,N,12416.62055,W,0.167,,110221,,,D*7E

+886.04
@28.64
#1014.99
%-88.62
:293
&31.58
$GPRMC,063138.00,A,4916.54941,N,12416.62053,W,0.267,,110221,,,D2416.62053,W,2,09,0.97,87.1,M,-17.7,M,,0000*54

+876.27
@28.63
#1014.99
%-88.48
:296
&31.44
$GPGSA,A,3,20,23,02,18,29,25,05,51,26,,,,1.73,0.97,1.43*0E

+866.50
@28.62
#1014.99
%-88.62
:298
&31.39
$GP$GPRMC,063143.00,A,4916.54970,N,12416.62087,W,0.157,,110221,49,256,06,20,17,205,24,23,12,200,28*74

+861.62
@28.61
#1014.98
%-88.66
:301
&31.34
$GPGSV,4,3,14,25,27,189,25,26,34,301,20,29,82,098,31,31,03,259,
+856.74
@28.60
#1015.01
%-88.85
:304
&31.29
$GPRMC,063148.00,A,4916.54997,N,12416.62088,W,0.063,,110221,,,D150.00,A,D*7B

+854.30
@28.59
#1015.03
%-88.71
:306
&31.27
$GPRMC,063151.00,A,4916.54995,N,12416.62089,W,0.037,,110221,,,D.62171,W,2,09,0.97,86.9,M,-17.7,M,,0000*52

+849.41
@28.60
#1015.01
%-88.89
:309
&31.27
$GPGSA,A,3,20,23,02,18,29,25,05,51,26,,,,1.73,0.97,1.43*0E

+846.97
@28.60
#1015.01
%-88.69
:311
&31.26
$GP$GPRMC,063156.00,A,4916.55032,N,12416.62250,W,0.061,,110221,18,49,256,06,20,17,205,26,23,12,200,30*7F

+846.97
@28.59
#1015.00
%-88.69
:314
&31.24
$GPGSV,4,3,14,25,27,189,25,26,34,301,21,29,82,098,31,31,03,259,
+844.53
@28.60
#1014.99
%-88.88
:317
&31.23
$GPRMC,063201.00,A,4916.55026,N,12416.62221,W,0.035,,110221,,,D,A,D*7D

+844.53
@28.59
#1014.98
%-88.66
:319
&31.22
$GPRMC,063204.00,A,4916.55016,N,12416.62194,W,0.034,,110221,,,D.62186,W,2,08,1.02,87.5,M,-17.7,M,,0000*58

+842.09
@28.58
#1015.02
%-88.60
:322
&31.23
$GPGSA,A,3,20,23,02,29,25,05,51,26,,,,,1.79,1.02,1.47*04

+842.09
@28.55
#1015.00
%-88.89
:324
&31.23
$GPGS$GPRMC,063209.00,A,4916.55018,N,12416.62181,W,0.178,,110223,22,18,49,257,17,20,17,205,28,23,13,200,32*71

+842.09
@28.55
#1014.97
%-88.52
:327
&31.24
$GPGSV,4,3,14,25,26,189,22,26,34,300,21,29,82,098,32,31,03,259,
+842.09
@28.55
#1014.95
%-88.69
:330
&31.24
$GPRMC,063214.00,A,4916.55043,N,12416.62187,W,0.207,,110221,,,D00,A,D*70

+842.09
@28.55
#1014.99
%-88.70
:332
&31.25
$GPRMC,063217.00,A,4916.55030,N,12416.62151,W,0.249,,110221,,,D62129,W,2,09,1.02,87.0,M,-17.7,M,,0000*57

+842.09
@28.54
#1014.94
%-88.35
:335
&31.26
$GPGSA,A,3,20,23,02,18,29,25,05,51,26,,,,1.79,1.02,1.47*0D

+842.09
@28.52
#1014.97
%-88.48
:338
&31.25
$GP$GPRMC,063222.00,A,4916.54997,N,12416.62061,W,0.143,,110221,8,49,257,20,20,17,205,29,23,13,200,31*77

+839.65
@28.53
#1014.97
%-88.64
:340
&31.25
$GPGSV,4,3,14,25,26,189,19,26,34,300,26,29,82,100,30,31,03,259,
+842.09
@28.53
#1014.99
%-88.67
:343
&31.26
$GPRMC,063227.00,A,4916.54952,N,12416.61950,W,0.038,,110221,,,D.00,A,D*76

+842.09
@28.52
#1014.97
%-88.61
:345
&31.25
$GPRMC,063230.00,A,4916.54946,N,12416.61917,W,0.280,,110221,,,D61918,W,2,08,1.02,86.3,M,-17.7,M,,0000*55

+842.09
@28.52
#1014.97
%-88.44
:348
&31.26
$GPGSA,A,3,20,23,02,29,25,05,51,26,,,,,1.79,1.02,1.47*04

+839.65
@28.51
#1014.95
%-88.42
:351
&31.26
$GPGS$GPRMC,063235.00,A,4916.54958,N,12416.61936,W,0.144,,110222,18,49,257,08,20,17,205,28,23,13,200,31*7C

+839.65
@28.50
#1014.96
%-88.58
:353
&31.27
$GPGSV,4,3,14,25,26,189,16,26,34,300,25,29,82,100,29,31,03,259,
+839.65
@28.52
#1014.96
%-88.61
:356
&31.29
$GPRMC,063240.00,A,4916.54966,N,12416.61933,W,0.103,,110221,,,D.00,A,D*73

+839.65
@28.52
#1014.96
%-88.58
:358
&31.29
$GPRMC,063243.00,A,4916.54958,N,12416.61918,W,0.204,,110221,,,D.61915,W,2,09,0.97,86.3,M,-17.7,M,,0000*50

+839.65
@28.53
#1015.00
%-88.45
:361
&31.29
$GPGSA,A,3,20,23,02,18,29,25,05,51,26,,,,1.73,0.97,1.43*0E

+839.65
@28.53
#1014.96
%-88.58
:364
&31.28
$GP$GPRMC,063248.00,A,4916.54943,N,12416.61873,W,0.139,,110221,3,18,49,257,12,20,17,205,29,23,13,200,31*77

+839.65
@28.53
#1014.99
%-88.49
:366
&31.28
$GPGSV,4,3,14,25,26,189,19,26,34,300,28,29,82,100,30,31,03,259,
+839.65
@28.53
#1014.96
%-88.63
:369
&31.25
$GPRMC,063253.00,A,4916.54932,N,12416.61830,W,0.123,,110221,,,D00,A,D*70

+839.65
@28.54
#1014.98
%-88.49
:371
&31.25
$GPRMC,063256.00,A,4916.54922,N,12416.61817,W,0.057,,110221,,,D61813,W,2,09,0.97,86.2,M,-17.7,M,,0000*5D

+839.65
@28.56
#1014.99
%-88.60
:374
&31.23
$GPGSA,A,3,20,23,02,18,29,25,05,51,26,,,,1.73,0.97,1.43*0E

+837.21
@28.57
#1014.98
%-88.39
:377
&31.23
$GP$GPRMC,063301.00,A,4916.54921,N,12416.61795,W,0.039,,110221,,23,18,49,257,12,20,17,205,29,23,13,200,31*77

+839.65
@28.55
#1014.97
%-88.60
:379
&31.22
$GPGSV,4,3,14,25,26,188,17,26,34,300,27,29,82,101,30,31,03,259,
+837.21
@28.58
#1014.98
%-88.67
:382
&31.22
$GPRMC,063306.00,A,4916.54913,N,12416.61761,W,0.019,,110221,,,D.00,A,D*7D

+837.21
@28.60
#1014.98
%-88.61
:384
&31.20
$GPRMC,063309.00,A,4916.54897,N,12416.61758,W,0.068,,110221,,,D756,W,2,09,0.97,86.0,M,-17.7,M,,0000*54

+837.21
@28.60
#1015.00
%-88.53
:387
&31.20
$GPGSA,A,3,20,23,02,18,29,25,05,51,26,,,,1.73,0.97,1.43*0E

+837.21
@28.61
#1014.99
%-88.54
:390
&31.17
$GP$GPRMC,063314.00,A,4916.54866,N,12416.61754,W,0.024,,110221,8,49,257,,20,17,205,29,23,13,200,32*70

+839.65
@28.62
#1014.99
%-88.82
:392
&31.16
$GPGSV,4,3,14,25,26,188,17,26,34,300,26,29,82,101,31,31,03,259,
+837.21
@28.63
#1015.00
%-88.78
:395
&31.13
$GPRMC,063319.00,A,4916.54861,N,12416.61749,W,0.104,,110221,,,D0,A,D*78

+837.21
@28.64
#1014.97
%-88.69
:397
&31.10
$GPRMC,063322.00,A,4916.54860,N,12416.61742,W,0.066,,110221,,,D416.61742,W,2,08,1.02,86.3,M,-17.7,M,,0000*56

+837.21
@28.66
#1014.97
%-88.53
:400
&31.09
$GPGSA,A,3,20,23,02,29,25,05,51,26,,,,,1.80,1.02,1.48*0D

+837.21
@28.66
#1014.97
%-88.43
:403
&31.09
$GPGS$GPRMC,063327.00,A,4916.54866,N,12416.61745,W,0.185,,11022322,23,18,49,257,16,20,17,205,29,23,13,200,32*71

+837.21
@28.66
#1015.00
%-88.60
:405
&31.08
$GPGSV,4,3,14,25,26,188,20,26,34,300,26,29,82,101,32,31,03,259,
+837.21
@28.66
#1014.99
%-88.63
:408
&31.07
$GPRMC,063332.00,A,4916.54870,N,12416.61728,W,0.180,,110221,,,D.00,A,D*70

+837.21
@28.65
#1015.01
%-88.81
:410
&31.08
$GPRMC,063335.00,A,4916.54879,N,12416.61723,W,0.242,,110221,,,D2,08,1.02,85.6,M,-17.7,M,,0000*5E

+837.21
@28.65
#1014.99
%-88.66
:413
&31.08
$GPGSA,A,3,20,23,02,29,25,05,51,26,,,,,1.80,1.02,1.48*0D

+837.21
@28.64
#1015.00
%-88.64
:416
&31.09
$GPGS$GPRMC,063340.00,A,4916.54879,N,12416.61727,W,0.147,,11022322,21,18,50,257,18,20,17,205,28,23,13,200,31*77

+837.21
@28.62
#1014.99
%-88.56
:418
&31.08
$GPGSV,4,3,14,25,26,188,22,26,35,300,24,29,81,102,31,31,03,259,
+837.21
@28.64
#1014.97
%-88.61
:421
&31.09
$GPRMC,063345.00,A,4916.54892,N,12416.61740,W,0.298,,110221,,,D7.00,A,D*78

+837.21
@28.63
#1015.00
%-88.56
:423
&31.09
$GPRMC,063348.00,A,4916.54900,N,12416.61755,W,0.113,,110221,,,D61763,W,2,09,0.98,84.7,M,-17.7,M,,0000*52

+837.21
@28.63
#1014.98
%-88.58
:426
&31.08
$GPGSA,A,3,20,23,02,18,29,25,05,51,26,,,,1.73,0.98,1.43*01

+837.21
@28.64
#1014.97
%-88.71
:429
&31.08
$GP$GPRMC,063353.00,A,4916.54907,N,12416.61788,W,0.056,,110221,18,50,257,23,20,17,205,28,23,13,200,30*7C

+837.21
@28.64
#1014.99
%-88.47
:431
&31.08
$GPGSV,4,3,14,25,26,188,24,26,35,300,25,29,81,102,30,31,03,258,
+837.21
@28.65
#1014.99
%-88.92
:434
&31.08
$GPRMC,063358.00,A,4916.54923,N,12416.61811,W,0.328,,110221,,,D63400.00,A,D*7C

+837.21
@28.65
#1014.99
%-88.79
:436
&31.07
$GPRMC,063401.00,A,4916.54931,N,12416.61817,W,0.091,,110221,,,DW,2,09,0.98,84.0,M,-17.7,M,,0000*58

+837.21
@28.65
#1015.01
%-88.74
:439
&31.07
$GPGSA,A,3,20,23,02,18,29,25,05,51,26,,,,1.73,0.98,1.43*01

+837.21
@28.64
#1014.99
%-88.57
:442
&31.07
$GP$GPRMC,063406.00,A,4916.54958,N,12416.61848,W,0.292,,110221,23,18,50,257,24,20,17,205,28,23,13,200,28*72

+837.21
@28.65
#1014.98
%-88.53
:444
