+734.67
@22.86
#1012.87
%-70.95
:50
&63.38
$GPGGA,231459.00,4919.27922,N,12420.29504,W,1,05,1.83,47.1,M,-17.7,M,,*51
+715.14
@22.95
#1012.86
%-70.82
:55
&63.04
$GPGGA,231503.00,4919.27786,N,12420.29660,W,1,05,1.83,47.5,M,-17.7,M,,*5A
+685.84
@23.03
#1012.86
%-70.87
:59
&62.69
$GPGGA,231507.00,4919.27712,N,12420.29651,W,1,05,1.83,47.6,M,-17.7,M,,*52
+683.40
@23.11
#1012.87
%-70.98
:63
&62.35
$GPGGA,231511.00,4919.27669,N,12420.29598,W,1,05,1.83,48.5,M,-17.7,M,,*52
+676.07
@23.19
#1012.87
%-71.05
:67
&61.94
$GPGGA,231515.00,4919.27648,N,12420.29579,W,1,05,1.83,50.0,M,-17.7,M,,*56
+671.19
@23.26
#1012.89
%-71.15
:71
&61.68
$GPGGA,231519.00,4919.27644,N,12420.29540,W,1,05,1.83,48.5,M,-17.7,M,,*50
+656.54
@23.34
#1012.82
%-70.76
:75
&61.38
$GPGGA,231523.00,4919.27554,N,12420.29645,W,1,05,1.83,42.2,M,-17.7,M,,*50
+646.78
@23.43
#1012.87
%-71.10
:79
&61.12
$GPGGA,231527.00,4919.27619,N,12420.29687,W,1,05,1.83,41.6,M,-17.7,M,,*57
+646.78
@23.52
#1012.84
%-70.86
:83
&60.91
$GPGGA,231531.00,4919.27670,N,12420.29723,W,1,05,1.83,44.6,M,-17.7,M,,*55
+646.78
@23.72
#1012.87
%-70.90
:87
&61.52
$GPGGA,231535.00,4919.27652,N,12420.29732,W,1,06,1.17,46.7,M,-17.7,M,,*5C
+646.78
@23.91
#1012.88
%-70.62
:91
&61.27
$GPGGA,231539.00,4919.27638,N,12420.29617,W,1,06,1.17,48.4,M,-17.7,M,,*57
+646.78
@24.07
#1012.85
%-70.61
:95
&60.23
$GPGGA,231543.00,4919.27656,N,12420.29600,W,1,06,1.17,49.0,M,-17.7,M,,*51
+646.78
@24.23
#1012.89
%-71.37
:99
&59.70
$GPGGA,231547.00,4919.27650,N,12420.29600,W,1,06,1.17,47.6,M,-17.7,M,,*5B
+637.01
@24.39
#1012.97
%-71.92
:103
&59.19
$GPGGA,231551.00,4919.27647,N,12420.29604,W,1,06,1.17,47.8,M,-17.7,M,,*50
+637.01
@24.51
#1012.87
%-71.09
:107
&58.88
$GPGGA,231555.00,4919.27633,N,12420.29594,W,1,06,1.17,47.7,M,-17.7,M,,*52
+641.89
@24.63
#1012.86
%-70.96
:111
&56.98
$GPGGA,231559.00,4919.27595,N,12420.29478,W,1,07,1.10,47.2,M,-17.7,M,,*51
+646.78
@24.72
#1012.88
%-71.15
:115
&53.64
$GPGGA,231603.00,4919.27662,N,12420.29155,W,1,07,1.05,47.0,M,-17.7,M,,*5A
+646.78
@24.82
#1012.89
%-71.01
:119
&51.45
$GPGGA,231607.00,4919.27541,N,12420.29234,W,1,08,1.00,47.3,M,-17.7,M,,*51
+627.25
@24.90
#1012.82
%-70.92
:123
&51.08
$GPGGA,231611.00,4919.27041,N,12420.29094,W,1,08,1.00,48.5,M,-17.7,M,,*52
+622.36
@25.02
#1012.81
%-70.80
:127
&49.88
$GPGGA,231615.00,4919.26805,N,12420.28243,W,1,08,1.00,48.0,M,-17.7,M,,*53
+607.71
@25.13
#1012.88
%-71.05
:131
&50.47
$GPGGA,231619.00,4919.26771,N,12420.27821,W,1,08,1.00,47.8,M,-17.7,M,,*55
+607.71
@25.23
#1012.82
%-70.25
:135
&49.73
$GPGGA,231623.00,4919.26263,N,12420.27487,W,1,08,1.01,46.6,M,-17.7,M,,*54
+602.83
@25.35
#1012.68
%-69.14
:139
&48.50
$GPGGA,231627.00,4919.24616,N,12420.27457,W,1,08,1.01,47.7,M,-17.7,M,,*59
+597.95
@25.47
#1012.59
%-68.56
:143
&48.13
$GPGGA,231631.00,4919.22431,N,12420.27447,W,1,08,1.01,48.5,M,-17.7,M,,*53
+590.63
@25.61
#1012.37
%-66.99
:147
&47.10
$GPGGA,231635.00,4919.20008,N,12420.27464,W,1,08,1.01,49.4,M,-17.7,M,,*5A
+568.65
@25.72
#1012.40
%-66.87
:151
&45.85
$GPGGA,231639.00,4919.17559,N,12420.27499,W,1,08,1.01,50.2,M,-17.7,M,,*5F
+558.89
@25.83
#1012.34
%-66.75
:155
&44.60
$GPGGA,231643.00,4919.15052,N,12420.27517,W,1,08,1.01,50.8,M,-17.7,M,,*53
+549.12
@25.95
#1012.31
%-66.17
:159
&43.50
$GPGGA,231647.00,4919.12650,N,12420.27523,W,1,08,1.01,50.5,M,-17.7,M,,*5E
+529.59
@26.05
#1012.47
%-68.16
:163
&42.88
$GPGGA,231651.00,4919.10390,N,12420.27538,W,1,08,1.01,49.9,M,-17.7,M,,*5C
+529.59
@26.17
#1012.67
%-69.41
:167
&42.14
$GPGGA,231655.00,4919.08743,N,12420.27546,W,1,08,1.01,50.1,M,-17.7,M,,*52
+524.71
@26.26
#1012.85
%-70.28
:171
&41.81
$GPGGA,231659.00,4919.08260,N,12420.27508,W,1,08,1.01,50.5,M,-17.7,M,,*54
+524.71
@26.35
#1012.64
%-68.58
:175
&41.85
$GPGGA,231703.00,4919.07511,N,12420.26122,W,1,08,1.01,50.0,M,-17.7,M,,*5C
+529.59
@26.46
#1012.59
%-68.29
:179
&41.25
$GPGGA,231708.00,4919.07931,N,12420.22072,W,1,08,1.01,48.4,M,-17.7,M,,*54
+514.94
@26.53
#1012.64
%-69.19
:183
&40.73
$GPGGA,231711.00,4919.08689,N,12420.19246,W,1,07,1.07,47.2,M,-17.7,M,,*52
+514.94
@26.57
#1012.54
%-69.36
:187
&40.04
$GPGGA,231715.00,4919.09881,N,12420.15335,W,1,08,1.01,45.6,M,-17.7,M,,*57
+514.94
@26.62
#1012.70
%-70.77
:191
&39.72
$GPGGA,231719.00,4919.11119,N,12420.11227,W,1,08,1.01,44.6,M,-17.7,M,,*5D
+510.06
@26.67
#1013.24
%-74.41
:195
&39.19
$GPGGA,231723.00,4919.12307,N,12420.07319,W,1,08,1.01,43.4,M,-17.7,M,,*54
+505.18
@26.70
#1013.15
%-73.40
:199
&38.92
$GPGGA,231727.00,4919.13521,N,12420.03443,W,1,08,1.01,42.4,M,-17.7,M,,*5E
+500.29
@26.72
#1013.21
%-74.24
:203
&38.30
$GPGGA,231731.00,4919.14470,N,12419.99426,W,1,08,1.01,41.7,M,-17.7,M,,*51
+490.53
@26.73
#1013.27
%-75.81
:207
&37.87
$GPGGA,231735.00,4919.14876,N,12419.95307,W,1,08,1.01,40.2,M,-17.7,M,,*53
+490.53
@26.75
#1013.66
%-77.94
:211
&37.60
$GPGGA,231739.00,4919.15046,N,12419.91194,W,1,08,1.01,39.1,M,-17.7,M,,*54
+490.53
@26.77
#1013.80
%-78.48
:215
&37.22
$GPGGA,231743.00,4919.15049,N,12419.87055,W,1,08,1.01,38.8,M,-17.7,M,,*55
+490.53
@26.77
#1013.80
%-78.37
:219
&36.89
$GPGGA,231747.00,4919.15102,N,12419.82952,W,1,08,1.01,37.4,M,-17.7,M,,*57
+485.64
@26.79
#1013.55
%-77.01
:223
&36.69
$GPGGA,231751.00,4919.15114,N,12419.78712,W,1,08,1.01,36.4,M,-17.7,M,,*59
+480.76
@26.78
#1013.79
%-78.73
:227
&36.58
$GPGGA,231755.00,4919.15146,N,12419.74265,W,1,08,1.01,35.2,M,-17.7,M,,*56
+480.76
@26.77
#1013.85
%-78.94
:231
&36.31
$GPGGA,231759.00,4919.15183,N,12419.69795,W,1,08,1.01,34.6,M,-17.7,M,,*50
+480.76
@26.77
#1013.86
%-78.20
:235
&36.10
$GPGGA,231803.00,4919.15219,N,12419.65369,W,1,08,1.01,34.0,M,-17.7,M,,*5D
+471.00
@26.78
#1013.70
%-77.91
:239
&36.02
$GPGGA,231807.00,4919.15268,N,12419.61008,W,1,08,1.01,33.5,M,-17.7,M,,*5D
+471.00
@26.78
#1013.96
%-79.32
:243
&35.91
$GPGGA,231811.00,4919.15273,N,12419.56504,W,1,08,1.01,31.8,M,-17.7,M,,*52
+471.00
@26.77
#1013.90
%-78.52
:247
&35.86
$GPGGA,231815.00,4919.15322,N,12419.51861,W,1,08,1.01,32.9,M,-17.7,M,,*58
+471.00
@26.79
#1013.95
%-79.46
:251
&35.86
$GPGGA,231819.00,4919.15334,N,12419.47471,W,1,08,1.01,32.0,M,-17.7,M,,*50
+471.00
@26.80
#1014.13
%-82.17
:255
&35.73
$GPGGA,231823.00,4919.15289,N,12419.44192,W,1,08,1.01,32.0,M,-17.7,M,,*55
+468.55
@26.80
#1014.43
%-83.99
:259
&35.59
$GPGGA,231827.00,4919.15269,N,12419.43601,W,1,08,1.01,31.6,M,-17.7,M,,*50
+471.00
@26.81
#1014.46
%-83.99
:263
&35.63
$GPGGA,231831.00,4919.14976,N,12419.43079,W,1,08,1.01,35.6,M,-17.7,M,,*5E
+466.11
@26.80
#1014.26
%-82.66
:267
&35.08
$GPGGA,231835.00,4919.13266,N,12419.42834,W,1,08,1.01,36.5,M,-17.7,M,,*57
+466.11
@26.82
#1014.00
%-81.14
:271
&35.25
$GPGGA,231839.00,4919.10932,N,12419.42775,W,1,08,1.01,36.3,M,-17.7,M,,*5E
+471.00
@26.82
#1014.00
%-79.88
:275
&35.42
$GPGGA,231843.00,4919.08570,N,12419.42701,W,1,08,1.01,37.0,M,-17.7,M,,*51
+468.55
@26.84
#1013.79
%-80.11
:279
&35.34

$GPGGA,231847.00,4919.06094,N,12419.42662,W,1,08,1.01,36.7,M,-17.7,M,,*56
+471.00
@26.85
#1013.92
%-79.46
:283
&35.35

$GPGGA,231851.00,4919.03619,N,12419.42550,W,1,08,1.01,37.1,M,-17.7,M,,*52
+471.00
@26.85
#1013.81
%-79.22
:287
&35.29

$GPGGA,231855.00,4919.00887,N,12419.42468,W,1,08,1.01,37.3,M,-17.7,M,,*54
+468.55
@26.85
#1013.51
%-76.41
:291
&35.17

$GPGGA,231859.00,4918.98017,N,12419.42441,W,1,08,1.01,38.6,M,-17.7,M,,*58
+466.11
@26.87
#1013.37
%-75.05
:295
&35.17

$GPGGA,231903.00,4918.95238,N,12419.42370,W,1,08,1.01,39.6,M,-17.7,M,,*50
+466.11
@26.89
#1013.22
%-73.94
:299
&35.00

$GPGGA,231907.00,4918.92494,N,12419.42283,W,1,08,1.01,41.0,M,-17.7,M,,*57
+451.46
@26.87
#1013.17
%-72.88
:303
&35.04

$GPGGA,231911.00,4918.89575,N,12419.42215,W,1,08,1.01,41.8,M,-17.7,M,,*53
+451.46
@26.89
#1013.03
%-72.59
:307
&34.96

$GPGGA,231915.00,4918.86598,N,12419.42116,W,1,08,1.01,43.2,M,-17.7,M,,*53
+451.46
@26.88
#1012.78
%-69.84
:311
&34.84

$GPGGA,231919.00,4918.83657,N,12419.42024,W,1,07,1.18,45.4,M,-17.7,M,,*5D
+451.46
@26.85
#1012.48
%-67.69
:315
&34.78

$GPGGA,231923.00,4918.80666,N,12419.41935,W,1,08,1.01,46.5,M,-17.7,M,,*5A
+451.46
@26.83
#1012.38
%-67.53
:319
&34.82

$GPGGA,231927.00,4918.77678,N,12419.41882,W,1,08,1.01,46.7,M,-17.7,M,,*56
+451.46
@26.84
#1012.45
%-66.52
:323
&34.81

$GPGGA,231931.00,4918.74861,N,12419.41777,W,1,08,1.01,46.9,M,-17.7,M,,*5F
+451.46
@26.80
#1012.72
%-69.59
:327
&34.86

$GPGGA,231935.00,4918.73182,N,12419.41731,W,1,08,1.01,47.9,M,-17.7,M,,*5B
+451.46
@26.79
#1012.92
%-71.08
:331
&34.90

$GPGGA,231939.00,4918.72796,N,12419.41700,W,1,08,1.01,48.3,M,-17.7,M,,*52
+451.46
@26.79
#1012.83
%-70.64
:335
&34.90
$GPGGA,231943.00,4918.72168,N,12419.40289,W,1,08,1.01,48.3,M,-17.7,M,,*5D
+451.46
@26.79
#1012.65
%-69.26
:339
&35.13
$GPGGA,231947.00,4918.72074,N,12419.37286,W,1,08,1.01,48.1,M,-17.7,M,,*58
+451.46
@26.76
#1012.76
%-70.16
:343
&35.33
$GPGGA,231951.00,4918.71543,N,12419.35510,W,1,08,1.01,47.8,M,-17.7,M,,*51
+471.00
@26.75
#1012.63
%-68.59
:347
&35.34
$GPGGA,231955.00,4918.70062,N,12419.35407,W,1,08,1.01,49.2,M,-17.7,M,,*51
+466.11
@26.72
#1012.04
%-64.42
:351
&35.45
$GPGGA,231959.00,4918.67221,N,12419.36515,W,1,08,1.01,51.4,M,-17.7,M,,*50
+466.11
@26.69
#1011.92
%-62.82
:355
&35.65
$GPGGA,232003.00,4918.64157,N,12419.37809,W,1,08,1.01,53.5,M,-17.7,M,,*56
+471.00
@26.67
#1011.53
%-60.55
:359
&35.60
$GPGGA,232007.00,4918.61070,N,12419.39134,W,1,08,1.01,55.8,M,-17.7,M,,*51
+468.55
@26.64
#1011.44
%-58.24
:363
&35.60
$GPGGA,232011.00,4918.57984,N,12419.40414,W,1,08,1.01,58.3,M,-17.7,M,,*5E
+466.11
@26.61
#1010.95
%-55.35
:367
&35.60
$GPGGA,232015.00,4918.54804,N,12419.41736,W,1,08,1.01,60.0,M,-17.7,M,,*5A
+466.11
@26.58
#1010.69
%-52.31
:371
&35.65
$GPGGA,232019.00,4918.51585,N,12419.43081,W,1,08,1.01,62.1,M,-17.7,M,,*5D
+466.11
@26.57
#1010.33
%-48.69
:375
&35.48
$GPGGA,232023.00,4918.48430,N,12419.44388,W,1,08,1.01,64.7,M,-17.7,M,,*5E
+451.46
@26.53
#1010.12
%-47.94
:379
&35.35
$GPGGA,232027.00,4918.45391,N,12419.45648,W,1,08,1.01,66.8,M,-17.7,M,,*5E
+451.46
@26.48
#1009.87
%-44.95
:383
&35.40
$GPGGA,232031.00,4918.42117,N,12419.47255,W,1,08,1.01,69.3,M,-17.7,M,,*5C
+451.46
@26.46
#1009.55
%-42.93
:387
&35.34
$GPGGA,232035.00,4918.38961,N,12419.49579,W,1,08,1.01,72.4,M,-17.7,M,,*56
+451.46
@26.42
#1009.78
%-45.45
:391
&35.39
$GPGGA,232039.00,4918.37750,N,12419.50758,W,1,08,1.01,74.1,M,-17.7,M,,*53
+451.46
@26.42
#1009.81
%-45.42
:395
&35.42
$GPGGA,232043.00,4918.37756,N,12419.50765,W,1,08,1.01,74.8,M,-17.7,M,,*5F
+451.46
@26.42
#1009.80
%-45.19
:399
&35.36
$GPGGA,232047.00,4918.37755,N,12419.50740,W,1,08,1.01,75.6,M,-17.7,M,,*50
+451.46
@26.41
#1009.79
%-45.30
:403
&35.35
$GPGGA,232051.00,4918.37768,N,12419.50729,W,1,08,1.01,76.2,M,-17.7,M,,*51
+451.46
@26.40
#1009.81
%-45.35
:407
&35.27
$GPGGA,232055.00,4918.37768,N,12419.50726,W,1,08,1.01,76.9,M,-17.7,M,,*51
+451.46
@26.39
#1009.83
%-45.56
:411
&35.31
$GPGGA,232059.00,4918.37768,N,12419.50719,W,1,08,1.01,77.0,M,-17.7,M,,*59
+451.46
@26.39
#1009.82
%-45.24
:415
&35.52
$GPGGA,232103.00,4918.37769,N,12419.50703,W,1,08,0.98,76.6,M,-17.7,M,,*5B
+451.46
@26.38
#1009.82
%-45.31
:419
&35.70
$GPGGA,232107.00,4918.37762,N,12419.50700,W,1,08,0.98,76.4,M,-17.7,M,,*55
+451.46
@26.38
#1009.79
%-45.50
:423
&35.72
$GPGGA,232109.00,4918.37765,N,12419.50708,W,1,08,0.98,76.0,M,-17.7,M,,*50
+451.46
@26.37
#1009.82
%-45.48
:427
&35.56
$GPGGA,232113.00,4918.37769,N,12419.50717,W,1,07,1.23,75.7,M,-17.7,M,,*53
+451.46
@26.34
#1009.78
%-45.30
:431
&35.34
$GPGGA,232117.00,4918.37772,N,12419.50731,W,1,07,1.23,75.9,M,-17.7,M,,*57
+451.46
@26.32
#1009.65
%-43.54
:435
&35.16
$GPGGA,232121.00,4918.36948,N,12419.51605,W,1,08,0.98,76.8,M,-17.7,M,,*5F
+451.46
@26.28
#1009.23
%-39.43
:439
&35.47
$GPGGA,232125.00,4918.35044,N,12419.53946,W,1,08,0.98,78.7,M,-17.7,M,,*56
+466.11
@26.25
#1008.51
%-33.93
:443
&36.20
$GPGGA,232129.00,4918.32680,N,12419.57530,W,1,06,1.34,81.1,M,-17.7,M,,*53
+471.00
@26.22
#1007.84
%-30.44
:447
&36.40
$GPGGA,232133.00,4918.30390,N,12419.62311,W,1,08,0.98,84.3,M,-17.7,M,,*53
+471.00
@26.20
#1007.39
%-26.10
:451
&36.32
$GPGGA,232137.00,4918.28696,N,12419.67794,W,1,08,1.01,88.8,M,-17.7,M,,*57
+471.00
@26.20
#1007.66
%-26.99
:455
&36.14
$GPGGA,232141.00,4918.27702,N,12419.73869,W,1,08,1.01,92.0,M,-17.7,M,,*5E
+471.00
@26.22
#1007.36
%-24.60
:459
&36.00
$GPGGA,232145.00,4918.27365,N,12419.79914,W,1,08,0.98,93.4,M,-17.7,M,,*5A
+466.11
@26.23
#1007.13
%-23.13
:463
&35.69
$GPGGA,232149.00,4918.27265,N,12419.85856,W,1,08,0.98,94.6,M,-17.7,M,,*56
+451.46
@26.23
#1006.91
%-20.92
:467
&35.69
$GPGGA,232153.00,4918.27411,N,12419.92162,W,1,08,0.98,94.1,M,-17.7,M,,*57
+466.11
@26.22
#1006.86
%-20.94
:471
&35.63
$GPGGA,232157.00,4918.27557,N,12419.98385,W,2,08,0.98,93.6,M,-17.7,M,,0000*52
+471.00
@26.23
#1006.81
%-20.48
:475
&35.88
$GPGGA,232201.00,4918.27651,N,12420.04718,W,2,09,0.95,92.9,M,-17.7,M,,0000*5A
+471.00
@26.25
#1006.75
%-19.99
:479
&36.08
$GPGGA,232205.00,4918.27712,N,12420.11292,W,2,09,0.95,93.2,M,-17.7,M,,0000*51
+471.00
@26.26
#1006.66
%-19.05
:483
&35.99
$GPGGA,232209.00,4918.27602,N,12420.18012,W,2,09,0.95,94.1,M,-17.7,M,,0000*5A
+471.00
@26.28
#1006.67
%-18.72
:487
&36.05
$GPGGA,232213.00,4918.27432,N,12420.24726,W,2,09,0.95,95.7,M,-17.7,M,,0000*58
+471.00
@26.29
#1006.61
%-18.67
:491
&36.06
$GPGGA,232217.00,4918.27478,N,12420.31426,W,2,09,0.95,96.4,M,-17.7,M,,0000*55
+471.00
@26.32
#1006.62
%-18.37
:495
&36.95
$GPGGA,232221.00,4918.27561,N,12420.38064,W,2,09,0.95,95.7,M,-17.7,M,,0000*52
+480.76
@26.34
#1006.73
%-19.48
:499
&37.18
$GPGGA,232225.00,4918.27632,N,12420.44687,W,2,08,1.06,94.7,M,-17.7,M,,0000*58
+471.00
@26.37
#1006.82
%-20.48
:503
&37.18
$GPGGA,232229.00,4918.27700,N,12420.51452,W,2,09,0.95,94.6,M,-17.7,M,,0000*51
+480.76
@26.40
#1006.84
%-20.54
:507
&36.58
$GPGGA,232233.00,4918.27748,N,12420.58419,W,2,09,0.95,95.3,M,-17.7,M,,0000*54
+480.76
@26.43
#1006.79
%-19.83
:511
&36.39
$GPGGA,232237.00,4918.27827,N,12420.65507,W,2,09,0.95,97.0,M,-17.7,M,,0000*57
+480.76
@26.46
#1006.47
%-17.68
:515
&36.38
$GPGGA,232241.00,4918.27901,N,12420.72525,W,2,09,0.95,98.8,M,-17.7,M,,0000*52
+480.76
@26.50
#1006.35
%-16.08
:519
&36.74
$GPGGA,232245.00,4918.27987,N,12420.79447,W,1,09,0.95,100.5,M,-17.7,M,,*68
+480.76
@26.53
#1006.24
%-15.49
:523
&36.67
$GPGGA,232249.00,4918.28117,N,12420.86235,W,1,09,1.00,101.5,M,-17.7,M,,*65
+480.76
@26.57
#1006.04
%-13.66
:527
&36.56
$GPGGA,232253.00,4918.28627,N,12420.92962,W,1,08,1.20,102.1,M,-17.7,M,,*62
+480.76
@26.62
#1005.94
%-13.04
:531
&36.50
$GPGGA,232257.00,4918.29542,N,12420.99564,W,1,10,0.82,103.2,M,-17.7,M,,*64
+480.76
@26.65
#1005.89
%-12.75
:535
&36.72
$GPGGA,232301.00,4918.30606,N,12421.06228,W,1,10,0.82,104.2,M,-17.7,M,,*62
+490.53
@26.68
#1005.84
%-11.78
:539
&36.61
$GPGGA,232305.00,4918.31702,N,12421.12971,W,2,10,0.82,105.3,M,-17.7,M,,0000*63
+490.53
@26.74
#1005.74
%-11.69
:543
&36.59
$GPGGA,232309.00,4918.32770,N,12421.19634,W,2,10,0.82,106.1,M,-17.7,M,,0000*6D
+490.53
@26.77
#1005.68
%-10.71
:547
&36.57
$GPGGA,232313.00,4918.33630,N,12421.26105,W,2,10,0.82,107.2,M,-17.7,M,,0000*69
+471.00
@26.83
#1005.59
%-9.88
:551
&36.47

$GPGGA,232317.00,4918.34242,N,12421.32191,W,2,10,0.82,108.1,M,-17.7,M,,0000*6F
+490.53
@26.93
#1005.64
%-10.51
:555
&36.60

$GPGGA,232321.00,4918.34545,N,12421.36577,W,2,10,0.82,108.6,M,-17.7,M,,0000*65
+490.53
@27.05
#1005.74
%-11.32
:559
&36.55

$GPGGA,232325.00,4918.34603,N,12421.37821,W,2,10,0.82,108.6,M,-17.7,M,,0000*6F
+490.53
@27.16
#1005.72
%-11.54
:563
&36.41

$GPGGA,232329.00,4918.34614,N,12421.37840,W,2,09,0.87,108.4,M,-17.7,M,,0000*6D
+490.53
@27.29
#1005.73
%-11.46
:567
&35.97
w
+490.53
@27.43
#1005.72
%-11.64
:571
&35.61

$GPGGA,232337.00,4918.34623,N,12421.37861,W,2,10,0.82,107.9,M,-17.7,M,,0000*6A
+490.53
@27.52
#1005.71
%-11.05
:575
&35.62
$GPGGA,232341.00,4918.34620,N,12421.37864,W,2,10,0.82,108.1,M,-17.7,M,,0000*6A
+490.53
@27.61
#1005.73
%-11.29
:579
&35.53
$GPGGA,232345.00,4918.34603,N,12421.37855,W,2,10,0.82,107.5,M,-17.7,M,,0000*66
+490.53
@27.70
#1005.72
%-11.13
:583
&35.36
$GPGGA,232349.00,4918.34545,N,12421.38171,W,2,10,0.82,106.8,M,-17.7,M,,0000*67
+490.53
@27.78
#1005.70
%-11.02
:587
&35.27
$GPGGA,232353.00,4918.33266,N,12421.38782,W,2,10,0.95,106.9,M,-17.7,M,,0000*60
+490.53
@27.85
#1005.67
%-10.60
:591
&35.20
$GPGGA,232357.00,4918.31072,N,12421.38925,W,2,10,0.82,108.0,M,-17.7,M,,0000*63
+490.53
@27.93
#1005.58
%-10.01
:595
&35.42
$GPGGA,232401.00,4918.28537,N,12421.39054,W,2,10,0.82,108.3,M,-17.7,M,,0000*66
+490.53
@28.01
#1005.43
%-8.41
:599
&35.32
$GPGGA,232405.00,4918.25884,N,12421.39246,W,2,09,0.87,109.3,M,-17.7,M,,0000*67
+490.53
@28.08
#1005.32
%-7.76
:603
&35.13
$GPGGA,232409.00,4918.23190,N,12421.40023,W,2,10,0.82,109.7,M,-17.7,M,,0000*67
+490.53
@28.12
#1005.38
%-8.64
:607
&35.25
$GPGGA,232413.00,4918.20517,N,12421.41246,W,2,09,0.89,107.9,M,-17.7,M,,0000*67
+490.53
@28.18
#1005.44
%-8.63
:611
&35.34
$GPGGA,232417.00,4918.17650,N,12421.41188,W,2,08,0.93,106.1,M,-17.7,M,,0000*65
+490.53
@28.19
#1005.38
%-8.40
:615
&35.29
$GPGGA,232421.00,4918.15047,N,12421.39310,W,2,08,1.08,104.5,M,-17.7,M,,0000*6B
+490.53
@28.24
#1005.29
%-7.91
:619
&35.32
$GPGGA,232425.00,4918.12505,N,12421.37353,W,2,08,1.08,105.7,M,-17.7,M,,0000*61
+490.53
@28.26
#1005.41
%-8.77
:623
&35.53
$GPGGA,232429.00,4918.11077,N,12421.34854,W,2,09,0.96,103.3,M,-17.7,M,,0000*64
+502.73
@28.31
#1005.52
%-9.47
:627
&35.73
$GPGGA,232433.00,4918.10966,N,12421.30937,W,2,10,0.88,104.3,M,-17.7,M,,0000*67
+507.62
@28.32
#1005.71
%-11.22
:631
&35.44
$GPGGA,232437.00,4918.10871,N,12421.27008,W,2,10,0.96,106.1,M,-17.7,M,,0000*68
+490.53
@28.36
#1005.76
%-11.72
:635
&35.22
$GPGGA,232441.00,4918.09635,N,12421.25258,W,2,10,0.82,105.2,M,-17.7,M,,0000*6F
+490.53
@28.39
#1005.79
%-11.47
:639
&35.22
$GPGGA,232445.00,4918.07148,N,12421.25187,W,2,10,0.82,100.3,M,-17.7,M,,0000*6D
+500.29
@28.46
#1005.79
%-11.46
:643
&35.22
$GPGGA,232449.00,4918.04314,N,12421.25183,W,2,10,0.88,103.3,M,-17.7,M,,0000*64
+490.53
@28.45
#1005.61
%-9.86
:647
&35.17
$GPGGA,232453.00,4918.01677,N,12421.25177,W,2,10,0.82,106.0,M,-17.7,M,,0000*6D
+502.73
@28.50
#1005.36
%-7.82
:651
&35.18
$GPGGA,232457.00,4917.99220,N,12421.25176,W,2,10,0.82,107.3,M,-17.7,M,,0000*62
+507.62
@28.57
#1005.37
%-8.30
:655
&35.17
$GPGGA,232501.00,4917.97158,N,12421.25288,W,2,10,0.96,106.7,M,-17.7,M,,0000*60
+502.73
@28.59
#1005.34
%-8.20
:659
&35.23
$GPGGA,232505.00,4917.96572,N,12421.27397,W,2,10,0.82,107.2,M,-17.7,M,,0000*65
+507.62
@28.65
#1005.51
%-9.79
:663
&35.12
$GPGGA,232509.00,4917.96668,N,12421.29738,W,2,10,0.96,107.2,M,-17.7,M,,0000*6B
+507.62
@28.65
#1005.57
%-9.83
:667
&35.15
$GPGGA,232513.00,4917.96644,N,12421.30325,W,2,10,0.82,109.4,M,-17.7,M,,0000*63
+507.62
@28.66
#1005.58
%-9.65
:671
&35.42
$GPGGA,232517.00,4917.96621,N,12421.30342,W,2,10,0.82,108.9,M,-17.7,M,,0000*69
+510.06
@28.72
#1005.56
%-9.95
:675
&35.51
$GPGGA,232521.00,4917.96610,N,12421.30339,W,2,10,0.82,108.4,M,-17.7,M,,0000*6F
+510.06
@28.78
#1005.57
%-9.79
:679
&35.46
$GPGGA,232525.00,4917.96615,N,12421.30342,W,2,10,0.88,107.5,M,-17.7,M,,0000*66
+510.06
@28.83
#1005.57
%-10.05
:683
&35.36
$GPGGA,232529.00,4917.96614,N,12421.30311,W,2,09,0.86,105.3,M,-17.7,M,,0000*6F
+510.06
@28.90
#1005.56
%-9.70
:687
&35.23
$GPGGA,232533.00,4917.96623,N,12421.30157,W,2,11,0.81,105.8,M,-17.7,M,,0000*65
+510.06
@28.98
#1005.53
%-9.87
:691
&35.12
$GPGGA,232537.00,4917.96616,N,12421.30154,W,2,10,0.91,106.3,M,-17.7,M,,0000*6C
+510.06
@29.07
#1005.51
%-9.74
:695
&35.12
$GPGGA,232541.00,4917.96597,N,12421.30166,W,2,10,0.91,106.4,M,-17.7,M,,0000*61
+510.06
@29.16
#1005.54
%-9.78
:699
&34.99
$GPGGA,232545.00,4917.96587,N,12421.30140,W,2,10,0.91,107.1,M,-17.7,M,,0000*64
+510.06
@29.26
#1005.51
%-9.71
:703
&34.86
$GPGGA,232549.00,4917.96571,N,12421.30143,W,2,11,0.97,106.8,M,-17.7,M,,0000*6D
+510.06
@29.36
#1005.51
%-9.39
:707
&34.74
$GPGGA,232553.00,4917.96544,N,12421.30244,W,2,11,0.86,104.8,M,-17.7,M,,0000*66
+510.06
@29.49
#1005.51
%-9.57
:711
&34.59
$GPGGA,232557.00,4917.96533,N,12421.30234,W,2,11,0.86,105.0,M,-17.7,M,,0000*6C
+505.18
@29.59
#1005.52
%-9.61
:715
&34.45
$GPGGA,232601.00,4917.96497,N,12421.30275,W,2,11,0.81,104.4,M,-17.7,M,,0000*64
+510.06
@29.68
#1005.53
%-9.44
:719
&34.32
$GPGGA,232605.00,4917.96507,N,12421.30234,W,2,11,0.81,103.8,M,-17.7,M,,0000*66
+510.06
@29.79
#1005.54
%-9.49
:723
&34.20
$GPGGA,232609.00,4917.96556,N,12421.30231,W,2,11,0.81,107.7,M,-17.7,M,,0000*60
+510.06
@29.93
#1005.53
%-9.49
:727
&33.99
$GPGGA,232613.00,4917.96596,N,12421.30169,W,2,11,0.86,107.0,M,-17.7,M,,0000*69
+510.06
@30.03
#1005.52
%-9.65
:731
&33.84
$GPGGA,232617.00,4917.96580,N,12421.30115,W,2,10,0.91,108.6,M,-17.7,M,,0000*6F
+510.06
@30.14
#1005.51
%-9.46
:735
&33.66
$GPGGA,232621.00,4917.96592,N,12421.30110,W,2,11,0.83,109.8,M,-17.7,M,,0000*61
+510.06
@30.21
#1005.54
%-9.59
:739
&33.56
$GPGGA,232625.00,4917.96589,N,12421.30110,W,2,11,0.76,110.5,M,-17.7,M,,0000*60
+510.06
@30.29
#1005.52
%-9.86
:743
&33.43
$GPGGA,232629.00,4917.96579,N,12421.30112,W,2,11,0.76,111.3,M,-17.7,M,,0000*66
+510.06
@30.37
#1005.54
%-9.58
:747
&33.32
$GPGGA,232633.00,4917.96588,N,12421.30116,W,2,11,0.76,111.8,M,-17.7,M,,0000*6C
+510.06
@30.46
#1005.57
%-9.74
:751
&33.17
$GPGGA,232637.00,4917.96617,N,12421.30129,W,2,11,0.76,114.3,M,-17.7,M,,0000*6F
+510.06
@30.52
#1005.53
%-9.46
:755
&33.05
$GPGGA,232641.00,4917.96631,N,12421.30135,W,2,11,0.76,115.5,M,-17.7,M,,0000*60
+510.06
@30.59
#1005.55
%-9.48
:759
&32.96
$GPGGA,232645.00,4917.96617,N,12421.30133,W,2,11,0.76,114.8,M,-17.7,M,,0000*6A
+510.06
@30.66
#1005.53
%-9.45
:763
&32.86
$GPGGA,232649.00,4917.96615,N,12421.30114,W,2,11,0.76,113.9,M,-17.7,M,,0000*67
+510.06
@30.72
#1005.51
%-9.68
:767
&32.76
$GPGGA,232653.00,4917.96618,N,12421.30090,W,2,11,0.76,114.2,M,-17.7,M,,0000*60
+512.50
@30.81
#1005.49
%-9.34
:771
&32.67
$GPGGA,232657.00,4917.96597,N,12421.30128,W,2,10,0.84,112.0,M,-17.7,M,,0000*6A
+512.50
@30.90
#1005.50
%-9.16
:775
&32.56
$GPGGA,232701.00,4917.96580,N,12421.30158,W,2,11,0.83,110.6,M,-17.7,M,,0000*6B
+512.50
@31.00
#1005.52
%-9.36
:779
&32.44
$GPGGA,232705.00,4917.96570,N,12421.30172,W,2,11,0.86,109.8,M,-17.7,M,,0000*6B
+514.94
@31.09
#1005.50
%-9.18
:783
&32.33
$GPGGA,232709.00,4917.96572,N,12421.30176,W,2,08,1.10,109.6,M,-17.7,M,,0000*69
+512.50
@31.19
#1005.53
%-9.14
:787
&32.17
$GPGGA,232713.00,4917.96569,N,12421.30171,W,2,09,1.01,109.8,M,-17.7,M,,0000*60
+514.94
@31.30
#1005.53
%-9.27
:791
&32.44
$GPGGA,232717.00,4917.96583,N,12421.30191,W,2,09,0.97,109.5,M,-17.7,M,,0000*6D
