Pressure (hPa)
#1005.99
Altitude (m)
%60.49

Humidity (%)
&51.48
$GPRMC,220812.00,V,,,,,,,250121,,,N*73
$GPVTG,,,,,,,,,N*30
$G
Methane (PPM)
+287.89
Temperature (*c)
@13.06
Pressure (hPa)
#1005.99
Altitude (m)
%60.56

Humidity (%)
&51.47
$GPRMC,220814.00,V,,,,,,,250121,,,N*75
$GPVTG,,,,,,,,,N*30
$G
Methane (PPM)
+314.75
Temperature (*c)
@13.07
Pressure (hPa)
#1006.02
Altitude (m)
%60.43

Humidity (%)
&51.46
$GPRMC,220816.00,V,,,,,,,250121,,,N*77
$GPVTG,,,,,,,,,N*30
$G
Methane (PPM)
+336.72
Temperature (*c)
@13.08
Pressure (hPa)
#1006.00
Altitude (m)
%60.52

Humidity (%)
&51.49
$GPRMC,220818.00,V,,,,,,,250121,,,N*79
$GPVTG,,,,,,,,,N*30
$G
Methane (PPM)
+353.81
Temperature (*c)
@13.09
Pressure (hPa)
#1006.00
Altitude (m)
%60.41

Humidity (%)
&51.45
$GPRMC,220820.00,V,,,,,,,250121,,,N*72
$GPVTG,,,,,,,,,N*30
$G
Methane (PPM)
+368.46
Temperature (*c)
@13.09
Pressure (hPa)
#1005.98
Altitude (m)
%60.54

Humidity (%)
&51.50
$GPRMC,220822.00,V,,,,,,,250121,,,N*70
$GPVTG,,,,,,,,,N*30
$G
Methane (PPM)
+378.22
Temperature (*c)
@13.10
Pressure (hPa)
#1006.00
Altitude (m)
%60.43

Humidity (%)
&51.54
$GPRMC,220824.00,A,4919.28600,N,12420.28221,W,0.608,,250121,,,A
Methane (PPM)
+387.99
Temperature (*c)
@13.10
Pressure (hPa)
#1006.01
Altitude (m)
%60.39

Humidity (%)
&51.58
$GPRMC,220826.00,A,4919.28665,N,12420.28173,W,0.675,,250121,,,A
Methane (PPM)
+392.87
Temperature (*c)
@13.11
Pressure (hPa)
#1006.02
Altitude (m)
%60.37

Humidity (%)
&51.63
$GPRMC,220828.00,A,4919.28122,N,12420.28592,W,0.820,,250121,,,A
Methane (PPM)
+397.75
Temperature (*c)
@13.12
Pressure (hPa)
#1006.10
Altitude (m)
%59.46

Humidity (%)
&51.69
$GPRMC,220830.00,A,4919.27939,N,12420.28747,W,0.790,,250121,,,A9.27726,N,12420.28905,W,0.943,,250121,,,A*60
$GPVTG,,T,,M,0.943,N,1.747,K,A*28
$GPGGA,220832.00,4919.27726,N,12420.28905,W,1,04,14.95,54.8,M,-17.7,M,,*6F
$GPGSA,A,3,30,07,08,27,,,,,,,,,23.58,14.95,18.23*36
$GPGSV,3,1,10,05,21,269,25,07,58,092,37,08,39,069,36,09,16,157,26*72
$GPGSV,3,2,10,11,18,102,33,14,,,29,21,01,096,20,27,14,035,33*44
$GPGSV,3,3,10,30,83,320,36,46,28,147,34*79
$GPGLL,4919.27726,N,12420.28905,W,220832.00,A,A*72

Methane (PPM)
+397.75
Temperature (*c)
@13.13
Pressure (hPa)
#1006.19
Altitude (m)
%58.58

Humidity (%)
&51.89
$GPRMC,220833.00,A,4919.27720,N,12420.28921,W,0.234,,250121,,,A
Methane (PPM)
+400.20
Temperature (*c)
@13.13
Pressure (hPa)
#1006.23
Altitude (m)
%59.10

Humidity (%)
&52.00
$GPRMC,220835.00,A,4919.27687,N,12420.28959,W,0.524,,250121,,,A
Methane (PPM)
+397.75
Temperature (*c)
@13.13
Pressure (hPa)
#1006.21
Altitude (m)
%58.62

Humidity (%)
&52.56
$GPRMC,220837.00,A,4919.27666,N,12420.29013,W,0.068,,250121,,,A
Methane (PPM)
+397.75
Temperature (*c)
@13.13
Pressure (hPa)
#1006.25
Altitude (m)
%58.67

Humidity (%)
&53.43
$GPRMC,220839.00,A,4919.27639,N,12420.29057,W,0.372,,250121,,,A
Methane (PPM)
+397.75
Temperature (*c)
@13.13
Pressure (hPa)
#1006.23
Altitude (m)
%58.81

Humidity (%)
&53.16
$GPRMC,220841.00,A,4919.27604,N,12420.29138,W,0.233,,250121,,,A
Methane (PPM)
+395.31
Temperature (*c)
@13.13
Pressure (hPa)
#1006.22
Altitude (m)
%58.58

Humidity (%)
&52.96
$GPRMC,220843.00,A,4919.27577,N,12420.29204,W,0.107,,250121,,,A
Methane (PPM)
+395.31
Temperature (*c)
@13.14
Pressure (hPa)
#1006.22
Altitude (m)
%58.88

Humidity (%)
&52.82
$GPRMC,220845.00,A,4919.27570,N,12420.29259,W,0.056,,250121,,,A
Methane (PPM)
+395.31
Temperature (*c)
@13.14
Pressure (hPa)
#1006.22
Altitude (m)
%58.68

Humidity (%)
&52.82
$GPRMC,220847.00,A,4919.27548,N,12420.29272,W,1.018,95.40,25012
Methane (PPM)
+392.87
Temperature (*c)
@13.14
Pressure (hPa)
#1006.24
Altitude (m)
%58.75

Humidity (%)
&52.87
$GPRMC,220849.00,A,4919.27554,N,12420.29174,W,1.963,,250121,,,A
Methane (PPM)
+392.87
Temperature (*c)
@13.13
Pressure (hPa)
#1006.24
Altitude (m)
%59.09

Humidity (%)
&52.99
$GPRMC,220851.00,A,4919.27610,N,12420.28992,W,2.296,,250121,,,A,N,12420.28959,W,0.193,,250121,,,A*63
$GPVTG,,T,,M,0.193,N,0.358,K,A*26
$GPGGA,220853.00,4919.27658,N,12420.28959,W,1,05,2.14,49.2,M,-17.7,M,,*50
$GPGSA,A,3,30,07,08,27,09,,,,,,,,2.75,2.14,1.73*00
$GPGSV,3,1,12,05,21,269,33,07,58,093,33,08,39,069,24,09,16,157,22*75
$GPGSV,3,2,12,11,18,102,30,13,33,308,38,14,56,224,31,21,01,096,17*7B
$GPGSV,3,3,12,27,14,035,32,28,,,36,30,83,321,33,46,28,147,29*4B
$GPGLL,4919.27658,N,12420.28959,W,220853.00,A,A*74

Methane (PPM)
+390.43
Temperature (*c)
@13.15
Pressure (hPa)
#1006.20
Altitude (m)
%58.96

Humidity (%)
&52.88
$GPRMC,220854.00,A,4919.27655,N,12420.28971,W,0.569,,250121,,,A
Methane (PPM)
+390.43
Temperature (*c)
@13.14
Pressure (hPa)
#1006.21
Altitude (m)
%58.66

Humidity (%)
&52.90
$GPRMC,220856.00,A,4919.27552,N,12420.29013,W,3.168,186.55,2501
Methane (PPM)
+387.99
Temperature (*c)
@13.15
Pressure (hPa)
#1006.21
Altitude (m)
%58.78

Humidity (%)
&52.77
$GPRMC,220858.00,A,4919.27330,N,12420.29027,W,4.646,186.07,2501
Methane (PPM)
+387.99
Temperature (*c)
@13.16
Pressure (hPa)
#1006.21
Altitude (m)
%58.56

Humidity (%)
&52.81
$GPRMC,220900.00,A,4919.27164,N,12420.29057,W,3.424,,250121,,,A
Methane (PPM)
+385.55
Temperature (*c)
@13.15
Pressure (hPa)
#1006.18
Altitude (m)
%58.51

Humidity (%)
&52.88
$GPRMC,220902.00,A,4919.26969,N,12420.28962,W,4.292,150.76,2501
Methane (PPM)
+385.55
Temperature (*c)
@13.16
Pressure (hPa)
#1006.23
Altitude (m)
%58.64

Humidity (%)
&52.88
$GPRMC,220904.00,A,4919.26808,N,12420.28537,W,6.579,118.55,2501
Methane (PPM)
+383.11
Temperature (*c)
@13.16
Pressure (hPa)
#1006.25
Altitude (m)
%58.48

Humidity (%)
&53.00
$GPRMC,220906.00,A,4919.26787,N,12420.28171,W,3.464,107.42,2501
Methane (PPM)
+383.11
Temperature (*c)
@13.16
Pressure (hPa)
#1006.25
Altitude (m)
%58.47

Humidity (%)
&53.08
$GPRMC,220908.00,A,4919.26793,N,12420.28029,W,1.231,103.90,2501
Methane (PPM)
+383.11
Temperature (*c)
@13.17
Pressure (hPa)
#1006.28
Altitude (m)
%58.52

Humidity (%)
&53.16
$GPRMC,220910.00,A,4919.26777,N,12420.27641,W,4.334,97.66,25012$GPRMC,220912.00,A,4919.26588,N,12420.27343,W,5.130,124.55,250121,,,A*73
$GPVTG,124.55,T,,M,5.130,N,9.500,K,A*31
$GPGGA,220912.00,4919.26588,N,12420.27343,W,1,05,2.15,50.4,M,-17.7,M,,*5A
$GPGSA,A,3,30,07,08,27,09,,,,,,,,2.75,2.15,1.72*00
$GPGSV,3,1,11,05,21,269,24,07,58,093,27,08,39,068,26,09,16,157,23*77
$GPGSV,3,2,11,11,19,102,24,13,33,308,35,14,56,224,23,21,01,096,*74
$GPGSV,3,3,11,27,14,035,25,28,,,24,30,83,321,32*7D
$GPGLL,4919.26588,N,12420.27343,W,220912.00,A,A*71

Methane (PPM)
+380.66
Temperature (*c)
@13.17
Pressure (hPa)
#1006.19
Altitude (m)
%58.98

Humidity (%)
&53.85
$GPRMC,220913.00,A,4919.26355,N,12420.27329,W,8.390,167.78,2501
Methane (PPM)
+380.66
Temperature (*c)
@13.17
Pressure (hPa)
#1006.16
Altitude (m)
%59.19

Humidity (%)
&53.95
$GPRMC,220915.00,A,4919.25626,N,12420.27323,W,14.876,179.72,250
Methane (PPM)
+380.66
Temperature (*c)
@13.17
Pressure (hPa)
#1006.11
Altitude (m)
%59.72

Humidity (%)
&54.15
$GPRMC,220917.00,A,4919.24654,N,12420.27357,W,19.148,181.12,250
Methane (PPM)
+380.66
Temperature (*c)
@13.17
Pressure (hPa)
#1006.15
Altitude (m)
%59.33

Humidity (%)
&54.16
$GPRMC,220919.00,A,4919.23501,N,12420.27364,W,21.540,179.43,250
Methane (PPM)
+378.22
Temperature (*c)
@13.18
Pressure (hPa)
#1006.10
Altitude (m)
%59.62

Humidity (%)
&54.08
$GPRMC,220921.00,A,4919.22256,N,12420.27356,W,22.526,181.21,250
Methane (PPM)
+378.22
Temperature (*c)
@13.18
Pressure (hPa)
#1006.08
Altitude (m)
%60.01

Humidity (%)
&53.95
$GPRMC,220923.00,A,4919.20977,N,12420.27362,W,23.475,182.08,250
Methane (PPM)
+378.22
Temperature (*c)
@13.18
Pressure (hPa)
#1006.04
Altitude (m)
%60.32

Humidity (%)
&53.88
$GPRMC,220925.00,A,4919.19664,N,12420.27415,W,23.895,182.86,250
Methane (PPM)
+378.22
Temperature (*c)
@13.18
Pressure (hPa)
#1005.96
Altitude (m)
%60.57

Humidity (%)
&53.99
$GPRMC,220927.00,A,4919.18403,N,12420.27465,W,22.724,182.00,250
Methane (PPM)
+375.78
Temperature (*c)
@13.18
Pressure (hPa)
#1005.96
Altitude (m)
%60.86

Humidity (%)
&54.14
$GPRMC,220929.00,A,4919.17094,N,12420.27340,W,23.464,178.51,250$GPRMC,220931.00,A,4919.15833,N,12420.27399,W,22.531,181.78,250121,,,A*48
$GPVTG,181.78,T,,M,22.531,N,41.727,K,A*3A
$GPGGA,220931.00,4919.15833,N,12420.27399,W,1,04,2.55,51.0,M,-17.7,M,,*51
$GPGSA,A,3,30,08,27,09,,,,,,,,,3.38,2.55,2.22*0D
$GPGSV,3,1,11,05,21,269,31,07,58,093,08,08,39,068,29,09,16,157,26*74
$GPGSV,3,2,11,11,19,102,25,13,33,308,28,14,56,224,16,21,01,096,*7F
$GPGSV,3,3,11,27,14,035,31,28,,,34,30,83,323,30*79
$GPGLL,4919.15833,N,12420.27399,W,220931.00,A,A*7A

Methane (PPM)
+375.78
Temperature (*c)
@13.19
Pressure (hPa)
#1005.98
Altitude (m)
%60.76

Humidity (%)
&54.17
$GPRMC,220932.00,A,4919.15230,N,12420.27421,W,21.939,181.35,250
Methane (PPM)
+375.78
Temperature (*c)
@13.19
Pressure (hPa)
#1006.00
Altitude (m)
%60.53

Humidity (%)
&54.10
$GPRMC,220934.00,A,4919.14021,N,12420.27412,W,21.766,180.40,250
Methane (PPM)
+375.78
Temperature (*c)
@13.19
Pressure (hPa)
#1006.01
Altitude (m)
%60.41

Humidity (%)
&54.11
$GPRMC,220936.00,A,4919.12843,N,12420.27474,W,21.059,181.94,250
Methane (PPM)
+373.34
Temperature (*c)
@13.19
Pressure (hPa)
#1006.01
Altitude (m)
%60.29

Humidity (%)
&54.30
$GPRMC,220938.00,A,4919.11702,N,12420.27475,W,20.174,179.56,250
Methane (PPM)
+373.34
Temperature (*c)
@13.19
Pressure (hPa)
#1006.08
Altitude (m)
%59.68

Humidity (%)
&54.44
$GPRMC,220940.00,A,4919.10592,N,12420.27432,W,19.570,183.54,250
Methane (PPM)
+373.34
Temperature (*c)
@13.19
Pressure (hPa)
#1006.16
Altitude (m)
%59.19

Humidity (%)
&54.45
$GPRMC,220942.00,A,4919.09515,N,12420.27407,W,19.301,178.64,250
Methane (PPM)
+373.34
Temperature (*c)
@13.20
Pressure (hPa)
#1006.18
Altitude (m)
%59.17

Humidity (%)
&54.45
$GPRMC,220944.00,A,4919.08809,N,12420.27419,W,8.530,179.74,2501
Methane (PPM)
+373.34
Temperature (*c)
@13.20
Pressure (hPa)
#1006.16
Altitude (m)
%59.53

Humidity (%)
&54.55
$GPRMC,220946.00,A,4919.08596,N,12420.27413,W,2.639,174.59,2501
Methane (PPM)
+373.34
Temperature (*c)
@13.20
Pressure (hPa)
#1006.13
Altitude (m)
%59.55

Humidity (%)
&54.76
$GPRMC,220948.00,A,4919.08323,N,12420.27383,W,6.236,178.39,2501$GPRMC,220950.00,A,4919.07836,N,12420.26949,W,10.986,144.79,250121,,,A*46
$GPVTG,144.79,T,,M,10.986,N,20.346,K,A*37
$GPGGA,220950.00,4919.07836,N,12420.26949,W,1,05,2.15,51.2,M,-17.7,M,,*51
$GPGSA,A,3,30,07,08,27,09,,,,,,,,2.75,2.15,1.71*03
$GPGSV,3,1,12,05,21,268,31,07,58,093,34,08,39,068,36,09,15,157,26*74
$GPGSV,3,2,12,11,19,102,23,13,33,308,31,14,57,224,26,15,01,323,*7A
$GPGSV,3,3,12,21,01,096,,27,14,035,21,28,,,25,30,83,323,30*46
$GPGLL,4919.07836,N,12420.26949,W,220950.00,A,A*7D

Methane (PPM)
+373.34
Temperature (*c)
@13.21
Pressure (hPa)
#1006.11
Altitude (m)
%59.21

Humidity (%)
&55.07
$GPRMC,220951.00,A,4919.07634,N,12420.26579,W,12.083,133.28,250
Methane (PPM)
+370.90
Temperature (*c)
@13.21
Pressure (hPa)
#1006.15
Altitude (m)
%59.21

Humidity (%)
&55.16
$GPRMC,220953.00,A,4919.07449,N,12420.25374,W,15.088,104.06,250
Methane (PPM)
+370.90
Temperature (*c)
@13.21
Pressure (hPa)
#1006.20
Altitude (m)
%58.95

Humidity (%)
&54.93
$GPRMC,220955.00,A,4919.07553,N,12420.23804,W,20.960,82.02,2501
Methane (PPM)
+370.90
Temperature (*c)
@13.21
Pressure (hPa)
#1006.22
Altitude (m)
%58.58

Humidity (%)
&54.77
$GPRMC,220957.00,A,4919.07949,N,12420.21892,W,24.222,71.47,2501
Methane (PPM)
+370.90
Temperature (*c)
@13.22
Pressure (hPa)
#1006.29
Altitude (m)
%57.64

Humidity (%)
&54.94
$GPRMC,220959.00,A,4919.08534,N,12420.19756,W,27.308,66.01,2501
Methane (PPM)
+370.90
Temperature (*c)
@13.22
Pressure (hPa)
#1006.42
Altitude (m)
%56.96

Humidity (%)
&55.01
$GPRMC,221001.00,A,4919.09153,N,12420.17576,W,27.582,66.02,2501
Methane (PPM)
+370.90
Temperature (*c)
@13.23
Pressure (hPa)
#1006.49
Altitude (m)
%56.15

Humidity (%)
&56.27
$GPRMC,221003.00,A,4919.09789,N,12420.15483,W,27.493,65.23,2501
Methane (PPM)
+370.90
Temperature (*c)
@13.24
Pressure (hPa)
#1006.62
Altitude (m)
%55.33

Humidity (%)
&56.71
$GPRMC,221005.00,A,4919.10340,N,12420.13392,W,28.110,68.17,2501
Methane (PPM)
+373.34
Temperature (*c)
@13.25
Pressure (hPa)
#1006.73
Altitude (m)
%54.40

Humidity (%)
&56.75
$GPRMC,221007.00,A,4919.10942,N,12420.11180,W,28.084,65.81,2501PRMC,221009.00,A,4919.11557,N,12420.08979,W,28.082,66.55,250121,,,A*79
$GPVTG,66.55,T,,M,28.082,N,52.008,K,A*02
$GPGGA,221009.00,4919.11557,N,12420.08979,W,1,06,1.54,45.4,M,-17.7,M,,*51
$GPGSA,A,3,30,07,08,27,28,09,,,,,,,2.26,1.54,1.65*0C
$GPGSV,3,1,12,05,21,268,21,07,58,093,23,08,39,068,28,09,15,157,31*7A
$GPGSV,3,2,12,11,19,102,21,13,33,308,25,14,57,224,23,15,01,323,*78
$GPGSV,3,3,12,21,01,096,,27,14,035,20,28,50,223,24,30,83,324,25*73
$GPGLL,4919.11557,N,12420.08979,W,221009.00,A,A*7B

Methane (PPM)
+370.90
Temperature (*c)
@13.25
Pressure (hPa)
#1006.83
Altitude (m)
%53.63

Humidity (%)
&56.71
$GPRMC,221010.00,A,4919.11881,N,12420.07927,W,27.504,65.69,2501
Methane (PPM)
+370.90
Temperature (*c)
@13.26
Pressure (hPa)
#1006.88
Altitude (m)
%53.11

Humidity (%)
&56.42
$GPRMC,221012.00,A,4919.12560,N,12420.05900,W,26.566,63.10,2501
Methane (PPM)
+370.90
Temperature (*c)
@13.27
Pressure (hPa)
#1006.93
Altitude (m)
%52.30

Humidity (%)
&56.16
$GPRMC,221014.00,A,4919.13222,N,12420.03894,W,26.550,63.49,2501
Methane (PPM)
+368.46
Temperature (*c)
@13.27
Pressure (hPa)
#1007.06
Altitude (m)
%51.46

Humidity (%)
&55.99
$GPRMC,221016.00,A,4919.13835,N,12420.01877,W,26.129,64.96,2501
Methane (PPM)
+370.90
Temperature (*c)
@13.28
Pressure (hPa)
#1007.18
Altitude (m)
%50.25

Humidity (%)
&55.87
$GPRMC,221018.00,A,4919.14363,N,12419.99822,W,25.111,70.72,2501
Methane (PPM)
+368.46
Temperature (*c)
@13.28
Pressure (hPa)
#1007.30
Altitude (m)
%49.66

Humidity (%)
&55.86
$GPRMC,221020.00,A,4919.14642,N,12419.98159,W,17.582,80.70,2501
Methane (PPM)
+368.46
Temperature (*c)
@13.28
Pressure (hPa)
#1007.36
Altitude (m)
%49.38

Humidity (%)
&55.83
$GPRMC,221022.00,A,4919.14590,N,12419.96955,W,12.660,92.23,2501
Methane (PPM)
+368.46
Temperature (*c)
@13.29
Pressure (hPa)
#1007.37
Altitude (m)
%49.60

Humidity (%)
&55.98
$GPRMC,221024.00,A,4919.14079,N,12419.96201,W,12.244,138.36,250
Methane (PPM)
+368.46
Temperature (*c)
@13.30
Pressure (hPa)
#1007.32
Altitude (m)
%49.83

Humidity (%)
&56.22
$GPRMC,221026.00,A,4919.13272,N,12419.96093,W,15.703,179.16,25000,A,4919.12286,N,12419.96136,W,19.002,181.12,250121,,,A*4D
$GPVTG,181.12,T,,M,19.002,N,35.191,K,A*33
$GPGGA,221028.00,4919.12286,N,12419.96136,W,1,06,1.54,39.4,M,-17.7,M,,*5F
$GPGSA,A,3,30,07,08,27,28,09,,,,,,,2.25,1.54,1.64*0E
$GPGSV,3,1,12,05,20,268,22,07,57,093,16,08,39,068,26,09,15,157,29*76
$GPGSV,3,2,12,11,19,102,24,13,34,308,24,14,57,225,18,15,02,323,*71
$GPGSV,3,3,12,21,01,095,,27,14,035,26,28,50,223,34,30,83,324,26*74
$GPGLL,4919.12286,N,12419.96136,W,221028.00,A,A*7E

Methane (PPM)
+368.46
Temperature (*c)
@13.31
Pressure (hPa)
#1007.23
Altitude (m)
%50.23

Humidity (%)
&56.11
$GPRMC,221029.00,A,4919.11755,N,12419.96185,W,19.210,180.63,250
Methane (PPM)
+368.46
Temperature (*c)
@13.32
Pressure (hPa)
#1007.24
Altitude (m)
%50.44

Humidity (%)
&55.90
$GPRMC,221031.00,A,4919.10631,N,12419.96167,W,20.423,177.26,250
Methane (PPM)
+368.46
Temperature (*c)
@13.32
Pressure (hPa)
#1007.16
Altitude (m)
%50.89

Humidity (%)
&55.74
$GPRMC,221033.00,A,4919.09479,N,12419.96149,W,20.714,182.82,250
Methane (PPM)
+368.46
Temperature (*c)
@13.33
Pressure (hPa)
#1007.13
Altitude (m)
%51.01

Humidity (%)
&55.65
$GPRMC,221035.00,A,4919.08255,N,12419.96324,W,22.034,192.50,250
Methane (PPM)
+368.46
Temperature (*c)
@13.34
Pressure (hPa)
#1007.12
Altitude (m)
%51.55

Humidity (%)
&55.63
$GPRMC,221037.00,A,4919.07146,N,12419.96934,W,21.644,201.54,250
Methane (PPM)
+366.02
Temperature (*c)
@13.34
Pressure (hPa)
#1007.02
Altitude (m)
%52.12

Humidity (%)
&55.64
$GPRMC,221039.00,A,4919.06032,N,12419.97627,W,21.712,199.30,250
Methane (PPM)
+366.02
Temperature (*c)
@13.35
Pressure (hPa)
#1006.99
Altitude (m)
%52.09

Humidity (%)
&55.74
$GPRMC,221041.00,A,4919.04862,N,12419.98103,W,21.964,192.34,250
Methane (PPM)
+366.02
Temperature (*c)
@13.35
Pressure (hPa)
#1006.99
Altitude (m)
%52.41

Humidity (%)
&55.64
$GPRMC,221043.00,A,4919.03638,N,12419.98373,W,22.688,187.29,250
Methane (PPM)
+366.02
Temperature (*c)
@13.36
Pressure (hPa)
#1006.92
Altitude (m)
%52.68

Humidity (%)
&55.50
$GPRMC,221045.00,A,4919.02295,N,12419.98480,W,24.361,178.82,250A,4919.00926,N,12419.98302,W,24.951,177.94,250121,,,A*4B
$GPVTG,177.94,T,,M,24.951,N,46.209,K,A*33
$GPGGA,221047.00,4919.00926,N,12419.98302,W,1,06,1.54,43.2,M,-17.7,M,,*54
$GPGSA,A,3,30,07,08,27,28,09,,,,,,,2.25,1.54,1.64*0E
$GPGSV,4,1,13,05,20,268,30,07,57,093,19,08,39,068,20,09,15,157,26*75
$GPGSV,4,2,13,11,19,102,26,13,34,308,17,14,57,225,26,15,02,323,*78
$GPGSV,4,3,13,17,01,181,,21,01,095,,27,14,035,27,28,50,224,37*71
$GPGSV,4,4,13,30,83,326,28*4E
$GPGLL,4919.00926,N,12419.98302,W,221047.00,A,A*7E

Methane (PPM)
+363.57
Temperature (*c)
@13.37
Pressure (hPa)
#1006.93
Altitude (m)
%52.90

Humidity (%)
&55.47
$GPRMC,221048.00,A,4919.00222,N,12419.98333,W,25.053,178.35,250
Methane (PPM)
+366.02
Temperature (*c)
@13.37
Pressure (hPa)
#1006.91
Altitude (m)
%53.02

Humidity (%)
&55.54
$GPRMC,221050.00,A,4918.98832,N,12419.98285,W,24.773,178.80,250
Methane (PPM)
+366.02
Temperature (*c)
@13.39
Pressure (hPa)
#1006.91
Altitude (m)
%52.90

Humidity (%)
&55.58
$GPRMC,221052.00,A,4918.97461,N,12419.98245,W,24.960,179.71,250
Methane (PPM)
+366.02
Temperature (*c)
@13.39
Pressure (hPa)
#1006.90
Altitude (m)
%53.28

Humidity (%)
&55.65
$GPRMC,221054.00,A,4918.96068,N,12419.98231,W,25.368,179.81,250
Methane (PPM)
+366.02
Temperature (*c)
@13.40
Pressure (hPa)
#1006.81
Altitude (m)
%53.70

Humidity (%)
&55.70
$GPRMC,221056.00,A,4918.94668,N,12419.98195,W,25.221,179.10,250
Methane (PPM)
+366.02
Temperature (*c)
@13.40
Pressure (hPa)
#1006.82
Altitude (m)
%53.57

Humidity (%)
&55.87
$GPRMC,221058.00,A,4918.93325,N,12419.98302,W,24.010,183.39,250
Methane (PPM)
+366.02
Temperature (*c)
@13.41
Pressure (hPa)
#1006.81
Altitude (m)
%54.19

Humidity (%)
&55.83
$GPRMC,221100.00,A,4918.92042,N,12419.98547,W,23.154,190.83,250
Methane (PPM)
+366.02
Temperature (*c)
@13.41
Pressure (hPa)
#1006.75
Altitude (m)
%54.68

Humidity (%)
&55.72
$GPRMC,221102.00,A,4918.90824,N,12419.99043,W,22.548,198.45,250$GPRMC,221104.00,A,4918.89740,N,12419.99872,W,21.738,209.50,250121,,,A*48
$GPVTG,209.50,T,,M,21.738,N,40.259,K,A*36
$GPGGA,221104.00,4918.89740,N,12419.99872,W,1,06,1.54,45.7,M,-17.7,M,,*52
$GPGSA,A,3,30,07,08,27,28,09,,,,,,,2.25,1.54,1.63*09
$GPGSV,4,1,13,05,20,268,26,07,57,094,34,08,39,067,32,09,15,157,21*71
$GPGSV,4,2,13,11,19,101,29,13,34,308,36,14,57,225,27,15,02,322,*77
$GPGSV,4,3,13,17,01,181,,21,01,095,,27,14,035,29,28,50,224,25*7C
$GPGSV,4,4,13,30,83,326,36*41
$GPGLL,4918.89740,N,12419.99872,W,221104.00,A,A*7B

Methane (PPM)
+366.02
Temperature (*c)
@13.43
Pressure (hPa)
#1006.66
Altitude (m)
%54.86

Humidity (%)
&55.69
$GPRMC,221105.00,A,4918.89210,N,12420.00356,W,22.445,211.77,250
Methane (PPM)
+366.02
Temperature (*c)
@13.44
Pressure (hPa)
#1006.67
Altitude (m)
%54.75

Humidity (%)
&55.93
$GPRMC,221107.00,A,4918.88416,N,12420.01236,W,14.296,215.78,250
Methane (PPM)
+366.02
Temperature (*c)
@13.45
Pressure (hPa)
#1006.66
Altitude (m)
%55.04

Humidity (%)
&55.83
$GPRMC,221107.00,A,4918.88250,N,12420.02093,W,8.778,245.70,2501
Methane (PPM)
+366.02
Temperature (*c)
@13.46
Pressure (hPa)
#1006.62
Altitude (m)
%55.51

Humidity (%)
&55.81
$GPRMC,221109.00,A,4918.88501,N,12420.02929,W,11.541,301.15,250
Methane (PPM)
+366.02
Temperature (*c)
@13.49
Pressure (hPa)
#1006.51
Altitude (m)
%56.33

Humidity (%)
&57.32
$GPRMC,221111.00,A,4918.89067,N,12420.03721,W,13.866,321.57,250
Methane (PPM)
+366.02
Temperature (*c)
@13.52
Pressure (hPa)
#1006.53
Altitude (m)
%56.65

Humidity (%)
&57.95
$GPRMC,221113.00,A,4918.89890,N,12420.04037,W,15.661,353.38,250
Methane (PPM)
+366.02
Temperature (*c)
@13.54
Pressure (hPa)
#1006.29
Altitude (m)
%57.93

Humidity (%)
&58.00
$GPRMC,221115.00,A,4918.90790,N,12420.04095,W,16.095,358.14,250
Methane (PPM)
+366.02
Temperature (*c)
@13.59
Pressure (hPa)
#1006.28
Altitude (m)
%58.32

Humidity (%)
&59.32
$GPRMC,221117.00,A,4918.91804,N,12420.04141,W,19.438,358.55,250$GPRMC,221119.00,A,4918.92958,N,12420.04179,W,22.170,358.93,250121,,,A*46
$GPVTG,358.93,T,,M,22.170,N,41.059,K,A*36
$GPGGA,221119.00,4918.92958,N,12420.04179,W,1,06,1.54,44.5,M,-17.7,M,,*5C
$GPGSA,A,3,30,07,08,27,28,09,,,,,,,2.24,1.54,1.63*08
$GPGSV,4,1,13,05,20,268,18,07,57,094,34,08,39,067,26,09,15,157,23*7B
$GPGSV,4,2,13,11,19,101,23,13,34,308,23,14,57,225,24,15,02,322,*7A
$GPGSV,4,3,13,17,01,181,13,21,01,095,07,27,14,035,33,28,50,224,31*77
$GPGSV,4,4,13,30,84,327,19*4A
$GPGLL,4918.92958,N,12420.04179,W,221119.00,A,A*76

Methane (PPM)
+363.57
Temperature (*c)
@13.62
Pressure (hPa)
#1006.23
Altitude (m)
%58.19

Humidity (%)
&59.82
$GPRMC,221120.00,A,4918.93593,N,12420.04226,W,22.831,358.75,250
Methane (PPM)
+363.57
Temperature (*c)
@13.66
Pressure (hPa)
#1006.32
Altitude (m)
%57.93

Humidity (%)
&59.22
$GPRMC,221122.00,A,4918.94888,N,12420.04232,W,23.411,0.03,25012
Methane (PPM)
+363.57
Temperature (*c)
@13.74
Pressure (hPa)
#1006.36
Altitude (m)
%57.32

Humidity (%)
&58.96
$GPRMC,221124.00,A,4918.96153,N,12420.04254,W,22.557,357.07,250
Methane (PPM)
+363.57
Temperature (*c)
@13.77
Pressure (hPa)
#1006.39
Altitude (m)
%57.10

Humidity (%)
&58.21
$GPRMC,221126.00,A,4918.97355,N,12420.04308,W,22.265,358.96,250
Methane (PPM)
+363.57
Temperature (*c)
@13.81
Pressure (hPa)
#1006.42
Altitude (m)
%56.77

Humidity (%)
&57.42
$GPRMC,221128.00,A,4918.98591,N,12420.04399,W,21.551,357.26,250
Methane (PPM)
+363.57
Temperature (*c)
@13.87
Pressure (hPa)
#1006.42
Altitude (m)
%56.76

Humidity (%)
&57.58
$GPRMC,221130.00,A,4918.99786,N,12420.04465,W,21.429,357.58,250
Methane (PPM)
+363.57
Temperature (*c)
@13.91
Pressure (hPa)
#1006.44
Altitude (m)
%57.19

Humidity (%)
&58.19
$GPRMC,221132.00,A,4919.01080,N,12420.04526,W,22.490,359.09,250
Methane (PPM)
+363.57
Temperature (*c)
@13.93
Pressure (hPa)
#1006.53
Altitude (m)
%56.29

Humidity (%)
&57.87
$GPRMC,221134.00,A,4919.02422,N,12420.04596,W,22.861,357.14,250$GPRMC,221136.00,A,4919.03716,N,12420.04625,W,22.938,358.42,250121,,,A*40
$GPVTG,358.42,T,,M,22.938,N,42.482,K,A*3F
$GPGGA,221136.00,4919.03716,N,12420.04625,W,1,06,1.54,40.3,M,-17.7,M,,*50
$GPGSA,A,3,30,07,08,27,28,09,,,,,,,2.24,1.54,1.62*09
$GPGSV,4,1,13,05,20,268,25,07,57,094,30,08,39,067,31,09,15,157,27*73
$GPGSV,4,2,13,11,19,101,27,13,34,308,19,14,57,225,20,15,02,322,*73
$GPGSV,4,3,13,17,01,181,,21,01,095,,27,14,035,25,28,50,224,30*74
$GPGSV,4,4,13,30,84,327,26*46
$GPGLL,4919.03716,N,12420.04625,W,221136.00,A,A*78

Methane (PPM)
+363.57
Temperature (*c)
@13.98
Pressure (hPa)
#1006.74
Altitude (m)
%54.25

Humidity (%)
&57.60
$GPRMC,221137.00,A,4919.04312,N,12420.04617,W,20.942,0.55,25012
Methane (PPM)
+363.57
Temperature (*c)
@14.05
Pressure (hPa)
#1006.77
Altitude (m)
%54.41

Humidity (%)
&57.60
$GPRMC,221139.00,A,4919.05495,N,12420.04613,W,21.306,0.83,25012
Methane (PPM)
+366.02
Temperature (*c)
@14.07
Pressure (hPa)
#1006.79
Altitude (m)
%53.79

Humidity (%)
&58.54
$GPRMC,221141.00,A,4919.06652,N,12420.04334,W,20.765,13.59,2501
Methane (PPM)
+366.02
Temperature (*c)
@14.11
Pressure (hPa)
#1006.83
Altitude (m)
%53.30

Humidity (%)
&58.32
$GPRMC,221143.00,A,4919.07646,N,12420.03641,W,19.724,27.83,2501
Methane (PPM)
+366.02
Temperature (*c)
@14.17
Pressure (hPa)
#1006.99
Altitude (m)
%52.07

Humidity (%)
&58.75
$GPRMC,221145.00,A,4919.08540,N,12420.02611,W,20.381,39.40,2501
Methane (PPM)
+368.46
Temperature (*c)
@14.17
Pressure (hPa)
#1007.12
Altitude (m)
%50.94

Humidity (%)
&58.43
$GPRMC,221147.00,A,4919.09211,N,12420.01196,W,20.412,55.59,2501
Methane (PPM)
+368.46
Temperature (*c)
@14.20
Pressure (hPa)
#1007.25
Altitude (m)
%50.10

Humidity (%)
&57.76
$GPRMC,221149.00,A,4919.09728,N,12419.99707,W,18.362,65.77,2501
Methane (PPM)
+366.02
Temperature (*c)
@14.22
Pressure (hPa)
#1007.30
Altitude (m)
%49.92

Humidity (%)
&57.08
$GPRMC,221151.00,A,4919.09985,N,12419.98458,W,13.552,77.87,2501
Methane (PPM)
+366.02
Temperature (*c)
@14.24
Pressure (hPa)
#1007.31
Altitude (m)
%49.50

Humidity (%)
&56.57
$GPRMC,221153.00,A,4919.09994,N,12419.97438,W,11.004,93.08,250112419.96986,W,1.865,93.03,250121,,,A*48
$GPVTG,93.03,T,,M,1.865,N,3.453,K,A*0F
$GPGGA,221155.00,4919.09966,N,12419.96986,W,1,06,1.54,39.3,M,-17.7,M,,*5F
$GPGSA,A,3,30,07,08,27,28,09,,,,,,,2.24,1.54,1.62*09
$GPGSV,4,1,13,05,20,268,31,07,57,094,29,08,39,067,30,09,15,157,32*7B
$GPGSV,4,2,13,11,19,101,33,13,34,308,33,14,57,225,18,15,02,322,*75
$GPGSV,4,3,13,17,01,181,,21,02,095,21,27,13,035,25,28,51,224,33*71
$GPGSV,4,4,13,30,84,329,34*4B
$GPGLL,4919.09966,N,12419.96986,W,221155.00,A,A*79

Methane (PPM)
+366.02
Temperature (*c)
@14.27
Pressure (hPa)
#1007.32
Altitude (m)
%49.58

Humidity (%)
&56.16
$GPRMC,221156.00,A,4919.09969,N,12419.96967,W,0.055,,250121,,,A
Methane (PPM)
+366.02
Temperature (*c)
@14.29
Pressure (hPa)
#1007.30
Altitude (m)
%49.52

Humidity (%)
&56.03
$GPRMC,221158.00,A,4919.09965,N,12419.96920,W,0.007,,250121,,,A
Methane (PPM)
+363.57
Temperature (*c)
@14.32
Pressure (hPa)
#1007.34
Altitude (m)
%49.51

Humidity (%)
&55.86
$GPRMC,221200.00,A,4919.09948,N,12419.96864,W,0.103,,250121,,,A
Methane (PPM)
+366.02
Temperature (*c)
@14.33
Pressure (hPa)
#1007.32
Altitude (m)
%49.37

Humidity (%)
&55.72
$GPRMC,221202.00,A,4919.09954,N,12419.96833,W,0.619,,250121,,,A
Methane (PPM)
+366.02
Temperature (*c)
@14.35
Pressure (hPa)
#1007.33
Altitude (m)
%49.55

Humidity (%)
&55.55
$GPRMC,221204.00,A,4919.09955,N,12419.96560,W,5.907,89.27,25012
Methane (PPM)
+363.57
Temperature (*c)
@14.37
Pressure (hPa)
#1007.28
Altitude (m)
%49.77

Humidity (%)
&55.32
$GPRMC,221206.00,A,4919.09972,N,12419.95720,W,11.859,89.66,2501
Methane (PPM)
+366.02
Temperature (*c)
@14.39
Pressure (hPa)
#1007.29
Altitude (m)
%49.64

Humidity (%)
&55.13
$GPRMC,221208.00,A,4919.10008,N,12419.94462,W,17.001,87.95,2501
Methane (PPM)
+366.02
Temperature (*c)
@14.40
Pressure (hPa)
#1007.31
Altitude (m)
%49.52

Humidity (%)
&55.03
$GPRMC,221210.00,A,4919.10040,N,12419.92832,W,20.850,89.18,2501$GPRMC,221212.00,A,4919.10058,N,12419.90988,W,22.294,89.29,250121,,,A*7A
$GPVTG,89.29,T,,M,22.294,N,41.289,K,A*0E
$GPGGA,221212.00,4919.10058,N,12419.90988,W,1,06,1.54,39.5,M,-17.7,M,,*5D
$GPGSA,A,3,30,07,08,27,28,09,,,,,,,2.23,1.54,1.61*0D
$GPGSV,4,1,14,05,20,267,28,07,57,094,32,08,39,067,30,09,14,157,25*76
$GPGSV,4,2,14,11,19,101,36,13,34,308,34,14,58,225,32,15,02,322,*77
$GPGSV,4,3,14,17,02,181,,21,02,095,,27,13,035,25,28,51,224,30*75
$GPGSV,4,4,14,30,84,329,35,51,31,158,35*71
$GPGLL,4919.10058,N,12419.90988,W,221212.00,A,A*7D

Methane (PPM)
+366.02
Temperature (*c)
@14.42
Pressure (hPa)
#1007.38
Altitude (m)
%48.71

Humidity (%)
&55.02
$GPRMC,221213.00,A,4919.10056,N,12419.90050,W,21.737,89.91,2501
Methane (PPM)
+363.57
Temperature (*c)
@14.44
Pressure (hPa)
#1007.41
Altitude (m)
%48.59

Humidity (%)
&55.09
$GPRMC,221215.00,A,4919.10086,N,12419.88263,W,21.078,89.27,2501
Methane (PPM)
+366.02
Temperature (*c)
@14.45
Pressure (hPa)
#1007.46
Altitude (m)
%48.16

Humidity (%)
&55.14
$GPRMC,221217.00,A,4919.10113,N,12419.86537,W,19.911,88.14,2501
Methane (PPM)
+366.02
Temperature (*c)
@14.46
Pressure (hPa)
#1007.46
Altitude (m)
%48.11

Humidity (%)
&55.09
$GPRMC,221219.00,A,4919.10103,N,12419.84887,W,18.770,92.66,2501
Methane (PPM)
+366.02
Temperature (*c)
@14.48
Pressure (hPa)
#1007.44
Altitude (m)
%48.50

Humidity (%)
&55.17
$GPRMC,221221.00,A,4919.09808,N,12419.83569,W,15.205,117.69,250
Methane (PPM)
+366.02
Temperature (*c)
@14.49
Pressure (hPa)
#1007.48
Altitude (m)
%48.29

Humidity (%)
&55.15
$GPRMC,221223.00,A,4919.09162,N,12419.82852,W,14.541,156.78,250
Methane (PPM)
+366.02
Temperature (*c)
@14.51
Pressure (hPa)
#1007.39
Altitude (m)
%48.98

Humidity (%)
&55.07
$GPRMC,221225.00,A,4919.08267,N,12419.82695,W,17.484,178.17,250
Methane (PPM)
+366.02
Temperature (*c)
@14.52
Pressure (hPa)
#1007.39
Altitude (m)
%48.92

Humidity (%)
&54.88
$GPRMC,221227.00,A,4919.07159,N,12419.82545,W,19.809,174.80,250$GPRMC,221229.00,A,4919.06066,N,12419.82439,W,19.957,179.56,250121,,,A*46
$GPVTG,179.56,T,,M,19.957,N,36.961,K,A*39
$GPGGA,221229.00,4919.06066,N,12419.82439,W,1,07,1.45,36.9,M,-17.7,M,,*59
$GPGSA,A,3,30,07,08,27,28,09,14,,,,,,2.16,1.45,1.61*0E
$GPGSV,4,1,14,05,20,267,27,07,57,094,32,08,39,067,26,09,14,157,32*78
$GPGSV,4,2,14,11,19,101,27,13,34,308,27,14,58,225,26,15,02,322,*70
$GPGSV,4,3,14,17,02,181,,21,02,095,16,27,13,034,36,28,51,224,33*72
$GPGSV,4,4,14,30,84,331,35,51,31,158,30*7D
$GPGLL,4919.06066,N,12419.82439,W,221229.00,A,A*7B

Methane (PPM)
+366.02
Temperature (*c)
@14.53
Pressure (hPa)
#1007.36
Altitude (m)
%49.27

Humidity (%)
&56.68
$GPRMC,221230.00,A,4919.05449,N,12419.82430,W,20.508,183.06,250
Methane (PPM)
+363.57
Temperature (*c)
@14.58
Pressure (hPa)
#1007.32
Altitude (m)
%49.39

Humidity (%)
&57.72
$GPRMC,221232.00,A,4919.04235,N,12419.82466,W,22.439,182.04,250
Methane (PPM)
+363.57
Temperature (*c)
@14.57
Pressure (hPa)
#1007.34
Altitude (m)
%49.42

Humidity (%)
&57.56
$GPRMC,221234.00,A,4919.02932,N,12419.82495,W,23.440,179.29,250
Methane (PPM)
+363.57
Temperature (*c)
@14.58
Pressure (hPa)
#1007.26
Altitude (m)
%50.14

Humidity (%)
&57.10
$GPRMC,221236.00,A,4919.01590,N,12419.82452,W,23.651,179.34,250
Methane (PPM)
+366.02
Temperature (*c)
@14.59
Pressure (hPa)
#1007.25
Altitude (m)
%50.00

Humidity (%)
&56.68
$GPRMC,221238.00,A,4919.00285,N,12419.82420,W,23.509,178.72,250
Methane (PPM)
+363.57
Temperature (*c)
@14.61
Pressure (hPa)
#1007.25
Altitude (m)
%50.20

Humidity (%)
&56.32
$GPRMC,221240.00,A,4918.99031,N,12419.82398,W,22.506,179.13,250
Methane (PPM)
+363.57
Temperature (*c)
@14.62
Pressure (hPa)
#1007.21
Altitude (m)
%50.26

Humidity (%)
&55.82
$GPRMC,221242.00,A,4918.97891,N,12419.82434,W,20.087,180.85,250
Methane (PPM)
+363.57
Temperature (*c)
@14.63
Pressure (hPa)
#1007.18
Altitude (m)
%50.66

Humidity (%)
&55.51
$GPRMC,221244.00,A,4918.96969,N,12419.82815,W,16.393,204.71,250C,221246.00,A,4918.96290,N,12419.83670,W,15.619,223.64,250121,,,A*46
$GPVTG,223.64,T,,M,15.619,N,28.926,K,A*31
$GPGGA,221246.00,4918.96290,N,12419.83670,W,1,07,1.45,40.8,M,-17.7,M,,*5D
$GPGSA,A,3,30,07,08,27,28,09,14,,,,,,2.16,1.45,1.61*0E
$GPGSV,4,1,15,05,20,267,33,07,56,094,31,08,39,066,25,09,14,157,24*7B
$GPGSV,4,2,15,11,19,101,27,13,35,308,26,14,58,225,23,15,02,322,*74
$GPGSV,4,3,15,17,02,181,,21,02,095,13,27,13,034,22,28,51,224,34*74
$GPGSV,4,4,15,30,84,331,32,46,28,147,30,51,31,158,27*44
$GPGLL,4918.96290,N,12419.83670,W,221246.00,A,A*7F

Methane (PPM)
+366.02
Temperature (*c)
@14.65
Pressure (hPa)
#1007.19
Altitude (m)
%50.60

Humidity (%)
&55.29
$GPRMC,221247.00,A,4918.96079,N,12419.84100,W,12.036,228.28,250
Methane (PPM)
+363.57
Temperature (*c)
@14.67
Pressure (hPa)
#1007.20
Altitude (m)
%50.26

Humidity (%)
&55.24
$GPRMC,221249.00,A,4918.95870,N,12419.84503,W,2.273,231.21,2501
Methane (PPM)
+363.57
Temperature (*c)
@14.68
Pressure (hPa)
#1007.18
Altitude (m)
%50.85

Humidity (%)
&55.18
$GPRMC,221251.00,A,4918.95784,N,12419.84761,W,5.258,238.73,2501
Methane (PPM)
+363.57
Temperature (*c)
@14.70
Pressure (hPa)
#1007.13
Altitude (m)
%51.53

Humidity (%)
&55.29
$GPRMC,221253.00,A,4918.95383,N,12419.84931,W,8.380,191.52,2501
Methane (PPM)
+361.13
Temperature (*c)
@14.71
Pressure (hPa)
#1007.06
Altitude (m)
%51.83

Humidity (%)
&55.15
$GPRMC,221255.00,A,4918.94737,N,12419.84474,W,15.172,153.65,250
Methane (PPM)
+361.13
Temperature (*c)
@14.72
Pressure (hPa)
#1007.02
Altitude (m)
%51.92

Humidity (%)
&54.92
$GPRMC,221257.00,A,4918.93865,N,12419.83461,W,20.575,143.15,250
Methane (PPM)
+363.57
Temperature (*c)
@14.73
Pressure (hPa)
#1006.99
Altitude (m)
%52.69

Humidity (%)
&54.79
$GPRMC,221259.00,A,4918.92907,N,12419.82467,W,20.925,148.84,250
Methane (PPM)
+363.57
Temperature (*c)
@14.74
Pressure (hPa)
#1006.97
Altitude (m)
%52.35

Humidity (%)
&54.67
$GPRMC,221301.00,A,4918.91813,N,12419.81688,W,21.612,159.32,2505,N,12419.81209,W,20.558,169.33,250121,,,A*48
$GPVTG,169.33,T,,M,20.558,N,38.073,K,A*36
$GPGGA,221303.00,4918.90675,N,12419.81209,W,1,07,1.45,39.8,M,-17.7,M,,*52
$GPGSA,A,3,30,07,08,27,28,09,14,,,,,,2.16,1.45,1.60*0F
$GPGSV,4,1,14,05,20,267,28,07,56,094,30,08,39,066,26,09,14,157,34*73
$GPGSV,4,2,14,11,19,101,24,13,35,308,22,14,58,225,27,15,03,322,*77
$GPGSV,4,3,14,17,02,181,,21,02,095,,27,13,034,23,28,51,224,30*72
$GPGSV,4,4,14,30,84,333,28,46,28,147,29*7B
$GPGLL,4918.90675,N,12419.81209,W,221303.00,A,A*7E

Methane (PPM)
+363.57
Temperature (*c)
@14.77
Pressure (hPa)
#1006.89
Altitude (m)
%52.83

Humidity (%)
&54.60
$GPRMC,221304.00,A,4918.90110,N,12419.81090,W,21.120,173.03,250
Methane (PPM)
+363.57
Temperature (*c)
@14.78
Pressure (hPa)
#1006.91
Altitude (m)
%53.04

Humidity (%)
&54.67
$GPRMC,221306.00,A,4918.88906,N,12419.81016,W,20.720,185.07,250
Methane (PPM)
+363.57
Temperature (*c)
@14.79
Pressure (hPa)
#1006.86
Altitude (m)
%53.12

Humidity (%)
&54.63
$GPRMC,221308.00,A,4918.87755,N,12419.81307,W,21.377,191.92,250
Methane (PPM)
+363.57
Temperature (*c)
@14.81
Pressure (hPa)
#1006.83
Altitude (m)
%53.22

Humidity (%)
&57.34
$GPRMC,221310.00,A,4918.86610,N,12419.81752,W,21.466,197.43,250
Methane (PPM)
+363.57
Temperature (*c)
@14.84
Pressure (hPa)
#1006.88
Altitude (m)
%53.59

Humidity (%)
&57.31
$GPRMC,221312.00,A,4918.85658,N,12419.82675,W,20.463,211.88,250
Methane (PPM)
+363.57
Temperature (*c)
@14.84
Pressure (hPa)
#1006.77
Altitude (m)
%53.70

Humidity (%)
&56.60
$GPRMC,221314.00,A,4918.84739,N,12419.83764,W,20.818,219.71,250
Methane (PPM)
+363.57
Temperature (*c)
@14.85
Pressure (hPa)
#1006.79
Altitude (m)
%54.22

Humidity (%)
&55.88
$GPRMC,221316.00,A,4918.83836,N,12419.84925,W,20.787,221.81,250
Methane (PPM)
+363.57
Temperature (*c)
@14.86
Pressure (hPa)
#1006.70
Altitude (m)
%54.57

Humidity (%)
&55.67
$GPRMC,221318.00,A,4918.83014,N,12419.86095,W,19.757,222.38,250221320.00,A,4918.82198,N,12419.87101,W,18.186,215.06,250121,,,A*41
$GPVTG,215.06,T,,M,18.186,N,33.680,K,A*35
$GPGGA,221320.00,4918.82198,N,12419.87101,W,1,07,1.45,43.7,M,-17.7,M,,*5B
$GPGSA,A,3,30,07,08,27,28,09,14,,,,,,2.15,1.45,1.60*0C
$GPGSV,4,1,14,05,20,267,27,07,56,095,25,08,39,066,23,09,14,157,23*7A
$GPGSV,4,2,14,11,20,100,27,13,35,308,30,14,58,225,27,15,03,322,*7C
$GPGSV,4,3,14,17,02,181,,21,02,095,15,27,13,034,19,28,51,224,29*77
$GPGSV,4,4,14,30,84,333,35,46,28,147,34*7B
$GPGLL,4918.82198,N,12419.87101,W,221320.00,A,A*75

Methane (PPM)
+363.57
Temperature (*c)
@14.88
Pressure (hPa)
#1006.73
Altitude (m)
%54.24

Humidity (%)
&55.48
$GPRMC,221321.00,A,4918.81823,N,12419.87464,W,16.286,206.23,250
Methane (PPM)
+363.57
Temperature (*c)
@14.90
Pressure (hPa)
#1006.77
Altitude (m)
%54.07

Humidity (%)
&55.37
$GPRMC,221323.00,A,4918.81297,N,12419.87977,W,7.821,206.50,2501
Methane (PPM)
+363.57
Temperature (*c)
@14.91
Pressure (hPa)
#1006.75
Altitude (m)
%54.43

Humidity (%)
&55.25
$GPRMC,221325.00,A,4918.81186,N,12419.88150,W,1.358,206.85,2501
Methane (PPM)
+363.57
Temperature (*c)
@14.92
Pressure (hPa)
#1006.69
Altitude (m)
%55.03

Humidity (%)
&55.20
$GPRMC,221327.00,A,4918.81046,N,12419.88286,W,4.613,209.20,2501
Methane (PPM)
+363.57
Temperature (*c)
@14.93
Pressure (hPa)
#1006.69
Altitude (m)
%54.89

Humidity (%)
&55.63
$GPRMC,221329.00,A,4918.80576,N,12419.88357,W,10.034,183.00,250
Methane (PPM)
+363.57
Temperature (*c)
@14.95
Pressure (hPa)
#1006.66
Altitude (m)
%55.11

Humidity (%)
&56.00
$GPRMC,221331.00,A,4918.79906,N,12419.87881,W,15.614,148.38,250
Methane (PPM)
+363.57
Temperature (*c)
@14.97
Pressure (hPa)
#1006.64
Altitude (m)
%55.30

Humidity (%)
&55.87
$GPRMC,221333.00,A,4918.79132,N,12419.86794,W,19.703,136.62,250
Methane (PPM)
+363.57
Temperature (*c)
@14.98
Pressure (hPa)
#1006.65
Altitude (m)
%55.11

Humidity (%)
&55.53
$GPRMC,221335.00,A,4918.78300,N,12419.85532,W,21.899,134.22,2507.00,A,4918.77521,N,12419.84228,W,20.602,130.22,250121,,,A*42
$GPVTG,130.22,T,,M,20.602,N,38.155,K,A*33
$GPGGA,221337.00,4918.77521,N,12419.84228,W,1,07,1.45,44.7,M,-17.7,M,,*5D
$GPGSA,A,3,30,07,08,27,28,09,14,,,,,,2.15,1.45,1.59*06
$GPGSV,4,1,14,05,20,267,26,07,56,095,22,08,39,066,21,09,14,157,23*7E
$GPGSV,4,2,14,11,20,100,26,13,35,308,28,14,58,225,22,15,03,322,22*71
$GPGSV,4,3,14,17,02,181,,21,02,094,,27,13,034,21,28,51,224,20*70
$GPGSV,4,4,14,30,84,335,28,46,28,147,27*73
$GPGLL,4918.77521,N,12419.84228,W,221337.00,A,A*74

Methane (PPM)
+363.57
Temperature (*c)
@15.00
Pressure (hPa)
#1006.61
Altitude (m)
%55.40

Humidity (%)
&55.40
$GPRMC,221338.00,A,4918.77140,N,12419.83474,W,22.059,127.09,250
Methane (PPM)
+363.57
Temperature (*c)
@15.02
Pressure (hPa)
#1006.54
Altitude (m)
%55.94

Humidity (%)
&55.40
$GPRMC,221340.00,A,4918.76519,N,12419.81867,W,21.445,119.52,250
Methane (PPM)
+363.57
Temperature (*c)
@15.02
Pressure (hPa)
#1006.47
Altitude (m)
%56.58

Humidity (%)
&55.13
$GPRMC,221342.00,A,4918.76018,N,12419.80123,W,21.011,112.58,250
Methane (PPM)
+363.57
Temperature (*c)
@15.04
Pressure (hPa)
#1006.43
Altitude (m)
%57.04

Humidity (%)
&54.87
$GPRMC,221344.00,A,4918.75623,N,12419.78452,W,20.977,107.52,250
Methane (PPM)
+363.57
Temperature (*c)
@15.05
Pressure (hPa)
#1006.37
Altitude (m)
%57.47

Humidity (%)
&54.70
$GPRMC,221346.00,A,4918.75338,N,12419.76744,W,20.621,102.40,250
Methane (PPM)
+363.57
Temperature (*c)
@15.07
Pressure (hPa)
#1006.38
Altitude (m)
%57.57

Humidity (%)
&54.53
$GPRMC,221348.00,A,4918.75087,N,12419.75079,W,20.419,103.70,250
Methane (PPM)
+363.57
Temperature (*c)
@15.08
Pressure (hPa)
#1006.40
Altitude (m)
%56.96

Humidity (%)
&54.36
$GPRMC,221350.00,A,4918.74886,N,12419.73445,W,19.129,98.86,2501
Methane (PPM)
+363.57
Temperature (*c)
@15.09
Pressure (hPa)
#1006.43
Altitude (m)
%57.04

Humidity (%)
&54.24
$GPRMC,221352.00,A,4918.74848,N,12419.71893,W,19.027,92.15,250121354.00,A,4918.74880,N,12419.70323,W,19.022,88.48,250121,,,A*73
$GPVTG,88.48,T,,M,19.022,N,35.229,K,A*06
$GPGGA,221354.00,4918.74880,N,12419.70323,W,1,07,1.45,47.3,M,-17.7,M,,*5B
$GPGSA,A,3,30,07,08,27,28,09,14,,,,,,2.15,1.45,1.59*06
$GPGSV,4,1,13,05,20,267,23,07,56,095,31,08,39,066,33,09,14,157,12*7F
$GPGSV,4,2,13,11,20,100,28,13,35,308,35,14,58,225,29,15,03,322,14*7A
$GPGSV,4,3,13,17,02,181,,21,02,094,13,27,13,034,22,28,51,224,24*72
$GPGSV,4,4,13,30,84,335,32*40
$GPGLL,4918.74880,N,12419.70323,W,221354.00,A,A*75

Methane (PPM)
+363.57
Temperature (*c)
@15.11
Pressure (hPa)
#1006.38
Altitude (m)
%57.27

Humidity (%)
&54.13
$GPRMC,221355.00,A,4918.74919,N,12419.69566,W,18.218,87.16,2501
Methane (PPM)
+363.57
Temperature (*c)
@15.12
Pressure (hPa)
#1006.38
Altitude (m)
%57.47

Humidity (%)
&54.02
$GPRMC,221357.00,A,4918.74933,N,12419.68195,W,14.641,90.73,2501
Methane (PPM)
+363.57
Temperature (*c)
@15.14
Pressure (hPa)
#1006.37
Altitude (m)
%57.08

Humidity (%)
&53.93
$GPRMC,221359.00,A,4918.74911,N,12419.67410,W,5.960,92.74,25012
Methane (PPM)
+363.57
Temperature (*c)
@15.15
Pressure (hPa)
#1006.39
Altitude (m)
%57.28

Humidity (%)
&53.91
$GPRMC,221401.00,A,4918.74872,N,12419.67183,W,2.191,,250121,,,A
Methane (PPM)
+363.57
Temperature (*c)
@15.17
Pressure (hPa)
#1006.39
Altitude (m)
%57.44

Humidity (%)
&53.76
$GPRMC,221403.00,A,4918.74857,N,12419.66939,W,3.215,96.12,25012
Methane (PPM)
+363.57
Temperature (*c)
@15.19
Pressure (hPa)
#1006.35
Altitude (m)
%57.32

Humidity (%)
&53.58
$GPRMC,221405.00,A,4918.74857,N,12419.66571,W,4.222,,250121,,,A
Methane (PPM)
+363.57
Temperature (*c)
@15.20
Pressure (hPa)
#1006.39
Altitude (m)
%57.36

Humidity (%)
&53.49
$GPRMC,221407.00,A,4918.74850,N,12419.66420,W,0.947,,250121,,,A
Methane (PPM)
+363.57
Temperature (*c)
@15.21
Pressure (hPa)
#1006.34
Altitude (m)
%57.76

Humidity (%)
&53.37
$GPRMC,221409.00,A,4918.74835,N,12419.66256,W,3.012,,250121,,,APRMC,221411.00,A,4918.74892,N,12419.65801,W,6.214,83.46,250121,,,A*45
$GPVTG,83.46,T,,M,6.214,N,11.509,K,A*39
$GPGGA,221411.00,4918.74892,N,12419.65801,W,1,07,1.45,47.9,M,-17.7,M,,*5B
$GPGSA,A,3,30,07,08,27,28,09,14,,,,,,2.14,1.45,1.58*06
$GPGSV,4,1,13,05,20,267,26,07,56,095,31,08,39,066,37,09,13,157,22*7A
$GPGSV,4,2,13,11,20,100,31,13,35,307,35,14,59,226,26,15,03,322,19*7D
$GPGSV,4,3,13,17,02,181,,21,02,094,,27,13,034,20,28,51,224,22*74
$GPGSV,4,4,13,30,84,335,30*42
$GPGLL,4918.74892,N,12419.65801,W,221411.00,A,A*7F

Methane (PPM)
+363.57
Temperature (*c)
@15.23
Pressure (hPa)
#1006.33
Altitude (m)
%58.10

Humidity (%)
&53.29
$GPRMC,221412.00,A,4918.74944,N,12419.65565,W,5.145,81.77,25012
Methane (PPM)
+363.57
Temperature (*c)
@15.24
Pressure (hPa)
#1006.32
Altitude (m)
%58.13

Humidity (%)
&53.23
$GPRMC,221414.00,A,4918.74974,N,12419.65373,W,1.105,,250121,,,A
Methane (PPM)
+363.57
Temperature (*c)
@15.27
Pressure (hPa)
#1006.26
Altitude (m)
%58.68

Humidity (%)
&53.21
$GPRMC,221416.00,A,4918.74926,N,12419.65084,W,5.639,101.65,2501
Methane (PPM)
+363.57
Temperature (*c)
@15.28
Pressure (hPa)
#1006.17
Altitude (m)
%59.15

Humidity (%)
&53.28
$GPRMC,221418.00,A,4918.74589,N,12419.64637,W,6.893,145.20,2501
Methane (PPM)
+363.57
Temperature (*c)
@15.30
Pressure (hPa)
#1006.11
Altitude (m)
%59.63

Humidity (%)
&53.50
$GPRMC,221420.00,A,4918.74051,N,12419.64586,W,10.788,176.27,250
Methane (PPM)
+363.57
Temperature (*c)
@15.32
Pressure (hPa)
#1006.09
Altitude (m)
%59.54

Humidity (%)
&53.46
$GPRMC,221422.00,A,4918.73460,N,12419.64557,W,9.891,178.84,2501
Methane (PPM)
+363.57
Temperature (*c)
@15.33
Pressure (hPa)
#1006.10
Altitude (m)
%59.62

Humidity (%)
&53.37
$GPRMC,221424.00,A,4918.73148,N,12419.64500,W,3.715,175.16,2501
Methane (PPM)
+363.57
Temperature (*c)
@15.35
Pressure (hPa)
#1006.09
Altitude (m)
%59.96

Humidity (%)
&53.29
$GPRMC,221426.00,A,4918.73066,N,12419.64490,W,1.552,,250121,,,A$GPRMC,221428.00,A,4918.72912,N,12419.64456,W,2.036,174.44,250121,,,A*72
$GPVTG,174.44,T,,M,2.036,N,3.771,K,A*3A
$GPGGA,221428.00,4918.72912,N,12419.64456,W,1,07,1.45,52.0,M,-17.7,M,,*5C
$GPGSA,A,3,30,07,08,27,28,09,14,,,,,,2.14,1.45,1.58*06
$GPGSV,4,1,14,05,20,267,29,07,56,095,32,08,39,066,26,09,13,157,28*7B
$GPGSV,4,2,14,11,20,100,33,13,35,307,27,14,59,226,21,15,03,322,19*7C
$GPGSV,4,3,14,17,02,181,,21,02,094,14,27,13,034,35,28,52,224,33*71
$GPGSV,4,4,14,30,85,338,29,46,28,147,33*7B
$GPGLL,4918.72912,N,12419.64456,W,221428.00,A,A*75

Methane (PPM)
+363.57
Temperature (*c)
@15.37
Pressure (hPa)
#1006.09
Altitude (m)
%59.86

Humidity (%)
&53.33
$GPRMC,221429.00,A,4918.72854,N,12419.64451,W,1.939,175.88,2501
Methane (PPM)
+363.57
Temperature (*c)
@15.38
Pressure (hPa)
#1006.03
Altitude (m)
%60.03

Humidity (%)
&54.60
$GPRMC,221431.00,A,4918.72577,N,12419.64354,W,7.101,167.40,2501
Methane (PPM)
+363.57
Temperature (*c)
@15.42
Pressure (hPa)
#1006.06
Altitude (m)
%59.74

Humidity (%)
&55.15
$GPRMC,221433.00,A,4918.72219,N,12419.63727,W,11.777,134.18,250
Methane (PPM)
+363.57
Temperature (*c)
@15.43
Pressure (hPa)
#1006.07
Altitude (m)
%59.91

Humidity (%)
&54.94
$GPRMC,221435.00,A,4918.72145,N,12419.62505,W,16.038,91.66,2501
Methane (PPM)
+363.57
Temperature (*c)
@15.44
Pressure (hPa)
#1006.09
Altitude (m)
%59.49

Humidity (%)
&54.66
$GPRMC,221437.00,A,4918.72158,N,12419.60900,W,20.955,89.67,2501
Methane (PPM)
+363.57
Temperature (*c)
@15.46
Pressure (hPa)
#1006.16
Altitude (m)
%59.06

Humidity (%)
&54.91
$GPRMC,221439.00,A,4918.72177,N,12419.58978,W,23.301,89.26,2501
Methane (PPM)
+363.57
Temperature (*c)
@15.47
Pressure (hPa)
#1006.21
Altitude (m)
%58.46

Humidity (%)
&54.92
$GPRMC,221441.00,A,4918.72192,N,12419.56996,W,23.932,90.42,2501
Methane (PPM)
+363.57
Temperature (*c)
@15.49
Pressure (hPa)
#1006.24
Altitude (m)
%58.67

Humidity (%)
&54.90
$GPRMC,221443.00,A,4918.72167,N,12419.54910,W,25.136,90.96,2501C,221445.00,A,4918.72146,N,12419.52786,W,24.981,90.89,250121,,,A*70
$GPVTG,90.89,T,,M,24.981,N,46.264,K,A*01
$GPGGA,221445.00,4918.72146,N,12419.52786,W,1,07,1.45,48.8,M,-17.7,M,,*56
$GPGSA,A,3,30,07,08,27,28,09,14,,,,,,2.14,1.45,1.57*09
$GPGSV,4,1,13,05,19,266,32,07,56,095,36,08,39,065,33,09,13,157,19*7C
$GPGSV,4,2,13,11,20,100,33,13,35,307,30,14,59,226,28,15,03,322,13*7E
$GPGSV,4,3,13,17,03,181,,21,03,094,,27,13,034,28,28,52,224,28*75
$GPGSV,4,4,13,30,85,338,25*4A
$GPGLL,4918.72146,N,12419.52786,W,221445.00,A,A*7C

Methane (PPM)
+363.57
Temperature (*c)
@15.50
Pressure (hPa)
#1006.22
Altitude (m)
%58.33

Humidity (%)
&54.84
$GPRMC,221446.00,A,4918.72140,N,12419.51750,W,24.348,90.25,2501
Methane (PPM)
+363.57
Temperature (*c)
@15.52
Pressure (hPa)
#1006.26
Altitude (m)
%58.10

Humidity (%)
&54.84
$GPRMC,221448.00,A,4918.72134,N,12419.49919,W,19.824,91.04,2501
Methane (PPM)
+363.57
Temperature (*c)
@15.54
Pressure (hPa)
#1006.30
Altitude (m)
%57.65

Humidity (%)
&54.75
$GPRMC,221450.00,A,4918.72158,N,12419.48551,W,14.220,90.96,2501
Methane (PPM)
+363.57
Temperature (*c)
@15.55
Pressure (hPa)
#1006.37
Altitude (m)
%57.65

Humidity (%)
&54.42
$GPRMC,221452.00,A,4918.72188,N,12419.47721,W,7.578,90.71,25012
Methane (PPM)
+363.57
Temperature (*c)
@15.57
Pressure (hPa)
#1006.30
Altitude (m)
%57.70

Humidity (%)
&54.00
$GPRMC,221454.00,A,4918.72176,N,12419.47315,W,3.432,90.60,25012
Methane (PPM)
+363.57
Temperature (*c)
@15.58
Pressure (hPa)
#1006.32
Altitude (m)
%57.87

Humidity (%)
&53.88
$GPRMC,221456.00,A,4918.72195,N,12419.47227,W,0.631,,250121,,,A
Methane (PPM)
+363.57
Temperature (*c)
@15.59
Pressure (hPa)
#1006.35
Altitude (m)
%57.81

Humidity (%)
&53.90
$GPRMC,221458.00,A,4918.72222,N,12419.47287,W,0.035,,250121,,,A
Methane (PPM)
+363.57
Temperature (*c)
@15.61
Pressure (hPa)
#1006.34
Altitude (m)
%57.57

Humidity (%)
&53.98
$GPRMC,221500.00,A,4918.72238,N,12419.47330,W,0.042,,250121,,,A$GPRMC,221502.00,A,4918.72246,N,12419.47361,W,0.014,,250121,,,A*6D
$GPVTG,,T,,M,0.014,N,0.026,K,A*22
$GPGGA,221502.00,4918.72246,N,12419.47361,W,1,08,0.90,47.3,M,-17.7,M,,*5C
$GPGSA,A,3,30,07,08,27,28,05,09,14,,,,,1.49,0.90,1.19*04
$GPGSV,4,1,14,05,19,266,28,07,56,095,37,08,39,065,34,09,13,157,30*7D
$GPGSV,4,2,14,11,20,100,34,13,35,307,30,14,59,226,23,15,03,322,23*76
$GPGSV,4,3,14,17,03,181,,21,03,094,16,27,12,034,33,28,52,225,31*77
$GPGSV,4,4,14,30,85,340,27,51,31,158,33*7A
$GPGLL,4918.72246,N,12419.47361,W,221502.00,A,A*74

Methane (PPM)
+363.57
Temperature (*c)
@15.63
Pressure (hPa)
#1006.35
Altitude (m)
%57.56

Humidity (%)
&54.18
$GPRMC,221503.00,A,4918.72254,N,12419.47383,W,0.048,,250121,,,A
Methane (PPM)
+363.57
Temperature (*c)
@15.65
Pressure (hPa)
#1006.34
Altitude (m)
%57.65

Humidity (%)
&54.18
$GPRMC,221505.00,A,4918.72253,N,12419.47405,W,0.012,,250121,,,A
Methane (PPM)
+363.57
Temperature (*c)
@15.66
Pressure (hPa)
#1006.35
Altitude (m)
%57.50

Humidity (%)
&54.23
$GPRMC,221507.00,A,4918.72251,N,12419.47397,W,0.687,,250121,,,A
Methane (PPM)
+366.02
Temperature (*c)
@15.67
Pressure (hPa)
#1006.35
Altitude (m)
%57.81

Humidity (%)
&54.41
$GPRMC,221509.00,A,4918.72256,N,12419.47175,W,4.605,88.52,25012
Methane (PPM)
+363.57
Temperature (*c)
@15.70
Pressure (hPa)
#1006.30
Altitude (m)
%57.89

Humidity (%)
&54.58
$GPRMC,221511.00,A,4918.72265,N,12419.46530,W,9.280,91.13,25012
Methane (PPM)
+366.02
Temperature (*c)
@15.71
Pressure (hPa)
#1006.28
Altitude (m)
%58.30

Humidity (%)
&54.67
$GPRMC,221513.00,A,4918.72252,N,12419.45557,W,12.738,91.75,2501
Methane (PPM)
+366.02
Temperature (*c)
@15.73
Pressure (hPa)
#1006.29
Altitude (m)
%58.06

Humidity (%)
&54.83
$GPRMC,221515.00,A,4918.72250,N,12419.44412,W,13.857,89.51,2501
Methane (PPM)
+363.57
Temperature (*c)
@15.74
Pressure (hPa)
#1006.30
Altitude (m)
%58.04

Humidity (%)
&55.47
$GPRMC,221517.00,A,4918.72244,N,12419.43323,W,12.215,93.80,2501$GPRMC,221519.00,A,4918.72168,N,12419.42351,W,11.354,96.11,250121,,,A*78
$GPVTG,96.11,T,,M,11.354,N,21.028,K,A*09
$GPGGA,221519.00,4918.72168,N,12419.42351,W,1,08,0.90,47.4,M,-17.7,M,,*58
$GPGSA,A,3,30,07,08,27,28,05,09,14,,,,,1.49,0.90,1.19*04
$GPGSV,4,1,14,05,19,266,21,07,55,095,24,08,38,065,34,09,13,157,27*72
$GPGSV,4,2,14,11,20,100,31,13,35,307,31,14,59,226,31,15,03,322,19*78
$GPGSV,4,3,14,17,03,181,,21,03,094,,27,12,034,18,28,52,225,28*71
$GPGSV,4,4,14,30,85,340,24,51,31,158,27*7C
$GPGLL,4918.72168,N,12419.42351,W,221519.00,A,A*77

Methane (PPM)
+366.02
Temperature (*c)
@15.76
Pressure (hPa)
#1006.28
Altitude (m)
%58.25

Humidity (%)
&55.16
$GPRMC,221520.00,A,4918.72109,N,12419.41789,W,13.627,96.59,2501
Methane (PPM)
+363.57
Temperature (*c)
@15.78
Pressure (hPa)
#1006.22
Altitude (m)
%58.80

Humidity (%)
&54.56
$GPRMC,221522.00,A,4918.72138,N,12419.40538,W,15.902,84.91,2501
Methane (PPM)
+363.57
Temperature (*c)
@15.79
Pressure (hPa)
#1006.18
Altitude (m)
%59.13

Humidity (%)
&54.37
$GPRMC,221524.00,A,4918.72239,N,12419.39063,W,18.416,84.55,2501
Methane (PPM)
+363.57
Temperature (*c)
@15.81
Pressure (hPa)
#1006.22
Altitude (m)
%58.53

Humidity (%)
&54.60
$GPRMC,221526.00,A,4918.72292,N,12419.37475,W,18.476,89.13,2501
Methane (PPM)
+363.57
Temperature (*c)
@15.82
Pressure (hPa)
#1006.27
Altitude (m)
%58.31

Humidity (%)
&55.49
$GPRMC,221528.00,A,4918.72296,N,12419.36213,W,12.138,89.89,2501
Methane (PPM)
+363.57
Temperature (*c)
@15.84
Pressure (hPa)
#1006.27
Altitude (m)
%58.16

Humidity (%)
&55.12
$GPRMC,221530.00,A,4918.72288,N,12419.35587,W,4.771,92.05,25012
Methane (PPM)
+363.57
Temperature (*c)
@15.85
Pressure (hPa)
#1006.27
Altitude (m)
%58.28

Humidity (%)
&54.59
$GPRMC,221532.00,A,4918.72301,N,12419.35480,W,0.042,,250121,,,A
Methane (PPM)
+363.57
Temperature (*c)
@15.87
Pressure (hPa)
#1006.29
Altitude (m)
%58.38

Humidity (%)
&53.85
$GPRMC,221534.00,A,4918.72311,N,12419.35490,W,0.041,,250121,,,A$GPRMC,221536.00,A,4918.72306,N,12419.35479,W,0.047,,250121,,,A*62
$GPVTG,,T,,M,0.047,N,0.088,K,A*20
$GPGGA,221536.00,4918.72306,N,12419.35479,W,1,08,0.90,48.3,M,-17.7,M,,*5A
$GPGSA,A,3,30,07,08,27,28,05,09,14,,,,,1.49,0.90,1.18*05
$GPGSV,4,1,14,05,19,266,33,07,55,095,35,08,38,065,33,09,13,157,15*77
$GPGSV,4,2,14,11,20,100,34,13,36,307,33,14,59,226,30,15,03,322,*75
$GPGSV,4,3,14,17,03,181,,21,03,094,,27,12,034,31,28,52,225,31*72
$GPGSV,4,4,14,30,85,343,21,51,31,158,*7F
$GPGLL,4918.72306,N,12419.35479,W,221536.00,A,A*7D

Methane (PPM)
+363.57
Temperature (*c)
@15.88
Pressure (hPa)
#1006.26
Altitude (m)
%58.31

Humidity (%)
&53.40
$GPRMC,221537.00,A,4918.72304,N,12419.35477,W,0.071,,250121,,,A
Methane (PPM)
+363.57
Temperature (*c)
@15.90
Pressure (hPa)
#1006.27
Altitude (m)
%58.39

Humidity (%)
&53.35
$GPRMC,221539.00,A,4918.72309,N,12419.35474,W,0.026,,250121,,,A
Methane (PPM)
+363.57
Temperature (*c)
@15.92
Pressure (hPa)
#1006.30
Altitude (m)
%58.18

Humidity (%)
&53.38
$GPRMC,221541.00,A,4918.72306,N,12419.35468,W,0.027,,250121,,,A
Methane (PPM)
+363.57
Temperature (*c)
@15.94
Pressure (hPa)
#1006.27
Altitude (m)
%58.19

Humidity (%)
&53.48
$GPRMC,221543.00,A,4918.72308,N,12419.35465,W,0.099,,250121,,,A
Methane (PPM)
+363.57
Temperature (*c)
@15.95
Pressure (hPa)
#1006.29
Altitude (m)
%58.41

Humidity (%)
&53.62
$GPRMC,221545.00,A,4918.72299,N,12419.35460,W,0.214,,250121,,,A
Methane (PPM)
+363.57
Temperature (*c)
@15.97
Pressure (hPa)
#1006.28
Altitude (m)
%58.20

Humidity (%)
&53.72
$GPRMC,221547.00,A,4918.72296,N,12419.35458,W,0.140,,250121,,,A
Methane (PPM)
+363.57
Temperature (*c)
@15.98
Pressure (hPa)
#1006.29
Altitude (m)
%58.40

Humidity (%)
&53.77
$GPRMC,221549.00,A,4918.72294,N,12419.35449,W,0.363,,250121,,,A
Methane (PPM)
+363.57
Temperature (*c)
@16.00
Pressure (hPa)
#1006.27
Altitude (m)
%58.61

Humidity (%)
&53.88
$GPRMC,221551.00,A,4918.72310,N,12419.35182,W,6.129,89.82,25012$GPRMC,221553.00,A,4918.72411,N,12419.34402,W,11.437,80.30,250121,,,A*7B
$GPVTG,80.30,T,,M,11.437,N,21.182,K,A*0E
$GPGGA,221553.00,4918.72411,N,12419.34402,W,1,08,1.80,49.8,M,-17.7,M,,*5F
$GPGSA,A,3,30,07,08,27,28,05,09,14,,,,,2.86,1.80,2.22*0F
$GPGSV,4,1,14,05,19,266,25,07,55,095,31,08,38,065,35,09,13,157,16*71
$GPGSV,4,2,14,11,20,100,23,13,36,307,29,14,59,226,24,15,03,322,*7D
$GPGSV,4,3,14,17,03,181,,21,03,094,,27,12,034,26,28,52,225,26*72
$GPGSV,4,4,14,30,85,343,34,51,31,158,32*7A
$GPGLL,4918.72411,N,12419.34402,W,221553.00,A,A*72

Methane (PPM)
+363.57
Temperature (*c)
@16.02
Pressure (hPa)
#1006.23
Altitude (m)
%58.76

Humidity (%)
&54.16
$GPRMC,221554.00,A,4918.72594,N,12419.33936,W,13.185,65.41,2501
Methane (PPM)
+363.57
Temperature (*c)
@16.04
Pressure (hPa)
#1006.27
Altitude (m)
%58.20

Humidity (%)
&54.82
$GPRMC,221556.00,A,4918.73303,N,12419.33197,W,16.914,24.45,2501
Methane (PPM)
+363.57
Temperature (*c)
@16.05
Pressure (hPa)
#1006.25
Altitude (m)
%58.33

Humidity (%)
&55.91
$GPRMC,221558.00,A,4918.74383,N,12419.32709,W,21.812,16.97,2501
Methane (PPM)
+363.57
Temperature (*c)
@16.07
Pressure (hPa)
#1006.36
Altitude (m)
%57.85

Humidity (%)
&55.97
$GPRMC,221600.00,A,4918.75686,N,12419.32022,W,26.110,20.84,2501
Methane (PPM)
+363.57
Temperature (*c)
@16.10
Pressure (hPa)
#1006.43
Altitude (m)
%56.66

Humidity (%)
&55.84
$GPRMC,221602.00,A,4918.77039,N,12419.31160,W,26.744,23.40,2501
Methane (PPM)
+363.57
Temperature (*c)
@16.11
Pressure (hPa)
#1006.52
Altitude (m)
%56.32

Humidity (%)
&55.26
$GPRMC,221604.00,A,4918.78401,N,12419.30154,W,27.724,26.88,2501
Methane (PPM)
+363.57
Temperature (*c)
@16.12
Pressure (hPa)
#1006.62
Altitude (m)
%55.32

Humidity (%)
&54.93
$GPRMC,221606.00,A,4918.79725,N,12419.28951,W,27.875,32.31,2501
Methane (PPM)
+366.02
Temperature (*c)
@16.14
Pressure (hPa)
#1006.69
Altitude (m)
%54.62

Humidity (%)
&54.94
$GPRMC,221608.00,A,4918.81018,N,12419.27628,W,28.144,34.72,2501MC,221610.00,A,4918.82308,N,12419.26278,W,28.319,33.83,250121,,,A*76
$GPVTG,33.83,T,,M,28.319,N,52.447,K,A*07
$GPGGA,221610.00,4918.82308,N,12419.26278,W,1,08,0.90,42.9,M,-17.7,M,,*59
$GPGSA,A,3,30,07,08,27,28,05,09,14,,,,,1.48,0.90,1.18*04
$GPGSV,4,1,14,05,19,266,22,07,55,096,20,08,38,065,22,09,13,157,16*73
$GPGSV,4,2,14,11,20,099,17,13,36,307,32,14,60,226,25,15,04,322,17*7B
$GPGSV,4,3,14,17,03,180,,21,03,094,11,27,12,034,15,28,52,225,30*74
$GPGSV,4,4,14,30,85,343,35,51,31,158,*7A
$GPGLL,4918.82308,N,12419.26278,W,221610.00,A,A*7E

Methane (PPM)
+366.02
Temperature (*c)
@16.16
Pressure (hPa)
#1006.82
Altitude (m)
%53.65

Humidity (%)
&56.06
$GPRMC,221611.00,A,4918.82904,N,12419.25535,W,27.633,38.11,2501
Methane (PPM)
+366.02
Temperature (*c)
@16.18
Pressure (hPa)
#1006.89
Altitude (m)
%52.94

Humidity (%)
&55.69
$GPRMC,221613.00,A,4918.84003,N,12419.23940,W,27.514,41.54,2501
Methane (PPM)
+366.02
Temperature (*c)
@16.20
Pressure (hPa)
#1006.95
Altitude (m)
%52.15

Humidity (%)
&54.87
$GPRMC,221615.00,A,4918.85063,N,12419.22284,W,27.361,46.06,2501
Methane (PPM)
+366.02
Temperature (*c)
@16.22
Pressure (hPa)
#1007.05
Altitude (m)
%51.52

Humidity (%)
&54.28
$GPRMC,221617.00,A,4918.86129,N,12419.20594,W,27.804,45.32,2501
Methane (PPM)
+366.02
Temperature (*c)
@16.24
Pressure (hPa)
#1007.11
Altitude (m)
%51.03

Humidity (%)
&54.11
$GPRMC,221619.00,A,4918.87234,N,12419.18943,W,27.964,43.12,2501
Methane (PPM)
+366.02
Temperature (*c)
@16.25
Pressure (hPa)
#1007.21
Altitude (m)
%50.12

Humidity (%)
&54.18
$GPRMC,221621.00,A,4918.88391,N,12419.17366,W,27.893,42.92,2501
Methane (PPM)
+366.02
Temperature (*c)
@16.27
Pressure (hPa)
#1007.28
Altitude (m)
%49.50

Humidity (%)
&55.57
$GPRMC,221623.00,A,4918.89515,N,12419.15682,W,28.638,44.62,2501
Methane (PPM)
+366.02
Temperature (*c)
@16.29
Pressure (hPa)
#1007.40
Altitude (m)
%48.30

Humidity (%)
&55.23
$GPRMC,221625.00,A,4918.90646,N,12419.13935,W,29.399,44.09,250100,A,4918.91810,N,12419.12123,W,30.259,44.78,250121,,,A*70
$GPVTG,44.78,T,,M,30.259,N,56.040,K,A*08
$GPGGA,221627.00,4918.91810,N,12419.12123,W,1,08,0.90,33.6,M,-17.7,M,,*5E
$GPGSA,A,3,30,07,08,27,28,05,09,14,,,,,1.48,0.90,1.17*0B
$GPGSV,4,1,14,05,19,266,24,07,55,096,25,08,38,065,28,09,13,157,20*7F
$GPGSV,4,2,14,11,20,099,22,13,36,307,29,14,60,226,30,15,04,322,08*7D
$GPGSV,4,3,14,17,03,180,,21,03,094,,27,12,034,33,28,53,225,30*71
$GPGSV,4,4,14,30,85,346,37,51,31,158,*7D
$GPGLL,4918.91810,N,12419.12123,W,221627.00,A,A*70

Methane (PPM)
+366.02
Temperature (*c)
@16.31
Pressure (hPa)
#1007.55
Altitude (m)
%47.20

Humidity (%)
&54.82
$GPRMC,221628.00,A,4918.92406,N,12419.11205,W,30.524,44.64,2501
Methane (PPM)
+366.02
Temperature (*c)
@16.33
Pressure (hPa)
#1007.66
Altitude (m)
%46.25

Humidity (%)
&54.96
$GPRMC,221630.00,A,4918.93581,N,12419.09368,W,30.296,45.50,2501
Methane (PPM)
+366.02
Temperature (*c)
@16.34
Pressure (hPa)
#1007.80
Altitude (m)
%45.23

Humidity (%)
&55.91
$GPRMC,221632.00,A,4918.94764,N,12419.07534,W,30.189,45.66,2501
Methane (PPM)
+368.46
Temperature (*c)
@16.37
Pressure (hPa)
#1007.90
Altitude (m)
%44.69

Humidity (%)
&57.22
$GPRMC,221634.00,A,4918.95925,N,12419.05700,W,29.921,45.73,2501
Methane (PPM)
+366.02
Temperature (*c)
@16.38
Pressure (hPa)
#1008.03
Altitude (m)
%43.35

Humidity (%)
&57.51
$GPRMC,221636.00,A,4918.97068,N,12419.03894,W,29.692,46.14,2501
Methane (PPM)
+366.02
Temperature (*c)
@16.41
Pressure (hPa)
#1008.09
Altitude (m)
%42.95

Humidity (%)
&57.69
$GPRMC,221638.00,A,4918.98249,N,12419.02171,W,29.430,43.29,2501
Methane (PPM)
+368.46
Temperature (*c)
@16.42
Pressure (hPa)
#1008.22
Altitude (m)
%41.78

Humidity (%)
&58.25
$GPRMC,221640.00,A,4918.99391,N,12419.00452,W,28.858,44.44,2501
Methane (PPM)
+366.02
Temperature (*c)
@16.44
Pressure (hPa)
#1008.32
Altitude (m)
%41.02

Humidity (%)
&58.11
$GPRMC,221642.00,A,4919.00596,N,12418.98817,W,28.996,40.39,2501221644.00,A,4919.01814,N,12418.97236,W,28.722,40.76,250121,,,A*78
$GPVTG,40.76,T,,M,28.722,N,53.192,K,A*09
$GPGGA,221644.00,4919.01814,N,12418.97236,W,1,08,0.90,24.8,M,-17.7,M,,*54
$GPGSA,A,3,30,07,08,27,28,05,09,14,,,,,1.48,0.90,1.17*0B
$GPGSV,4,1,14,05,19,266,20,07,55,096,22,08,38,064,32,09,12,157,14*70
$GPGSV,4,2,14,11,20,099,17,13,36,307,37,14,60,226,28,15,04,322,12*76
$GPGSV,4,3,14,17,03,180,,21,03,094,09,27,12,034,27,28,53,225,28*74
$GPGSV,4,4,14,30,85,346,35,51,31,158,*7F
$GPGLL,4919.01814,N,12418.97236,W,221644.00,A,A*72

Methane (PPM)
+368.46
Temperature (*c)
@16.47
Pressure (hPa)
#1008.48
Altitude (m)
%39.63

Humidity (%)
&59.18
$GPRMC,221645.00,A,4919.02422,N,12418.96456,W,28.630,40.11,2501
Methane (PPM)
+366.02
Temperature (*c)
@16.48
Pressure (hPa)
#1008.59
Altitude (m)
%38.43

Humidity (%)
&59.03
$GPRMC,221647.00,A,4919.03670,N,12418.94948,W,28.510,38.14,2501
Methane (PPM)
+366.02
Temperature (*c)
@16.50
Pressure (hPa)
#1008.67
Altitude (m)
%37.88

Humidity (%)
&59.15
$GPRMC,221649.00,A,4919.04913,N,12418.93447,W,28.355,38.24,2501
Methane (PPM)
+368.46
Temperature (*c)
@16.52
Pressure (hPa)
#1008.86
Altitude (m)
%36.54

Humidity (%)
&61.18
$GPRMC,221651.00,A,4919.06154,N,12418.91979,W,27.628,37.92,2501
Methane (PPM)
+366.02
Temperature (*c)
@16.54
Pressure (hPa)
#1008.97
Altitude (m)
%35.20

Humidity (%)
&62.28
$GPRMC,221653.00,A,4919.07240,N,12418.90661,W,23.815,38.54,2501
Methane (PPM)
+366.02
Temperature (*c)
@16.56
Pressure (hPa)
#1009.15
Altitude (m)
%33.88

Humidity (%)
&62.86
$GPRMC,221655.00,A,4919.08144,N,12418.89552,W,17.969,38.31,2501
Methane (PPM)
+366.02
Temperature (*c)
@16.58
Pressure (hPa)
#1009.21
Altitude (m)
%33.24

Humidity (%)
&62.09
$GPRMC,221657.00,A,4919.08713,N,12418.88849,W,10.070,38.06,2501
Methane (PPM)
+366.02
Temperature (*c)
@16.60
Pressure (hPa)
#1009.28
Altitude (m)
%33.27

Humidity (%)
&60.29
$GPRMC,221659.00,A,4919.08978,N,12418.88528,W,4.021,39.21,250121701.00,A,4919.09063,N,12418.88407,W,1.686,42.45,250121,,,A*44
$GPVTG,42.45,T,,M,1.686,N,3.122,K,A*01
$GPGGA,221701.00,4919.09063,N,12418.88407,W,1,09,0.85,19.1,M,-17.7,M,,*5C
$GPGSA,A,3,30,07,08,27,28,05,09,14,13,,,,1.44,0.85,1.16*00
$GPGSV,4,1,14,05,19,266,18,07,55,096,27,08,38,064,33,09,12,157,19*72
$GPGSV,4,2,14,11,20,099,18,13,36,307,39,14,60,226,31,15,04,322,17*7A
$GPGSV,4,3,14,17,04,180,,21,03,093,13,27,12,033,27,28,53,225,30*71
$GPGSV,4,4,14,30,85,350,37,51,31,158,*7A
$GPGLL,4919.09063,N,12418.88407,W,221701.00,A,A*78

Methane (PPM)
+366.02
Temperature (*c)
@16.63
Pressure (hPa)
#1009.27
Altitude (m)
%33.25

Humidity (%)
&58.73
$GPRMC,221702.00,A,4919.09122,N,12418.88335,W,2.831,39.08,25012
Methane (PPM)
+368.46
Temperature (*c)
@16.64
Pressure (hPa)
#1009.28
Altitude (m)
%33.23

Humidity (%)
&57.52
$GPRMC,221704.00,A,4919.09319,N,12418.88076,W,6.028,39.20,25012
Methane (PPM)
+366.02
Temperature (*c)
@16.66
Pressure (hPa)
#1009.28
Altitude (m)
%32.95

Humidity (%)
&56.76
$GPRMC,221706.00,A,4919.09692,N,12418.87969,W,6.815,3.34,250121
Methane (PPM)
+366.02
Temperature (*c)
@16.70
Pressure (hPa)
#1009.23
Altitude (m)
%33.36

Humidity (%)
&55.60
