+200.00
@23.95
#1009.47
%-42.84
:2
&35.69
‚‚RŠ*5
$GPGGA,030839.00,4916.45109,N,12413.53677,W,1,09,0.96,106.8,M,-17.7,M,,*6C
+200.00
@24.00
#1009.51
%-42.83
:6
&35.48
$GPGGA,030843.00,4916.45204,N,12413.53639,W,1,09,0.96,109.1,M,-17.7,M,,*63
+200.00
@24.01
#1009.50
%-43.02
:10
&35.41
$GPGGA,030847.00,4916.45159,N,12413.53625,W,1,09,0.96,109.3,M,-17.7,M,,*63
+200.00
@24.00
#1009.51
%-42.87
:14
&35.97
$GPGGA,030851.00,4916.45231,N,12413.53634,W,1,09,0.96,110.6,M,-17.7,M,,*64
+295.21
@23.94
#1009.53
%-43.24
:18
&35.81
$GPGGA,030855.00,4916.45189,N,12413.53637,W,1,09,0.96,108.9,M,-17.7,M,,*65
+361.13
@23.94
#1009.50
%-42.97
:22
&35.62
$GPGGA,030859.00,4916.45183,N,12413.53654,W,1,09,0.96,107.5,M,-17.7,M,,*65
+370.90
@23.94
#1009.48
%-42.56
:26
&35.59
$GPGGA,030903.00,4916.45253,N,12413.53654,W,1,09,0.96,108.7,M,-17.7,M,,*68
+373.34
@23.92
#1009.49
%-42.58
:30
&35.55
$GPGGA,030907.00,4916.45361,N,12413.53765,W,1,09,0.96,110.1,M,-17.7,M,,*60
+370.90
@23.90
#1009.47
%-42.78
:34
&35.40
$GPGGA,030911.00,4916.45523,N,12413.53986,W,1,09,0.96,110.7,M,-17.7,M,,*62
+361.13
@23.91
#1009.47
%-42.60
:38
&35.41
$GPGGA,030915.00,4916.45598,N,12413.54194,W,1,09,0.95,110.3,M,-17.7,M,,*6D
+356.25
@23.92
#1009.50
%-42.46
:42
&35.17
$GPGGA,030919.00,4916.45853,N,12413.54245,W,1,09,1.00,110.6,M,-17.7,M,,*6C
+334.28
@23.89
#1009.48
%-42.78
:46
&34.83
$GPGGA,030923.00,4916.46034,N,12413.54289,W,1,09,0.95,109.3,M,-17.7,M,,*6F
+344.04
@23.87
#1009.46
%-42.37
:50
&34.93
$GPGGA,030927.00,4916.46067,N,12413.54343,W,1,09,0.97,110.2,M,-17.7,M,,*61
+334.28
@23.86
#1009.51
%-42.87
:54
&35.58
$GPGGA,030931.00,4916.46596,N,12413.53422,W,1,09,0.95,109.0,M,-17.7,M,,*62
+200.00
@23.09
#1006.56
%-13.16
:58
&35.28
$GPGGA,030935.00,4916.46393,N,12413.51513,W,1,09,0.96,132.9,M,-17.7,M,,*66
+200.00
@22.67
#1001.50
%29.76
:62
&34.89
$GPGGA,030939.00,4916.46077,N,12413.50569,W,1,09,1.04,177.3,M,-17.7,M,,*6E
+200.00
@22.39
#997.58
%58.80
:66
&34.96
$GPGGA,030943.00,4916.46059,N,12413.48021,W,1,09,0.95,187.3,M,-17.7,M,,*69
+200.00
@22.35
#999.10
%42.24
:70
&35.26
$GPGGA,030947.00,4916.44473,N,12413.44619,W,1,09,1.04,180.4,M,-17.7,M,,*6B
+200.00
@22.14
#1000.20
%34.14
:74
&35.42
$GPGGA,030951.00,4916.47018,N,12413.45532,W,1,09,1.03,172.3,M,-17.7,M,,*60
+200.00
@21.86
#1002.50
%15.82
:78
&35.72
$GPGGA,030955.00,4916.44215,N,12413.48678,W,1,09,1.03,165.6,M,-17.7,M,,*6B
+200.00
@21.72
#1002.04
%19.85
:82
&35.78
$GPGGA,030959.00,4916.43747,N,12413.46370,W,1,09,0.95,165.7,M,-17.7,M,,*6E
+200.00
@21.62
#1002.65
%14.49
:86
&35.99
$GPGGA,031003.00,4916.46056,N,12413.45396,W,1,09,0.95,160.5,M,-17.7,M,,*67
+200.00
@21.53
#1003.30
%8.54
:90
&36.22
$GPGGA,031007.00,4916.47204,N,12413.48834,W,1,09,0.99,155.5,M,-17.7,M,,*63
+200.00
@21.38
#1003.49
%7.10
:94
&36.74
$GPGGA,031011.00,4916.45030,N,12413.50017,W,1,09,0.97,155.1,M,-17.7,M,,*69
+200.00
@21.29
#1004.19
%0.87
:98
&36.72
$GPGGA,031015.00,4916.44800,N,12413.47960,W,1,09,0.95,150.9,M,-17.7,M,,*67
+200.00
@21.20
#1005.02
%-7.04
:102
&36.71
$GPGGA,031019.00,4916.46178,N,12413.51485,W,1,09,1.06,143.2,M,-17.7,M,,*6C
+200.00
@21.03
#1006.01
%-13.04
:106
&37.20
$GPGGA,031023.00,4916.48192,N,12413.51755,W,1,09,1.39,142.8,M,-17.7,M,,*66
+200.00
@20.84
#1003.67
%8.64
:110
&37.44
$GPGGA,031027.00,4916.45879,N,12413.48906,W,1,09,0.97,177.1,M,-17.7,M,,*69
+200.00
@20.62
#1000.59
%33.52
:114
&37.66
$GPGGA,031031.00,4916.43395,N,12413.46471,W,1,09,1.06,190.2,M,-17.7,M,,*61
+200.00
@20.52
#1000.70
%30.45
:118
&38.10
$GPGGA,031035.00,4916.44004,N,12413.44514,W,1,09,1.03,182.7,M,-17.7,M,,*6A
+200.00
@20.40
#1001.99
%18.58
:122
&38.26
$GPGGA,031039.00,4916.44099,N,12413.48577,W,1,09,0.99,171.5,M,-17.7,M,,*67
+200.00
@20.20
#1003.00
%9.59
:126
&38.53
$GPGGA,031043.00,4916.46126,N,12413.50005,W,1,09,0.95,161.9,M,-17.7,M,,*65
+200.00
@20.05
#1002.99
%11.38
:130
&38.68
$GPGGA,031047.00,4916.47801,N,12413.47639,W,1,09,1.76,159.3,M,-17.7,M,,*6E
+200.00
@19.93
#1000.97
%35.98
:134
&38.99
$GPGGA,031051.00,4916.45902,N,12413.45931,W,1,09,1.02,196.1,M,-17.7,M,,*6E
+200.00
@19.79
#1000.05
%35.69
:138
&39.78
$GPGGA,031055.00,4916.44177,N,12413.44521,W,1,08,1.05,188.0,M,-17.7,M,,*65
+200.00
@19.54
#1001.92
%19.20
:142
&39.82
$GPGGA,031059.00,4916.46523,N,12413.44631,W,1,09,0.94,171.0,M,-17.7,M,,*62
+200.00
@19.44
#1002.84
%12.50
:146
&40.04
$GPGGA,031103.00,4916.47874,N,12413.49727,W,1,09,1.05,164.9,M,-17.7,M,,*6D
+200.00
@19.20
#1003.48
%6.44
:150
&40.57
$GPGGA,031107.00,4916.50193,N,12413.52058,W,1,09,0.95,158.7,M,-17.7,M,,*63
+200.00
@19.11
#1003.04
%10.06
:154
&41.30
$GPGGA,031111.00,4916.49663,N,12413.49819,W,1,09,0.94,157.4,M,-17.7,M,,*6E
+200.00
@18.94
#1003.51
%7.39
:159
&40.82
$GPGGA,031115.00,4916.47828,N,12413.47710,W,1,08,1.38,164.7,M,-17.7,M,,*68
+200.00
@19.09
#1001.91
%23.72
:162
&40.71
$GPGGA,031119.00,4916.45898,N,12413.45169,W,1,09,1.04,190.7,M,-17.7,M,,*62
+200.00
@19.23
#998.34
%51.88
:166
&40.74
$GPGGA,031123.00,4916.45178,N,12413.43129,W,1,09,0.98,199.3,M,-17.7,M,,*67
+200.00
@19.33
#999.66
%40.87
:170
&40.52
$GPGGA,031127.00,4916.43893,N,12413.40520,W,1,09,0.94,197.1,M,-17.7,M,,*67
+200.00
@19.47
#1000.22
%32.52
:174
&40.34
$GPGGA,031131.00,4916.46047,N,12413.42417,W,1,09,1.02,182.6,M,-17.7,M,,*6E
+200.00
@19.53
#1002.32
%15.15
:179
&40.21
$GPGGA,031135.00,4916.48421,N,12413.47265,W,1,08,1.02,167.1,M,-17.7,M,,*6B
+200.00
@19.56
#1003.86
%4.38
:183
&40.20
$GPGGA,031139.00,4916.51416,N,12413.50859,W,1,09,1.07,158.3,M,-17.7,M,,*62
+200.00
@19.57
#1003.50
%6.23
:187
&40.24
$GPGGA,031143.00,4916.51358,N,12413.48426,W,1,09,0.97,153.2,M,-17.7,M,,*6D
+200.00
@19.57
#1004.68
%-3.01
:191
&40.45
$GPGGA,031147.00,4916.48496,N,12413.47984,W,1,09,0.94,145.8,M,-17.7,M,,*60
+200.00
@19.56
#1003.88
%10.33
:195
&39.91
$GPGGA,031151.00,4916.45606,N,12413.46741,W,1,09,1.02,168.7,M,-17.7,M,,*69
+200.00
@19.54
#1001.60
%23.58
:199
&40.15
$GPGGA,031155.00,4916.44037,N,12413.45046,W,1,09,1.01,169.0,M,-17.7,M,,*6E
+200.00
@19.45
#1002.82
%11.72
:203
&40.30
$GPGGA,031159.00,4916.46058,N,12413.45042,W,1,09,1.01,156.8,M,-17.7,M,,*69
+200.00
@19.41
#1004.48
%-1.03
:207
&39.99
$GPGGA,031203.00,4916.46384,N,12413.50371,W,1,09,1.04,149.0,M,-17.7,M,,*63
+200.00
@19.25
#1005.21
%-6.85
:211
&40.41
$GPGGA,031207.00,4916.48469,N,12413.51105,W,1,09,0.97,143.8,M,-17.7,M,,*64
+200.00
@19.14
#1005.03
%-6.72
:215
&40.94
$GPGGA,031211.00,4916.47097,N,12413.48745,W,1,09,0.94,140.2,M,-17.7,M,,*69
+200.00
@19.18
#1004.01
%9.52
:219
&40.68
$GPGGA,031215.00,4916.45312,N,12413.46310,W,1,09,0.93,189.6,M,-17.7,M,,*6D
+200.00
@19.30
#1000.43
%33.20
:223
&40.63
$GPGGA,031219.00,4916.43896,N,12413.44265,W,1,09,0.93,202.7,M,-17.7,M,,*60
+200.00
@19.23
#1001.16
%26.81
:227
&40.72
$GPGGA,031223.00,4916.44806,N,12413.42118,W,1,09,0.95,202.0,M,-17.7,M,,*69
+200.00
@19.26
#1002.07
%18.08
:231
&40.82
$GPGGA,031227.00,4916.45568,N,12413.44992,W,1,09,0.93,184.4,M,-17.7,M,,*6A
+200.00
@19.16
#1002.47
%16.00
:235
&40.84
$GPGGA,031231.00,4916.43345,N,12413.46461,W,1,09,1.01,178.2,M,-17.7,M,,*6E
+200.00
@19.18
#1003.19
%10.50
:239
&40.81
$GPGGA,031235.00,4916.41576,N,12413.45722,W,1,09,0.93,169.5,M,-17.7,M,,*64
+246.39
@19.14
#1004.00
%2.67
:243
&40.37
$GPGGA,031239.00,4916.43351,N,12413.45122,W,1,09,0.93,158.7,M,-17.7,M,,*6F
+200.00
@19.12
#1005.11
%-5.88
:247
&40.47
$GPGGA,031243.00,4916.45843,N,12413.47322,W,1,09,0.93,160.9,M,-17.7,M,,*69
+200.00
@19.27
#1001.96
%24.12
:251
&40.59
$GPGGA,031247.00,4916.44433,N,12413.46202,W,1,08,0.99,194.7,M,-17.7,M,,*6B
+200.00
@19.35
#999.74
%34.24
:255
&40.66
$GPGGA,031251.00,4916.44208,N,12413.44887,W,1,08,1.10,178.5,M,-17.7,M,,*67
+200.00
@19.24
#1002.58
%14.30
:259
&40.76
$GPGGA,031255.00,4916.46195,N,12413.49342,W,1,08,1.02,166.7,M,-17.7,M,,*67
+200.00
@19.17
#1002.37
%14.79
:263
&40.86
$GPGGA,031259.00,4916.48172,N,12413.51251,W,1,09,0.97,162.0,M,-17.7,M,,*69
+200.00
@19.16
#1002.37
%15.70
:267
&40.93
$GPGGA,031303.00,4916.48695,N,12413.49391,W,1,08,1.13,163.4,M,-17.7,M,,*64
+200.00
@19.05
#1003.05
%10.83
:271
&40.69
$GPGGA,031307.00,4916.46717,N,12413.47799,W,1,09,0.93,160.7,M,-17.7,M,,*6F
+200.00
@18.99
#1003.20
%7.92
:275
&40.69
$GPGGA,031311.00,4916.45072,N,12413.46929,W,1,09,1.00,161.0,M,-17.7,M,,*66
+200.00
@18.90
#1004.34
%1.45
:279
&40.54
$GPGGA,031315.00,4916.43120,N,12413.46268,W,1,09,0.93,155.7,M,-17.7,M,,*67
+207.32
@18.87
#1005.22
%-8.47
:283
&40.45
$GPGGA,031319.00,4916.45286,N,12413.46167,W,1,09,0.93,139.0,M,-17.7,M,,*63
+200.00
@18.84
#1006.43
%-17.70
:287
&40.88
$GPGGA,031323.00,4916.46778,N,12413.50651,W,1,09,1.13,131.5,M,-17.7,M,,*6C
+200.00
@18.87
#1006.25
%-13.78
:291
&40.94
$GPGGA,031327.00,4916.47642,N,12413.48972,W,1,09,1.35,133.7,M,-17.7,M,,*62
+200.00
@18.98
#1002.28
%24.30
:295
&40.53
$GPGGA,031331.00,4916.45116,N,12413.47017,W,1,09,0.93,166.5,M,-17.7,M,,*6B
+200.00
@19.09
#1001.26
%24.33
:299
&40.80
$GPGGA,031335.00,4916.43121,N,12413.45752,W,1,09,1.00,165.5,M,-17.7,M,,*61
+200.00
@19.10
#1001.57
%22.04
:303
&40.54
$GPGGA,031339.00,4916.43447,N,12413.43883,W,1,09,0.97,159.5,M,-17.7,M,,*6D
+295.21
@19.16
#1002.30
%16.02
:307
&40.38
$GPGGA,031343.00,4916.44243,N,12413.46881,W,1,09,0.96,151.8,M,-17.7,M,,*66
+283.01
@19.16
#1002.59
%14.22
:311
&40.45
$GPGGA,031347.00,4916.42412,N,12413.47551,W,1,09,1.02,154.0,M,-17.7,M,,*66
+348.93
@19.19
#1003.41
%5.56
:315
&40.15
$GPGGA,031351.00,4916.43430,N,12413.45346,W,1,09,0.92,147.8,M,-17.7,M,,*60
+265.92
@19.18
#1004.78
%-4.22
:319
&39.96
$GPGGA,031355.00,4916.45007,N,12413.49296,W,1,09,0.92,138.6,M,-17.7,M,,*64
+200.00
@19.16
#1005.28
%-6.90
:323
&40.38
$GPGGA,031359.00,4916.47257,N,12413.48850,W,1,09,1.33,135.8,M,-17.7,M,,*65
+200.00
@19.21
#1002.73
%20.78
:327
&40.11
$GPGGA,031403.00,4916.46755,N,12413.46253,W,1,08,1.35,131.3,M,-17.7,M,,*64
+202.44
@19.24
#1002.20
%16.05
:331
&40.11
$GPGGA,031407.00,4916.44037,N,12413.46401,W,1,09,0.93,120.1,M,-17.7,M,,*6E
+217.09
@19.22
#1002.22
%17.21
:335
&39.69
$GPGGA,031411.00,4916.43508,N,12413.44776,W,1,09,0.97,122.1,M,-17.7,M,,*60
+373.34
@19.16
#1003.18
%8.21
:339
&39.62
$GPGGA,031415.00,4916.45655,N,12413.45244,W,1,09,0.92,119.6,M,-17.7,M,,*66
+236.62
@19.16
#1004.37
%-0.64
:343
&40.01
$GPGGA,031419.00,4916.45794,N,12413.49530,W,1,09,1.36,126.1,M,-17.7,M,,*6A
+200.00
@19.10
#1004.77
%-5.09
:347
&39.84
$GPGGA,031423.00,4916.43436,N,12413.49646,W,1,08,0.99,125.1,M,-17.7,M,,*6A
+217.09
@19.03
#1005.03
%-5.71
:351
&39.71
$GPGGA,031427.00,4916.44305,N,12413.47434,W,1,09,0.92,124.3,M,-17.7,M,,*6E
+314.75
@18.99
#1005.86
%-12.29
:355
&40.60
$GPGGA,031431.00,4916.46712,N,12413.47713,W,1,09,0.92,124.3,M,-17.7,M,,*6F
+373.34
@19.00
#1005.89
%-11.11
:359
&39.85
$GPGGA,031435.00,4916.47830,N,12413.46464,W,1,08,1.54,125.7,M,-17.7,M,,*68
+207.32
@19.15
#1003.87
%10.47
:363
&39.88
$GPGGA,031439.00,4916.46240,N,12413.44711,W,1,08,1.01,128.2,M,-17.7,M,,*63
+200.00
@19.31
#1001.72
%19.41
:367
&40.15
$GPGGA,031443.00,4916.47303,N,12413.43704,W,1,09,0.94,125.7,M,-17.7,M,,*6E
+200.00
@19.40
#1002.94
%11.31
:371
&39.92
$GPGGA,031447.00,4916.46859,N,12413.48176,W,1,09,0.98,124.0,M,-17.7,M,,*6D
+200.00
@19.42
#1003.52
%7.66
:375
&39.55
$GPGGA,031451.00,4916.44084,N,12413.48849,W,1,09,0.92,123.3,M,-17.7,M,,*6B
+217.09
@19.50
#1003.68
%5.65
:379
&39.30
$GPGGA,031455.00,4916.44088,N,12413.46201,W,1,09,0.92,124.6,M,-17.7,M,,*69
+324.51
@19.53
#1003.79
%4.37
:383
&39.02
$GPGGA,031459.00,4916.45287,N,12413.44256,W,1,09,0.92,123.3,M,-17.7,M,,*6B
+387.99
@19.62
#1004.97
%-7.18
:387
&38.75
$GPGGA,031503.00,4916.46467,N,12413.47334,W,1,08,1.32,121.1,M,-17.7,M,,*62
+246.39
@19.60
#1005.55
%-10.15
:391
&39.20
$GPGGA,031507.00,4916.44251,N,12413.49751,W,1,09,0.92,120.4,M,-17.7,M,,*60
+353.81
@19.65
#1005.87
%-13.32
:395
&38.84
$GPGGA,031511.00,4916.44303,N,12413.47667,W,1,09,0.98,120.4,M,-17.7,M,,*61
+441.70
@19.75
#1006.19
%-16.12
:399
&39.25
$GPGGA,031515.00,4916.46421,N,12413.49323,W,1,09,0.96,119.0,M,-17.7,M,,*6B
+236.62
@19.71
#1004.56
%4.64
:403
&38.98
$GPGGA,031519.00,4916.48311,N,12413.47655,W,1,09,1.12,119.4,M,-17.7,M,,*6E
+200.00
@19.73
#1001.00
%32.44
:407
&39.65
$GPGGA,031523.00,4916.45989,N,12413.44550,W,1,06,1.81,126.7,M,-17.7,M,,*6E
+200.00
@19.75
#997.06
%60.29
:411
&39.69
$GPGGA,031527.00,4916.44419,N,12413.44467,W,1,09,1.42,135.4,M,-17.7,M,,*6B
+295.21
@19.61
#998.81
%47.64
:415
&39.64
$GPGGA,031531.00,4916.41200,N,12413.44745,W,1,09,0.91,138.6,M,-17.7,M,,*64
+373.34
@19.55
#999.22
%42.44
:419
&39.91
$GPGGA,031535.00,4916.41900,N,12413.42733,W,1,08,0.98,132.0,M,-17.7,M,,*68
+331.84
@19.42
#1000.61
%32.43
:423
&39.80
$GPGGA,031539.00,4916.43788,N,12413.46248,W,1,09,0.91,130.6,M,-17.7,M,,*69
+334.28
@19.30
#1000.91
%27.52
:427
&40.29
$GPGGA,031543.00,4916.46098,N,12413.48150,W,1,09,0.91,123.4,M,-17.7,M,,*63
+280.57
@19.17
#1001.76
%23.61
:431
&40.77
$GPGGA,031547.00,4916.47515,N,12413.45259,W,1,09,0.95,125.1,M,-17.7,M,,*66
+436.82
@19.07
#1001.99
%19.47
:435
&41.08
$GPGGA,031551.00,4916.45583,N,12413.43147,W,1,09,0.93,122.0,M,-17.7,M,,*66
+568.65
@18.95
#1002.20
%17.38
:439
&39.55
$GPGGA,031555.00,4916.43465,N,12413.41982,W,1,09,0.93,122.2,M,-17.7,M,,*6C
+685.84
@18.92
#1002.79
%12.21
:443
&39.71
$GPGGA,031559.00,4916.41820,N,12413.44531,W,1,09,0.92,122.2,M,-17.7,M,,*6F
+627.25
@18.86
#1003.45
%7.01
:447
&38.72
$GPGGA,031603.00,4916.42704,N,12413.48212,W,1,09,0.98,119.4,M,-17.7,M,,*67
+544.24
@18.82
#1004.12
%1.18
:451
&39.32
$GPGGA,031607.00,4916.45196,N,12413.49300,W,1,09,0.91,115.8,M,-17.7,M,,*63
+471.00
@18.77
#1004.48
%0.07
:455
&40.16
$GPGGA,031611.00,4916.47053,N,12413.47524,W,1,09,0.92,114.7,M,-17.7,M,,*6D
+627.25
@18.80
#1004.79
%-2.98
:459
&40.97
$GPGGA,031615.00,4916.46521,N,12413.44768,W,1,09,1.00,110.7,M,-17.7,M,,*6F
+759.08
@18.80
#1005.84
%-9.53
:463
&39.92
$GPGGA,031619.00,4916.44322,N,12413.46300,W,1,09,0.93,113.9,M,-17.7,M,,*6A
+319.63
@18.97
#1002.13
%23.55
:467
&40.37
$GPGGA,031623.00,4916.42855,N,12413.44520,W,1,09,0.91,154.6,M,-17.7,M,,*66
+200.00
@19.03
#1000.01
%36.80
:471
&40.92
$GPGGA,031627.00,4916.45141,N,12413.42562,W,1,09,0.91,156.8,M,-17.7,M,,*65
+280.57
@18.96
#1000.63
%30.65
:475
&41.21
$GPGGA,031631.00,4916.47721,N,12413.42452,W,1,09,0.93,157.2,M,-17.7,M,,*6B
+373.34
@18.90
#1000.84
%29.37
:479
&41.29
$GPGGA,031635.00,4916.48628,N,12413.40182,W,1,09,0.91,157.9,M,-17.7,M,,*6B
+514.94
@18.88
#1001.84
%21.85
:483
&40.53
$GPGGA,031639.00,4916.46531,N,12413.38137,W,1,09,0.91,159.2,M,-17.7,M,,*66
+597.95
@18.82
#1001.87
%18.98
:487
&39.65
$GPGGA,031643.00,4916.44341,N,12413.38470,W,1,09,0.92,156.2,M,-17.7,M,,*62
+505.18
@18.73
#1002.84
%12.53
:491
&39.81
$GPGGA,031647.00,4916.43701,N,12413.42790,W,1,09,1.04,156.2,M,-17.7,M,,*6F
+446.58
@18.69
#1003.55
%6.77
:495
&40.18
$GPGGA,031651.00,4916.45110,N,12413.46767,W,1,09,1.10,155.0,M,-17.7,M,,*60
+451.46
@18.65
#1004.01
%2.14
:499
&40.94
$GPGGA,031655.00,4916.46499,N,12413.50656,W,1,09,0.99,151.4,M,-17.7,M,,*67
+431.93
@18.54
#1004.77
%-3.04
:503
&41.41
$GPGGA,031659.00,4916.48887,N,12413.50254,W,1,09,0.96,149.8,M,-17.7,M,,*6A
+314.75
@18.74
#1002.59
%20.60
:507
&41.30
$GPGGA,031703.00,4916.47772,N,12413.46788,W,1,08,1.31,152.0,M,-17.7,M,,*62
+392.87
@18.76
#1000.70
%29.06
:511
&41.60
$GPGGA,031707.00,4916.45568,N,12413.45416,W,1,09,1.00,145.9,M,-17.7,M,,*66
+510.06
@18.71
#1001.47
%24.39
:515
&40.82
$GPGGA,031711.00,4916.43251,N,12413.43280,W,1,09,0.91,151.0,M,-17.7,M,,*60
+646.78
@18.69
#1001.71
%21.91
:519
&40.19
$GPGGA,031715.00,4916.44000,N,12413.41359,W,1,08,0.94,149.5,M,-17.7,M,,*6A
+715.14
@18.68
#1003.07
%9.44
:523
&39.83
$GPGGA,031719.00,4916.43450,N,12413.45705,W,1,09,1.30,143.7,M,-17.7,M,,*6F
+461.23
@18.65
#1004.24
%0.64
:527
&40.27
$GPGGA,031723.00,4916.44189,N,12413.50243,W,1,09,0.90,141.2,M,-17.7,M,,*6F
+373.34
@18.65
#1005.27
%-6.99
:531
&40.69
$GPGGA,031727.00,4916.47045,N,12413.49328,W,1,09,0.95,135.7,M,-17.7,M,,*6E
+449.02
@18.62
#1004.93
%-4.33
:535
&40.52
$GPGGA,031731.00,4916.47753,N,12413.46696,W,1,09,0.96,131.5,M,-17.7,M,,*63
+685.84
@18.70
#1004.56
%3.16
:539
&40.07
$GPGGA,031735.00,4916.46738,N,12413.44154,W,1,09,0.94,130.6,M,-17.7,M,,*60
+402.64
@18.92
#1000.83
%31.16
:543
&39.95
$GPGGA,031739.00,4916.44193,N,12413.41940,W,1,09,0.90,145.8,M,-17.7,M,,*69
+519.82
@18.93
#1000.87
%27.18
:547
&39.87
$GPGGA,031743.00,4916.41798,N,12413.43734,W,1,09,0.91,140.1,M,-17.7,M,,*6E
+490.53
@18.97
#1002.17
%17.66
:551
&39.86
$GPGGA,031747.00,4916.41994,N,12413.48570,W,1,09,0.98,138.9,M,-17.7,M,,*6F
+505.18
@18.96
#1002.75
%13.37
:555
&40.87
$GPGGA,031751.00,4916.44640,N,12413.49870,W,1,09,0.91,136.4,M,-17.7,M,,*6D
+568.65
@18.95
#1003.33
%8.38
:559
&41.10
$GPGGA,031755.00,4916.47042,N,12413.48166,W,1,08,0.95,135.4,M,-17.7,M,,*67
+639.45
@18.96
#1003.77
%5.44
:563
&40.82
$GPGGA,031759.00,4916.47307,N,12413.44843,W,1,09,0.92,135.5,M,-17.7,M,,*6C
+822.56
@18.95
#1004.06
%2.22
:567
&40.04
$GPGGA,031803.00,4916.45844,N,12413.42562,W,1,09,0.94,131.9,M,-17.7,M,,*64
+881.15
@18.94
#1004.69
%-2.19
:571
&39.58
$GPGGA,031807.00,4916.43773,N,12413.43283,W,1,09,0.90,131.1,M,-17.7,M,,*68
+915.33
@18.97
#1005.33
%-9.69
:575
&39.28
$GPGGA,031811.00,4916.43742,N,12413.47074,W,1,09,0.90,127.8,M,-17.7,M,,*6D
+685.84
@18.95
#1006.38
%-17.01
:579
&38.94
$GPGGA,031815.00,4916.45763,N,12413.50392,W,1,09,0.90,123.0,M,-17.7,M,,*6D
+607.71
@18.91
#1006.60
%-18.32
:583
&39.88
$GPGGA,031819.00,4916.47956,N,12413.49698,W,1,09,0.95,123.2,M,-17.7,M,,*6B
+803.03
@18.91
#1006.89
%-21.40
:587
&41.35
$GPGGA,031823.00,4916.47178,N,12413.47159,W,1,09,0.95,119.7,M,-17.7,M,,*6E
+798.14
@18.93
#1007.27
%-27.37
:591
&40.21
$GPGGA,031827.00,4916.45876,N,12413.48788,W,1,09,0.90,117.7,M,-17.7,M,,*61
+449.02
@18.91
#1006.58
%-18.38
:595
&39.27
$GPGGA,031831.00,4916.44501,N,12413.47852,W,1,08,1.29,127.9,M,-17.7,M,,*62
+549.12
@18.87
#1007.10
%-22.08
:599
&39.76
$GPGGA,031835.00,4916.46415,N,12413.46655,W,1,09,0.90,128.9,M,-17.7,M,,*65
+763.96
@18.89
#1007.44
%-24.74
:603
&41.99
$GPGGA,031839.00,4916.47036,N,12413.49770,W,1,09,0.90,126.7,M,-17.7,M,,*64
+895.80
@18.83
#1007.76
%-28.27
:607
&40.78
$GPGGA,031843.00,4916.45101,N,12413.50651,W,1,09,0.90,123.9,M,-17.7,M,,*6F
+859.18
@18.85
#1008.13
%-31.71
:611
&39.90
$GPGGA,031847.00,4916.43349,N,12413.49561,W,1,09,0.90,121.5,M,-17.7,M,,*65
+905.57
@18.83
#1008.79
%-36.46
:615
&39.97
$GPGGA,031851.00,4916.45136,N,12413.48668,W,1,09,0.90,117.8,M,-17.7,M,,*6D
+607.71
@19.01
#1006.50
%-18.29
:619
&40.13
$GPGGA,031855.00,4916.46389,N,12413.47474,W,1,09,0.90,116.7,M,-17.7,M,,*62
+627.25
@18.99
#1007.46
%-25.08
:623
&41.20
$GPGGA,031859.00,4916.45181,N,12413.45289,W,1,09,0.90,116.5,M,-17.7,M,,*63
+634.57
@19.06
#1007.92
%-29.29
:627
&40.38
$GPGGA,031903.00,4916.43433,N,12413.44685,W,1,09,0.90,115.7,M,-17.7,M,,*6F
+568.65
@19.12
#1008.39
%-34.39
:631
&40.29
$GPGGA,031907.00,4916.43492,N,12413.47646,W,1,09,0.90,115.1,M,-17.7,M,,*6A
+483.20
@19.04
#1009.05
%-40.22
:635
&41.51
$GPGGA,031911.00,4916.45350,N,12413.51312,W,1,09,0.90,113.7,M,-17.7,M,,*61
+451.46
@18.98
#1009.49
%-43.38
:639
&47.24
$GPGGA,031915.00,4916.46333,N,12413.54527,W,1,09,0.90,113.7,M,-17.7,M,,*66
+842.09
@19.12
#1009.56
%-43.31
:643
&48.36
$GPGGA,031919.00,4916.46390,N,12413.54649,W,1,09,0.89,112.9,M,-17.7,M,,*6F
+1271.78
@19.20
#1009.57
%-43.53
:647
&47.74
$GPGGA,031923.00,4916.46422,N,12413.54730,W,1,09,0.89,112.4,M,-17.7,M,,*6A
+1074.02
@19.29
#1009.58
%-43.41
:651
&47.32
$GPGGA,031927.00,4916.46457,N,12413.54805,W,1,09,0.89,112.6,M,-17.7,M,,*67
+842.09
@19.38
#1009.54
%-43.29
:655
&47.72
$GPGGA,031931.00,4916.46477,N,12413.54840,W,1,09,0.89,111.5,M,-17.7,M,,*63
+685.84
@19.51
#1009.53
%-42.97
:659
&47.87
$GPGGA,031935.00,4916.46469,N,12413.54873,W,1,08,0.93,111.3,M,-17.7,M,,*64
+597.95
@19.63
#1009.57
%-43.35
:663
&47.77
$GPGGA,031939.00,4916.46470,N,12413.54873,W,1,09,0.89,111.2,M,-17.7,M,,*6B
+529.59
@19.75
#1009.55
%-43.19
:667
&46.87
$GPGGA,031943.00,4916.46336,N,12413.54827,W,1,09,0.89,111.3,M,-17.7,M,,*63
+480.76
@19.89
#1009.51
%-42.99
:671
&46.24
$GPGGA,031947.00,4916.46251,N,12413.54762,W,1,09,0.93,111.2,M,-17.7,M,,*63
+451.46
@20.07
#1009.56
%-42.99
:675
&45.88
$GPGGA,031951.00,4916.46156,N,12413.54698,W,2,09,0.89,110.9,M,-17.7,M,,0000*66
+436.82
@20.21
#1009.53
%-42.74
:679
&45.26
$GPGGA,031955.00,4916.46049,N,12413.54406,W,2,09,0.89,110.5,M,-17.7,M,,0000*64
+412.40
@20.35
#1009.49
%-42.93
:683
&44.88
$GPGGA,031959.00,4916.45868,N,12413.54206,W,2,09,0.89,109.9,M,-17.7,M,,0000*62
+402.64
@20.51
#1009.50
%-42.52
:687
&45.03
$GPGGA,032003.00,4916.45768,N,12413.54307,W,2,09,0.89,110.9,M,-17.7,M,,0000*60
+392.87
@20.65
#1009.53
%-42.95
:691
&44.96
$GPGGA,032007.00,4916.45587,N,12413.54223,W,2,09,0.89,111.1,M,-17.7,M,,0000*69
+383.11
@20.76
#1009.51
%-42.78
:695
&44.88
$GPGGA,032011.00,4916.45458,N,12413.53907,W,2,09,0.89,111.6,M,-17.7,M,,0000*60
+334.28
@20.81
#1009.38
%-42.10
:699
&43.38
$GPGGA,032015.00,4916.45522,N,12413.53736,W,2,09,0.89,111.6,M,-17.7,M,,0000*64
+358.69
@20.91
#1009.41
%-42.17
:703
&43.12
$GPGGA,032019.00,4916.45528,N,12413.53713,W,2,09,0.89,111.5,M,-17.7,M,,0000*66
+402.64
@21.02
#1009.45
%-42.47
:707
&43.27
$GPGGA,032023.00,4916.45522,N,12413.53713,W,2,09,0.89,111.4,M,-17.7,M,,0000*64
+412.40
@21.13
#1009.42
%-41.99
:711
&43.69
$GPGGA,032027.00,4916.45529,N,12413.53713,W,2,09,0.89,111.0,M,-17.7,M,,0000*6F
+373.34
@21.24
#1009.44
%-42.58
:715
&43.46
$GPGGA,032031.00,4916.45533,N,12413.53712,W,2,09,0.89,110.7,M,-17.7,M,,0000*64
+368.46
@21.35
#1009.44
%-42.41
:719
&43.13
$GPGGA,032035.00,4916.45523,N,12413.53715,W,2,09,0.89,110.4,M,-17.7,M,,0000*65
$