
+200.00
@23.95
#1009.47
%-42.84
:2
&35.69
‚‚RŠ*5
$GPTXT,01,01,02,ANTSUPERV=AC SD PDoS SR*20
$GPTXT,01,01$GPRMC,030839.00,A,4916.45109,N,12413.53677,W,0.974,172.54,170621,,,A*77
$GPVTG,172.54,T,,M,0.974,N,1.804,K,A*3F
$GPGGA,030839.00,4916.45109,N,12413.53677,W,1,09,0.96,106.8,M,-17.7,M,,*6C
$GPGSA,A,3,32,10,21,08,27,23,24,01,22,,,,1.82,0.96,1.54*0E
$GPGSV,4,1,13,01,18,310,39,08,36,253,30,10,57,074,34,14,01,333,*74
$GPGSV,4,2,13,21,41,304,38,22,16,274,29,23,23,084,23,24,18,044,40*7C
$GPGSV,4,3,13,27,25,216,21,28,02,348,,32,73,159,30,46,33,186,35*7F
$GPGSV,4,4,13,51,31,158,*41
$GPGLL,4916.45109,N,12413.53677,W,030839.00,A,A*7C
$
+200.00
@24.00
#1009.51
%-42.83
:6
&35.48
GPRMC,030840.00,A,4916.45153,N,12413.53666,W,0.104,,170621,,,A*53635,W,030842.00,A,A*75
$GPRMC,030843.00,A,4916.45204,N,12413.53639,W,0.215,,170621,,,A*69
$GPVTG,,T,,M,0.215,N,0.398,K,A*27
$GPGGA,030843.00,4916.45204,N,12413.53639,W,1,09,0.96,109.1,M,-17.7,M,,*63
$GPGSA,A,3,32,10,21,08,27,23,24,01,22,,,,1.82,0.96,1.54*0E
$GPGSV,4,1,14,01,18,310,36,08,36,253,34,10,57,074,23,14,01,333,*7E
$GPGSV,4,2,14,21,41,304,40,22,16,274,20,23,23,084,35,24,18,044,33*7E
$GPGSV,4,3,14,27,25,216,23,28,02,348,17,32,73,159,36,46,33,186,38*77
$GPGSV,4,4,14,48,33,192,29,51,31,158,*7B
$GPGLL,4916.45204,N,12413.53639,W,030843.00,A,A*75
$GPRMC,030844.00,A,4916.45194,N,12413.53641,W,0.165,,170621,,,A*6F
$GPVTG,,T,,M,0.165,N,0.306,K,A*24
$
+200.00
@24.01
#1009.50
%-43.02
:10
&35.41
GPGGA,030844.00,4916.45194,N,12413.53641,W,1,09,0.96,109.2,M,-1$GPRMC,030847.00,A,4916.45159,N,12413.53625,W,0.014,,170621,,,A*68
$GPVTG,,T,,M,0.014,N,0.025,K,A*21
$GPGGA,030847.00,4916.45159,N,12413.53625,W,1,09,0.96,109.3,M,-17.7,M,,*63
$GPGSA,A,3,32,10,21,08,27,23,24,01,22,,,,1.81,0.96,1.54*0D
$GPGSV,4,1,14,01,18,310,33,08,36,253,34,10,57,074,30,14,01,333,16*7E
$GPGSV,4,2,14,21,41,304,32,22,16,274,24,23,23,084,27,24,18,044,38*77
$GPGSV,4,3,14,27,25,216,34,28,02,348,16,32,73,159,40,46,33,186,36*7F
$GPGSV,4,4,14,48,33,192,35,51,31,158,*76
$GPGLL,4916.45159,N,12413.53625,W,030847.00,A,A*77
$GPRMC,030848.00,A,4916.45193,N,12413.53621,W,0.020,,170621,,,A*62
$GPVTG,,T,,M,0.020,N,0.037,K,A*25
$
+200.00
@24.00
#1009.51
%-42.87
:14
&35.97
GPGGA,030848.00,4916.45193,N,12413.53621,W,1,09,0.96,110.0,M,-1$GPRMC,030851.00,A,4916.45231,N,12413.53634,W,0.028,,170621,,,A*6D
$GPVTG,,T,,M,0.028,N,0.052,K,A*2E
$GPGGA,030851.00,4916.45231,N,12413.53634,W,1,09,0.96,110.6,M,-17.7,M,,*64
$GPGSA,A,3,32,10,21,08,27,23,24,01,22,,,,1.81,0.96,1.54*0D
$GPGSV,4,1,14,01,18,310,33,08,36,253,35,10,57,074,37,14,01,333,*7F
$GPGSV,4,2,14,21,41,304,36,22,16,274,23,23,23,084,31,24,18,044,39*72
$GPGSV,4,3,14,27,25,216,33,28,02,348,,32,73,159,36,46,33,186,39*71
$GPGSV,4,4,14,48,33,192,36,51,31,158,*75
$GPGLL,4916.45231,N,12413.53634,W,030851.00,A,A*7D
$GPRMC,030852.00,A,4916.45219,N,12413.53636,W,0.055,,170621,,,A*6C
$GPVTG,,T,,M,0.055,N,0.102,K,A*20
$
+295.21
@23.94
#1009.53
%-43.24
:18
&35.81
GPGGA,030852.00,4916.45219,N,12413.53636,W,1,09,0.96,110.1,M,-1$GPRMC,030855.00,A,4916.45189,N,12413.53637,W,0.136,,170621,,,A*64
$GPVTG,,T,,M,0.136,N,0.251,K,A*21
$GPGGA,030855.00,4916.45189,N,12413.53637,W,1,09,0.96,108.9,M,-17.7,M,,*65
$GPGSA,A,3,32,10,21,08,27,23,24,01,22,,,,1.81,0.96,1.54*0D
$GPGSV,4,1,14,01,18,310,36,08,36,253,24,10,57,074,35,14,01,333,*78
$GPGSV,4,2,14,21,41,304,40,22,17,274,24,23,23,084,33,24,17,044,38*79
$GPGSV,4,3,14,27,25,216,20,28,02,348,16,32,73,159,36,46,33,186,36*7B
$GPGSV,4,4,14,48,33,192,36,51,31,158,*75
$GPGLL,4916.45189,N,12413.53637,W,030855.00,A,A*7A
$GPRMC,030856.00,A,4916.45188,N,12413.53638,W,0.120,,170621,,,A*6E
$GPVTG,,T,,M,0.120,N,0.223,K,A*23
$
+361.13
@23.94
#1009.50
%-42.97
:22
&35.62
GPGGA,030856.00,4916.45188,N,12413.53638,W,1,09,0.96,108.7,M,-1$GPRMC,030859.00,A,4916.45183,N,12413.53654,W,0.055,,170621,,,A*63
$GPVTG,,T,,M,0.055,N,0.103,K,A*21
$GPGGA,030859.00,4916.45183,N,12413.53654,W,1,09,0.96,107.5,M,-17.7,M,,*65
$GPGSA,A,3,32,10,21,08,27,23,24,01,22,,,,1.81,0.96,1.54*0D
$GPGSV,4,1,14,01,18,310,37,08,36,253,28,10,57,074,40,14,01,333,*77
$GPGSV,4,2,14,21,41,304,37,22,17,274,28,23,23,084,37,24,17,044,39*70
$GPGSV,4,3,14,27,25,216,29,28,02,348,,32,73,159,36,46,33,186,35*76
$GPGSV,4,4,14,48,33,192,32,51,31,158,*71
$GPGLL,4916.45183,N,12413.53654,W,030859.00,A,A*79
$GPRMC,030900.00,A,4916.45166,N,12413.53653,W,0.096,,170621,,,A*6D
$GPVTG,,T,,M,0.096,N,0.178,K,A*22
$
+370.90
@23.94
#1009.48
%-42.56
:26
&35.59
GPGGA,030900.00,4916.45166,N,12413.53653,W,1,09,0.96,107.9,M,-1$GPRMC,030903.00,A,4916.45253,N,12413.53654,W,0.250,,170621,,,A*64
$GPVTG,,T,,M,0.250,N,0.463,K,A*25
$GPGGA,030903.00,4916.45253,N,12413.53654,W,1,09,0.96,108.7,M,-17.7,M,,*68
$GPGSA,A,3,32,10,21,08,27,23,24,01,22,,,,1.81,0.96,1.54*0D
$GPGSV,4,1,14,01,18,310,30,08,36,253,43,10,57,074,40,14,01,333,*7D
$GPGSV,4,2,14,21,41,304,35,22,17,274,32,23,23,084,29,24,17,044,39*76
$GPGSV,4,3,14,27,25,216,36,28,02,348,16,32,73,159,28,46,33,186,32*77
$GPGSV,4,4,14,48,33,192,30,51,31,158,*73
$GPGLL,4916.45253,N,12413.53654,W,030903.00,A,A*79
$GPRMC,030904.00,A,4916.45250,N,12413.53661,W,0.798,,170621,,,A*67
$GPVTG,,T,,M,0.798,N,1.477,K,A*20
$
+373.34
@23.92
#1009.49
%-42.58
:30
&35.55
GPGGA,030904.00,4916.45250,N,12413.53661,W,1,09,0.96,108.4,M,-1$GPRMC,030907.00,A,4916.45361,N,12413.53765,W,1.091,326.30,170621,,,A*77
$GPVTG,326.30,T,,M,1.091,N,2.021,K,A*31
$GPGGA,030907.00,4916.45361,N,12413.53765,W,1,09,0.96,110.1,M,-17.7,M,,*60
$GPGSA,A,3,32,10,21,08,27,23,24,01,22,,,,1.81,0.96,1.54*0D
$GPGSV,4,1,13,01,18,310,35,08,36,253,36,10,57,074,30,14,01,333,*7A
$GPGSV,4,2,13,21,41,304,33,22,17,274,32,23,23,084,39,24,17,044,32*7D
$GPGSV,4,3,13,27,25,216,37,28,02,348,,32,73,159,36,46,33,186,34*7F
$GPGSV,4,4,13,51,31,158,*41
$GPGLL,4916.45361,N,12413.53765,W,030907.00,A,A*7E
$GPRMC,030908.00,A,4916.45406,N,12413.53786,W,1.142,330.13,170621,,,A*7A
$GPVTG,330.13,T,,M,1.142,N,2.116,K,A*3D
$
+370.90
@23.90
#1009.47
%-42.78
:34
&35.40
GPGGA,030908.00,4916.45406,N,12413.53786,W,1,09,0.96,110.7,M,-1$GPRMC,030911.00,A,4916.45523,N,12413.53986,W,1.705,298.86,170621,,,A*70
$GPVTG,298.86,T,,M,1.705,N,3.158,K,A*3C
$GPGGA,030911.00,4916.45523,N,12413.53986,W,1,09,0.96,110.7,M,-17.7,M,,*62
$GPGSA,A,3,32,10,21,08,27,23,24,01,22,,,,1.81,0.96,1.54*0D
$GPGSV,4,1,13,01,18,310,42,08,36,253,30,10,57,074,39,14,01,333,*75
$GPGSV,4,2,13,21,41,304,25,22,17,274,32,23,23,084,36,24,17,044,40*70
$GPGSV,4,3,13,27,25,216,32,28,02,348,22,32,73,159,28,46,33,186,32*73
$GPGSV,4,4,13,51,31,158,*41
$GPGLL,4916.45523,N,12413.53986,W,030911.00,A,A*7A
$GPRMC,030912.00,A,4916.45543,N,12413.54086,W,2.542,290.22,170621,,,A*7F
$GPVTG,290.22,T,,M,2.542,N,4.707,K,A*33
$
+361.13
@23.91
#1009.47
%-42.60
:38
&35.41
GPGGA,030912.00,4916.45543,N,12413.54086,W,1,09,0.95,111.1,M,-1$GPRMC,030915.00,A,4916.45598,N,12413.54194,W,1.089,339.97,170621,,,A*71
$GPVTG,339.97,T,,M,1.089,N,2.017,K,A*3E
$GPGGA,030915.00,4916.45598,N,12413.54194,W,1,09,0.95,110.3,M,-17.7,M,,*6D
$GPGSA,A,3,32,10,21,08,27,23,24,01,22,,,,1.81,0.95,1.54*0E
$GPGSV,4,1,13,01,18,310,28,08,36,253,39,10,57,074,36,14,01,333,16*78
$GPGSV,4,2,13,21,41,304,37,22,17,274,30,23,23,084,40,24,17,044,29*7F
$GPGSV,4,3,13,27,25,216,37,28,02,348,29,32,73,159,34,46,33,186,33*71
$GPGSV,4,4,13,51,31,158,*41
$GPGLL,4916.45598,N,12413.54194,W,030915.00,A,A*72
$GPRMC,030916.00,A,4916.45671,N,12413.54220,W,2.950,345.95,170621,,,A*7D
$GPVTG,345.95,T,,M,2.950,N,5.464,K,A*3E
$
+356.25
@23.92
#1009.50
%-42.46
:42
&35.17
GPGGA,030916.00,4916.45671,N,12413.54220,W,1,09,0.95,110.3,M,-1$GPRMC,030919.00,A,4916.45853,N,12413.54245,W,2.191,355.92,170621,,,A*7C
$GPVTG,355.92,T,,M,2.191,N,4.057,K,A*38
$GPGGA,030919.00,4916.45853,N,12413.54245,W,1,09,1.00,110.6,M,-17.7,M,,*6C
$GPGSA,A,3,32,10,21,08,27,23,24,01,22,,,,1.84,1.00,1.55*07
$GPGSV,4,1,13,01,18,310,28,08,36,253,31,10,57,074,39,14,01,333,*78
$GPGSV,4,2,13,21,41,304,30,22,17,274,36,23,23,084,42,24,17,044,39*7D
$GPGSV,4,3,13,27,25,216,28,28,02,348,22,32,73,159,38,46,33,186,*78
$GPGSV,4,4,13,51,31,158,*41
$GPGLL,4916.45853,N,12413.54245,W,030919.00,A,A*7B
$GPRMC,030920.00,A,4916.45927,N,12413.54270,W,2.858,351.06,170621,,,A*77
$GPVTG,351.06,T,,M,2.858,N,5.292,K,A*37
$
+334.28
@23.89
#1009.48
%-42.78
:46
&34.83
GPGGA,030920.00,4916.45927,N,12413.54270,W,1,09,1.00,110.3,M,-1$GPRMC,030923.00,A,4916.46034,N,12413.54289,W,0.255,,170621,,,A*60
$GPVTG,,T,,M,0.255,N,0.473,K,A*21
$GPGGA,030923.00,4916.46034,N,12413.54289,W,1,09,0.95,109.3,M,-17.7,M,,*6F
$GPGSA,A,3,32,10,21,08,27,23,24,01,22,,,,1.81,0.95,1.53*09
$GPGSV,4,1,13,01,19,310,30,08,36,253,33,10,57,074,34,14,01,333,*7F
$GPGSV,4,2,13,21,41,304,39,22,17,274,31,23,23,084,39,24,17,044,38*7E
$GPGSV,4,3,13,27,25,216,33,28,02,348,20,32,73,159,27,46,33,186,*7E
$GPGSV,4,4,13,51,31,158,36*44
$GPGLL,4916.46034,N,12413.54289,W,030923.00,A,A*78
$GPRMC,030924.00,A,4916.46050,N,12413.54293,W,0.091,,170621,,,A*64
$GPVTG,,T,,M,0.091,N,0.169,K,A*25
$
+344.04
@23.87
#1009.46
%-42.37
:50
&34.93
GPGGA,030924.00,4916.46050,N,12413.54293,W,1,09,0.95,109.4,M,-1$GPRMC,030927.00,A,4916.46067,N,12413.54343,W,0.999,8.05,170621,,,A*7D
$GPVTG,8.05,T,,M,0.999,N,1.850,K,A*35
$GPGGA,030927.00,4916.46067,N,12413.54343,W,1,09,0.97,110.2,M,-17.7,M,,*61
$GPGSA,A,3,32,10,21,08,27,23,24,01,22,,,,1.87,0.97,1.59*07
$GPGSV,4,1,13,01,19,310,35,08,36,253,29,10,57,074,34,14,01,333,*71
$GPGSV,4,2,13,21,41,304,33,22,17,274,39,23,23,084,39,24,17,044,37*73
$GPGSV,4,3,13,27,25,216,31,28,02,348,,32,73,159,41,46,33,186,*7E
$GPGSV,4,4,13,51,31,158,37*45
$GPGLL,4916.46067,N,12413.54343,W,030927.00,A,A*7D
$GPRMC,030928.00,A,4916.46089,N,12413.54339,W,0.425,,170621,,,A*66
$GPVTG,,T,,M,0.425,N,0.787,K,A*28
$
+334.28
@23.86
#1009.51
%-42.87
:54
&35.58
GPGGA,030928.00,4916.46089,N,12413.54339,W,1,09,0.95,110.6,M,-1$GPRMC,030931.00,A,4916.46596,N,12413.53422,W,24.928,53.01,170621,,,A*70
$GPVTG,53.01,T,,M,24.928,N,46.166,K,A*0C
$GPGGA,030931.00,4916.46596,N,12413.53422,W,1,09,0.95,109.0,M,-17.7,M,,*62
$GPGSA,A,3,32,10,21,08,27,23,24,01,22,,,,1.81,0.95,1.53*09
$GPGSV,4,1,13,01,19,310,38,08,36,253,36,10,57,074,33,14,01,333,*75
$GPGSV,4,2,13,21,41,304,33,22,17,274,36,23,23,084,46,24,17,044,37*74
$GPGSV,4,3,13,27,25,216,34,28,02,348,21,32,73,159,38,46,33,186,*76
$GPGSV,4,4,13,51,31,158,37*45
$GPGLL,4916.46596,N,12413.53422,W,030931.00,A,A*76
$GPRMC,030932.00,A,4916.46858,N,12413.52903,W,13.950,50.22,170621,,,A*7A
$GPVTG,50.22,T,,M,13.950,N,25.835,K,A*0F
$
+200.00
@23.09
#1006.56
%-13.16
:58
&35.28
GPGGA,030932.00,4916.46858,N,12413.52903,W,1,09,0.95,111.2,M,-1$GPRMC,030935.00,A,4916.46393,N,12413.51513,W,17.449,157.64,170621,,,A*4A
$GPVTG,157.64,T,,M,17.449,N,32.315,K,A*35
$GPGGA,030935.00,4916.46393,N,12413.51513,W,1,09,0.96,132.9,M,-17.7,M,,*66
$GPGSA,A,3,32,10,21,08,27,23,24,01,22,,,,2.12,0.96,1.90*0C
$GPGSV,4,1,13,01,19,310,37,08,36,253,38,10,57,074,40,14,01,333,28*7A
$GPGSV,4,2,13,21,41,304,32,22,17,274,32,23,23,084,39,24,17,044,35*7B
$GPGSV,4,3,13,27,25,216,37,28,02,348,32,32,73,159,32,46,33,186,*7D
$GPGSV,4,4,13,51,31,158,35*47
$GPGLL,4916.46393,N,12413.51513,W,030935.00,A,A*70
$GPRMC,030936.00,A,4916.46010,N,12413.51345,W,12.458,164.31,170621,,,A*41
$GPVTG,164.31,T,,M,12.458,N,23.071,K,A*31
$
+200.00
@22.67
#1001.50
%29.76
:62
&34.89
GPGGA,030936.00,4916.46010,N,12413.51345,W,1,09,1.04,139.6,M,-1$GPRMC,030939.00,A,4916.46077,N,12413.50569,W,13.599,78.75,170621,,,A*77
$GPVTG,78.75,T,,M,13.599,N,25.186,K,A*0F
$GPGGA,030939.00,4916.46077,N,12413.50569,W,1,09,1.04,177.3,M,-17.7,M,,*6E
$GPGSA,A,3,32,10,21,08,27,23,24,01,22,,,,1.99,1.04,1.70*08
$GPGSV,4,1,14,01,19,310,31,08,36,253,32,10,57,074,44,14,01,333,38*74
$GPGSV,4,2,14,21,41,304,28,22,17,274,34,23,23,084,42,24,17,044,37*7F
$GPGSV,4,3,14,27,25,216,31,28,02,348,28,32,73,159,32,46,33,186,41*72
$GPGSV,4,4,14,48,33,192,41,51,31,158,31*77
$GPGLL,4916.46077,N,12413.50569,W,030939.00,A,A*79
$GPRMC,030940.00,A,4916.46222,N,12413.49928,W,17.175,70.06,170621,,,A*74
$GPVTG,70.06,T,,M,17.175,N,31.808,K,A*0B
$
+200.00
@22.39
#997.58
%58.80
:66
&34.96
GPGGA,030940.00,4916.46222,N,12413.49928,W,1,09,0.97,185.8,M,-1$GPRMC,030943.00,A,4916.46059,N,12413.48021,W,15.356,118.25,170621,,,A*47
$GPVTG,118.25,T,,M,15.356,N,28.439,K,A*32
$GPGGA,030943.00,4916.46059,N,12413.48021,W,1,09,0.95,187.3,M,-17.7,M,,*69
$GPGSA,A,3,32,10,21,08,27,23,24,01,22,,,,1.80,0.95,1.53*08
$GPGSV,4,1,14,01,19,310,33,08,36,253,28,10,57,074,43,14,01,333,30*72
$GPGSV,4,2,14,21,41,304,44,22,17,274,37,23,23,084,40,24,17,044,40*74
$GPGSV,4,3,14,27,25,216,32,28,02,348,39,32,73,159,29,46,33,186,35*78
$GPGSV,4,4,14,48,33,192,32,51,31,158,28*7B
$GPGLL,4916.46059,N,12413.48021,W,030943.00,A,A*78
$GPRMC,030944.00,A,4916.45612,N,12413.47433,W,23.936,143.74,170621,,,A*41
$GPVTG,143.74,T,,M,23.936,N,44.329,K,A*3D
$
+200.00
@22.35
#999.10
%42.24
:70
&35.26
GPGGA,030944.00,4916.45612,N,12413.47433,W,1,09,0.95,185.5,M,-1$GPRMC,030947.00,A,4916.44473,N,12413.44619,W,30.421,76.19,170621,,,A*7A
$GPVTG,76.19,T,,M,30.421,N,56.339,K,A*0A
$GPGGA,030947.00,4916.44473,N,12413.44619,W,1,09,1.04,180.4,M,-17.7,M,,*6B
$GPGSA,A,3,32,10,21,08,27,23,24,01,22,,,,1.99,1.04,1.70*08
$GPGSV,4,1,14,01,19,310,28,08,36,253,33,10,57,074,36,14,01,333,37*77
$GPGSV,4,2,14,21,41,304,38,22,17,274,38,23,23,084,36,24,17,044,27*70
$GPGSV,4,3,14,27,25,216,37,28,02,348,27,32,73,159,38,46,33,186,42*72
$GPGSV,4,4,14,48,33,192,39,51,31,158,33*7A
$GPGLL,4916.44473,N,12413.44619,W,030947.00,A,A*73
$GPRMC,030948.00,A,4916.45090,N,12413.43810,W,29.957,29.23,170621,,,A*7A
$GPVTG,29.23,T,,M,29.957,N,55.481,K,A*0A
$
+200.00
@22.14
#1000.20
%34.14
:74
&35.42
GPGGA,030948.00,4916.45090,N,12413.43810,W,1,09,1.12,180.8,M,-1$GPRMC,030951.00,A,4916.47018,N,12413.45532,W,34.975,287.76,170621,,,A*41
$GPVTG,287.76,T,,M,34.975,N,64.774,K,A*3B
$GPGGA,030951.00,4916.47018,N,12413.45532,W,1,09,1.03,172.3,M,-17.7,M,,*60
$GPGSA,A,3,32,10,21,08,27,23,24,01,22,,,,1.93,1.03,1.63*07
$GPGSV,4,1,14,01,19,310,41,08,36,253,31,10,57,074,36,14,01,333,44*7E
$GPGSV,4,2,14,21,41,304,42,22,17,274,35,23,23,084,31,24,17,044,41*77
$GPGSV,4,3,14,27,25,216,27,28,02,348,43,32,74,158,37,46,33,186,30*7D
$GPGSV,4,4,14,48,33,192,31,51,31,158,29*79
$GPGLL,4916.47018,N,12413.45532,W,030951.00,A,A*75
$GPRMC,030952.00,A,4916.46797,N,12413.47001,W,37.802,247.27,170621,,,A*4E
$GPVTG,247.27,T,,M,37.802,N,70.008,K,A*38
$
+200.00
@21.86
#1002.50
%15.82
:78
&35.72
GPGGA,030952.00,4916.46797,N,12413.47001,W,1,09,1.37,168.2,M,-1$GPRMC,030955.00,A,4916.44215,N,12413.48678,W,30.365,176.81,170621,,,A*43
$GPVTG,176.81,T,,M,30.365,N,56.236,K,A*33
$GPGGA,030955.00,4916.44215,N,12413.48678,W,1,09,1.03,165.6,M,-17.7,M,,*6B
$GPGSA,A,3,32,10,21,08,27,23,24,01,22,,,,1.99,1.03,1.70*0F
$GPGSV,4,1,13,01,19,310,31,08,36,253,42,10,57,074,33,14,01,333,36*7A
$GPGSV,4,2,13,21,41,304,37,22,17,274,44,23,23,084,31,24,17,044,24*77
$GPGSV,4,3,13,27,25,216,40,28,02,348,39,32,74,158,29,46,33,186,37*7E
$GPGSV,4,4,13,51,31,158,*41
$GPGLL,4916.44215,N,12413.48678,W,030955.00,A,A*7D
$GPRMC,030956.00,A,4916.43557,N,12413.48286,W,24.613,147.26,170621,,,A*4D
$GPVTG,147.26,T,,M,24.613,N,45.584,K,A*31
$
+200.00
@21.72
#1002.04
%19.85
:82
&35.78
GPGGA,030956.00,4916.43557,N,12413.48286,W,1,09,0.95,167.8,M,-1$GPRMC,030959.00,A,4916.43747,N,12413.46370,W,19.380,27.05,170621,,,A*70
$GPVTG,27.05,T,,M,19.380,N,35.892,K,A*0B
$GPGGA,030959.00,4916.43747,N,12413.46370,W,1,09,0.95,165.7,M,-17.7,M,,*6E
$GPGSA,A,3,32,10,21,08,27,23,24,01,22,,,,1.80,0.95,1.53*08
$GPGSV,4,1,14,01,19,310,37,08,36,253,33,10,57,074,38,14,01,333,31*71
$GPGSV,4,2,14,21,41,304,36,22,17,274,40,23,23,084,40,24,17,044,30*76
$GPGSV,4,3,14,27,25,216,43,28,02,348,31,32,74,158,29,46,33,186,35*70
$GPGSV,4,4,14,48,33,192,34,51,31,158,38*7C
$GPGLL,4916.43747,N,12413.46370,W,030959.00,A,A*77
$GPRMC,031000.00,A,4916.44285,N,12413.45975,W,22.669,23.73,170621,,,A*7B
$GPVTG,23.73,T,,M,22.669,N,41.983,K,A*06
$
+200.00
@21.62
#1002.65
%14.49
:86
&35.99
GPGGA,031000.00,4916.44285,N,12413.45975,W,1,09,1.01,163.7,M,-1$GPRMC,031003.00,A,4916.46056,N,12413.45396,W,22.694,356.08,170621,,,A*4E
$GPVTG,356.08,T,,M,22.694,N,42.030,K,A*3B
$GPGGA,031003.00,4916.46056,N,12413.45396,W,1,09,0.95,160.5,M,-17.7,M,,*67
$GPGSA,A,3,32,10,21,08,27,23,24,01,22,,,,1.80,0.95,1.53*08
$GPGSV,4,1,14,01,19,310,34,08,36,253,32,10,57,074,41,14,01,333,35*79
$GPGSV,4,2,14,21,41,304,38,22,17,274,39,23,23,084,40,24,17,044,36*70
$GPGSV,4,3,14,27,25,216,37,28,02,348,34,32,74,158,33,46,33,186,39*71
$GPGSV,4,4,14,48,33,192,41,51,31,158,35*73
$GPGLL,4916.46056,N,12413.45396,W,031003.00,A,A*79
$GPRMC,031004.00,A,4916.46696,N,12413.45763,W,25.587,332.04,170621,,,A*45
$GPVTG,332.04,T,,M,25.587,N,47.387,K,A*39
$
+200.00
@21.53
#1003.30
%8.54
:90
&36.22
GPGGA,031004.00,4916.46696,N,12413.45763,W,1,09,0.95,159.4,M,-1$GPRMC,031007.00,A,4916.47204,N,12413.48834,W,27.676,250.57,170621,,,A*44
$GPVTG,250.57,T,,M,27.676,N,51.257,K,A*3E
$GPGGA,031007.00,4916.47204,N,12413.48834,W,1,09,0.99,155.5,M,-17.7,M,,*63
$GPGSA,A,3,32,10,21,08,27,23,24,01,22,,,,2.19,0.99,1.96*0E
$GPGSV,4,1,14,01,19,310,47,08,36,253,32,10,57,074,37,14,01,333,42*7C
$GPGSV,4,2,14,21,41,304,45,22,17,274,37,23,23,084,36,24,17,044,37*74
$GPGSV,4,3,14,27,25,216,33,28,02,348,36,32,74,158,40,46,33,186,*79
$GPGSV,4,4,14,48,33,192,36,51,31,158,*75
$GPGLL,4916.47204,N,12413.48834,W,031007.00,A,A*77
$GPRMC,031008.00,A,4916.46726,N,12413.49627,W,25.898,218.02,170621,,,A*42
$GPVTG,218.02,T,,M,25.898,N,47.964,K,A*32
$
+200.00
@21.38
#1003.49
%7.10
:94
&36.74
GPGGA,031008.00,4916.46726,N,12413.49627,W,1,09,0.95,155.3,M,-1$GPRMC,031011.00,A,4916.45030,N,12413.50017,W,21.311,171.09,170621,,,A*4D
$GPVTG,171.09,T,,M,21.311,N,39.467,K,A*3C
$GPGGA,031011.00,4916.45030,N,12413.50017,W,1,09,0.97,155.1,M,-17.7,M,,*69
$GPGSA,A,3,32,10,21,08,27,23,24,01,22,,,,1.97,0.97,1.71*0C
$GPGSV,4,1,13,01,19,310,35,08,36,253,30,10,57,074,28,14,01,333,32*75
$GPGSV,4,2,13,21,41,304,40,22,17,274,42,23,23,084,27,24,17,044,34*77
$GPGSV,4,3,13,27,25,216,41,28,02,348,34,32,74,158,40,46,33,186,*79
$GPGSV,4,4,13,51,31,158,*41
$GPGLL,4916.45030,N,12413.50017,W,031011.00,A,A*77
$GPRMC,031012.00,A,4916.44437,N,12413.49652,W,23.229,152.03,170621,,,A*40
$GPVTG,152.03,T,,M,23.229,N,43.020,K,A*35
$
+200.00
@21.29
#1004.19
%0.87
:98
&36.72
GPGGA,031012.00,4916.44437,N,12413.49652,W,1,09,0.95,154.2,M,-1$GPRMC,031015.00,A,4916.44800,N,12413.47960,W,21.908,7.23,170621,,,A*46
$GPVTG,7.23,T,,M,21.908,N,40.573,K,A*3C
$GPGGA,031015.00,4916.44800,N,12413.47960,W,1,09,0.95,150.9,M,-17.7,M,,*67
$GPGSA,A,3,32,10,21,08,27,23,24,01,22,,,,1.80,0.95,1.53*08
$GPGSV,4,1,14,01,19,310,36,08,36,253,30,10,57,074,44,14,01,333,36*7F
$GPGSV,4,2,14,21,41,304,32,22,17,274,35,23,23,084,46,24,17,044,37*71
$GPGSV,4,3,14,27,25,216,32,28,02,348,33,32,74,158,33,46,33,186,*79
$GPGSV,4,4,14,48,33,192,34,51,31,158,*77
$GPGLL,4916.44800,N,12413.47960,W,031015.00,A,A*76
$GPRMC,031016.00,A,4916.45427,N,12413.48242,W,24.624,335.00,170621,,,A*4E
$GPVTG,335.00,T,,M,24.624,N,45.603,K,A*3A
$
+200.00
@21.20
#1005.02
%-7.04
:102
&36.71
GPGGA,031016.00,4916.45427,N,12413.48242,W,1,09,1.03,150.0,M,-1$GPRMC,031019.00,A,4916.46178,N,12413.51485,W,30.474,276.80,170621,,,A*44
$GPVTG,276.80,T,,M,30.474,N,56.438,K,A*3E
$GPGGA,031019.00,4916.46178,N,12413.51485,W,1,09,1.06,143.2,M,-17.7,M,,*6C
$GPGSA,A,3,32,10,21,08,27,23,24,01,22,,,,2.25,1.06,1.98*08
$GPGSV,4,1,14,01,19,310,29,08,36,253,35,10,57,074,40,14,01,332,35*72
$GPGSV,4,2,14,21,41,304,38,22,17,274,34,23,23,084,39,24,17,044,33*76
$GPGSV,4,3,14,27,25,216,42,28,02,348,36,32,74,158,42,46,33,186,*7D
$GPGSV,4,4,14,48,33,192,38,51,31,158,*7B
$GPGLL,4916.46178,N,12413.51485,W,031019.00,A,A*7F
$GPRMC,031020.00,A,4916.46449,N,12413.52614,W,27.903,296.25,170621,,,A*4A
$GPVTG,296.25,T,,M,27.903,N,51.677,K,A*3A
$
+200.00
@21.03
#1006.01
%-13.04
:106
&37.20
GPGGA,031020.00,4916.46449,N,12413.52614,W,1,09,1.67,140.5,M,-1$GPRMC,031023.00,A,4916.48192,N,12413.51755,W,22.203,71.66,170621,,,A*71
$GPVTG,71.66,T,,M,22.203,N,41.120,K,A*0C
$GPGGA,031023.00,4916.48192,N,12413.51755,W,1,09,1.39,142.8,M,-17.7,M,,*66
$GPGSA,A,3,32,10,21,08,27,23,24,01,22,,,,2.46,1.39,2.03*00
$GPGSV,4,1,14,01,19,310,42,08,36,253,35,10,57,074,35,14,01,332,41*7E
$GPGSV,4,2,14,21,41,304,40,22,17,274,32,23,23,084,40,24,17,044,39*7B
$GPGSV,4,3,14,27,25,216,33,28,02,348,34,32,74,158,34,46,33,186,*78
$GPGSV,4,4,14,48,33,192,31,51,31,158,*72
$GPGLL,4916.48192,N,12413.51755,W,031023.00,A,A*72
$GPRMC,031024.00,A,4916.47938,N,12413.50912,W,22.562,121.83,170621,,,A*42
$GPVTG,121.83,T,,M,22.562,N,41.784,K,A*3B
$
+200.00
@20.84
#1003.67
%8.64
:110
&37.44
GPGGA,031024.00,4916.47938,N,12413.50912,W,1,09,0.95,147.8,M,-1$GPRMC,031027.00,A,4916.45879,N,12413.48906,W,32.252,148.80,170621,,,A*42
$GPVTG,148.80,T,,M,32.252,N,59.732,K,A*36
$GPGGA,031027.00,4916.45879,N,12413.48906,W,1,09,0.97,177.1,M,-17.7,M,,*69
$GPGSA,A,3,32,10,21,08,27,23,24,01,22,,,,2.20,0.97,1.98*04
$GPGSV,4,1,14,01,19,310,36,08,36,253,37,10,57,074,35,14,01,332,39*70
$GPGSV,4,2,14,21,42,303,38,22,17,274,36,23,23,084,34,24,17,044,34*7A
$GPGSV,4,3,14,27,25,216,38,28,02,348,36,32,74,158,30,46,33,186,*75
$GPGSV,4,4,14,48,33,192,33,51,31,158,37*74
$GPGLL,4916.45879,N,12413.48906,W,031027.00,A,A*77
$GPRMC,031028.00,A,4916.45056,N,12413.48190,W,35.022,150.22,170621,,,A*4C
$GPVTG,150.22,T,,M,35.022,N,64.861,K,A*32
$
+200.00
@20.62
#1000.59
%33.52
:114
&37.66
GPGGA,031028.00,4916.45056,N,12413.48190,W,1,09,1.03,181.4,M,-1$GPRMC,031031.00,A,4916.43395,N,12413.46471,W,17.377,134.58,170621,,,A*46
$GPVTG,134.58,T,,M,17.377,N,32.182,K,A*39
$GPGGA,031031.00,4916.43395,N,12413.46471,W,1,09,1.06,190.2,M,-17.7,M,,*61
$GPGSA,A,3,32,10,21,08,27,23,24,01,22,,,,2.24,1.06,1.97*06
$GPGSV,4,1,14,01,19,310,36,08,36,253,35,10,57,074,24,14,01,332,42*7E
$GPGSV,4,2,14,21,42,303,33,22,17,274,38,23,22,084,26,24,17,043,38*76
$GPGSV,4,3,14,27,25,216,39,28,02,348,37,32,74,158,31,46,33,186,*74
$GPGSV,4,4,14,48,33,192,37,51,31,158,33*74
$GPGLL,4916.43395,N,12413.46471,W,031031.00,A,A*7C
$GPRMC,031032.00,A,4916.43138,N,12413.45870,W,16.670,117.64,170621,,,A*43
$GPVTG,117.64,T,,M,16.670,N,30.872,K,A*30
$
+200.00
@20.52
#1000.70
%30.45
:118
&38.10
GPGGA,031032.00,4916.43138,N,12413.45870,W,1,09,1.03,187.8,M,-1$GPRMC,031035.00,A,4916.44004,N,12413.44514,W,21.086,346.35,170621,,,A*4A
$GPVTG,346.35,T,,M,21.086,N,39.052,K,A*3A
$GPGGA,031035.00,4916.44004,N,12413.44514,W,1,09,1.03,182.7,M,-17.7,M,,*6A
$GPGSA,A,3,32,10,21,08,27,23,24,01,22,,,,1.98,1.03,1.69*06
$GPGSV,4,1,13,01,19,310,30,08,36,253,30,10,57,074,36,14,01,332,33*7F
$GPGSV,4,2,13,21,42,303,33,22,17,274,34,23,22,084,45,24,17,043,45*72
$GPGSV,4,3,13,27,25,216,32,28,02,347,38,32,74,158,39,46,33,186,*70
$GPGSV,4,4,13,51,31,158,37*45
$GPGLL,4916.44004,N,12413.44514,W,031035.00,A,A*74
$GPRMC,031036.00,A,4916.44487,N,12413.45097,W,24.008,313.28,170621,,,A*46
$GPVTG,313.28,T,,M,24.008,N,44.463,K,A*39
$
+200.00
@20.40
#1001.99
%18.58
:122
&38.26
GPGGA,031036.00,4916.44487,N,12413.45097,W,1,09,0.95,180.1,M,-1$GPRMC,031039.00,A,4916.44099,N,12413.48577,W,31.699,256.05,170621,,,A*41
$GPVTG,256.05,T,,M,31.699,N,58.707,K,A*30
$GPGGA,031039.00,4916.44099,N,12413.48577,W,1,09,0.99,171.5,M,-17.7,M,,*67
$GPGSA,A,3,32,10,21,08,27,23,24,01,22,,,,1.83,0.99,1.54*00
$GPGSV,4,1,13,01,19,310,28,08,36,253,37,10,57,074,31,14,01,332,35*70
$GPGSV,4,2,13,21,42,303,31,22,17,274,39,23,22,084,40,24,17,043,34*7E
$GPGSV,4,3,13,27,25,216,32,28,02,347,37,32,74,157,42,46,33,186,*7C
$GPGSV,4,4,13,51,31,158,35*47
$GPGLL,4916.44099,N,12413.48577,W,031039.00,A,A*75
$GPRMC,031040.00,A,4916.44264,N,12413.49732,W,27.116,289.45,170621,,,A*4C
$GPVTG,289.45,T,,M,27.116,N,50.220,K,A*39
$
+200.00
@20.20
#1003.00
%9.59
:126
&38.53
GPGGA,031040.00,4916.44264,N,12413.49732,W,1,09,1.06,170.9,M,-1$GPRMC,031043.00,A,4916.46126,N,12413.50005,W,25.945,27.34,170621,,,A*7F
$GPVTG,27.34,T,,M,25.945,N,48.049,K,A*01
$GPGGA,031043.00,4916.46126,N,12413.50005,W,1,09,0.95,161.9,M,-17.7,M,,*65
$GPGSA,A,3,32,10,21,08,27,23,24,01,22,,,,2.12,0.95,1.90*0F
$GPGSV,4,1,14,01,19,310,41,08,36,253,39,10,57,074,32,14,01,332,35*75
$GPGSV,4,2,14,21,42,303,40,22,17,274,37,23,22,084,38,24,17,043,36*7C
$GPGSV,4,3,14,27,25,216,35,28,02,347,39,32,74,157,34,46,33,186,38*78
$GPGSV,4,4,14,48,33,192,29,51,31,158,36*7E
$GPGLL,4916.46126,N,12413.50005,W,031043.00,A,A*76
$GPRMC,031044.00,A,4916.46687,N,12413.49529,W,21.073,31.71,170621,,,A*79
$GPVTG,31.71,T,,M,21.073,N,39.027,K,A*01
$
+200.00
@20.05
#1002.99
%11.38
:130
&38.68
GPGGA,031044.00,4916.46687,N,12413.49529,W,1,09,0.94,161.7,M,-1$GPRMC,031047.00,A,4916.47801,N,12413.47639,W,26.262,63.29,170621,,,A*78
$GPVTG,63.29,T,,M,26.262,N,48.637,K,A*0F
$GPGGA,031047.00,4916.47801,N,12413.47639,W,1,09,1.76,159.3,M,-17.7,M,,*6E
$GPGSA,A,3,32,10,21,08,27,23,24,01,22,,,,2.69,1.76,2.04*01
$GPGSV,4,1,14,01,19,310,31,08,36,253,32,10,57,074,37,14,01,332,36*7F
$GPGSV,4,2,14,21,42,303,30,22,17,274,39,23,22,084,43,24,17,043,38*77
$GPGSV,4,3,14,27,25,216,34,28,02,347,36,32,74,157,34,46,33,186,30*7E
$GPGSV,4,4,14,48,33,192,31,51,31,158,36*77
$GPGLL,4916.47801,N,12413.47639,W,031047.00,A,A*70
$GPRMC,031048.00,A,4916.47583,N,12413.46809,W,24.852,125.56,170621,,,A*4C
$GPVTG,125.56,T,,M,24.852,N,46.026,K,A*37
$
+200.00
@19.93
#1000.97
%35.98
:134
&38.99
GPGGA,031048.00,4916.47583,N,12413.46809,W,1,09,1.61,179.8,M,-1$GPRMC,031051.00,A,4916.45902,N,12413.45931,W,14.544,173.49,170621,,,A*4E
$GPVTG,173.49,T,,M,14.544,N,26.935,K,A*3E
$GPGGA,031051.00,4916.45902,N,12413.45931,W,1,09,1.02,196.1,M,-17.7,M,,*6E
$GPGSA,A,3,32,10,21,08,27,23,24,01,22,,,,1.97,1.02,1.68*09
$GPGSV,4,1,14,01,19,310,23,08,36,253,39,10,57,074,39,14,01,332,38*77
$GPGSV,4,2,14,21,42,303,31,22,17,274,32,23,22,084,38,24,17,043,28*70
$GPGSV,4,3,14,27,25,216,40,28,02,347,35,32,74,157,28,46,33,186,32*71
$GPGSV,4,4,14,48,33,192,32,51,31,158,40*75
$GPGLL,4916.45902,N,12413.45931,W,031051.00,A,A*72
$GPRMC,031052.00,A,4916.45528,N,12413.45824,W,12.702,170.91,170621,,,A*4C
$GPVTG,170.91,T,,M,12.702,N,23.525,K,A*36
$
+200.00
@19.79
#1000.05
%35.69
:138
&39.78
GPGGA,031052.00,4916.45528,N,12413.45824,W,1,08,1.05,196.7,M,-1$GPRMC,031055.00,A,4916.44177,N,12413.44521,W,18.845,113.88,170621,,,A*46
$GPVTG,113.88,T,,M,18.845,N,34.900,K,A*30
$GPGGA,031055.00,4916.44177,N,12413.44521,W,1,08,1.05,188.0,M,-17.7,M,,*65
$GPGSA,A,3,32,10,08,27,23,24,01,22,,,,,2.00,1.05,1.70*09
$GPGSV,4,1,13,01,19,310,38,08,36,253,41,10,57,074,34,14,01,332,33*73
$GPGSV,4,2,13,21,42,303,28,22,17,274,41,23,22,084,32,24,17,043,29*70
$GPGSV,4,3,13,27,25,216,40,28,02,347,27,32,74,157,43,46,33,186,37*7D
$GPGSV,4,4,13,51,31,158,47*42
$GPGLL,4916.44177,N,12413.44521,W,031055.00,A,A*71
$GPRMC,031056.00,A,4916.44302,N,12413.43702,W,20.543,59.60,170621,,,A*78
$GPVTG,59.60,T,,M,20.543,N,38.046,K,A*0E
$
+200.00
@19.54
#1001.92
%19.20
:142
&39.82
GPGGA,031056.00,4916.44302,N,12413.43702,W,1,09,0.97,182.6,M,-1$GPRMC,031059.00,A,4916.46523,N,12413.44631,W,33.864,312.78,170621,,,A*49
$GPVTG,312.78,T,,M,33.864,N,62.716,K,A*3C
$GPGGA,031059.00,4916.46523,N,12413.44631,W,1,09,0.94,171.0,M,-17.7,M,,*62
$GPGSA,A,3,32,10,21,08,27,23,24,01,22,,,,1.79,0.94,1.52*0E
$GPGSV,4,1,14,01,19,310,27,08,36,253,24,10,57,074,36,14,01,332,43*7C
$GPGSV,4,2,14,21,42,303,34,22,17,274,29,23,22,084,39,24,17,043,43*73
$GPGSV,4,3,14,27,25,216,28,28,02,347,42,32,74,157,32,46,33,186,*75
$GPGSV,4,4,14,48,33,192,31,51,31,158,34*75
$GPGLL,4916.46523,N,12413.44631,W,031059.00,A,A*78
$GPRMC,031100.00,A,4916.47012,N,12413.45872,W,34.532,294.95,170621,,,A*4F
$GPVTG,294.95,T,,M,34.532,N,63.953,K,A*37
$
+200.00
@19.44
#1002.84
%12.50
:146
&40.04
GPGGA,031100.00,4916.47012,N,12413.45872,W,1,09,0.94,169.2,M,-1$GPRMC,031103.00,A,4916.47874,N,12413.49727,W,29.620,289.93,170621,,,A*41
$GPVTG,289.93,T,,M,29.620,N,54.856,K,A*31
$GPGGA,031103.00,4916.47874,N,12413.49727,W,1,09,1.05,164.9,M,-17.7,M,,*6D
$GPGSA,A,3,32,10,21,08,27,23,24,01,22,,,,2.65,1.05,2.43*0A
$GPGSV,4,1,14,01,19,310,31,08,35,252,36,10,56,074,32,14,01,332,36*7D
$GPGSV,4,2,14,21,42,303,27,22,17,274,36,23,22,084,29,24,17,043,32*78
$GPGSV,4,3,14,27,25,216,39,28,02,347,37,32,74,157,32,46,33,186,31*75
$GPGSV,4,4,14,48,33,192,38,51,31,158,39*71
$GPGLL,4916.47874,N,12413.49727,W,031103.00,A,A*73
$GPRMC,031104.00,A,4916.48225,N,12413.50849,W,29.265,298.14,170621,,,A*42
$GPVTG,298.14,T,,M,29.265,N,54.199,K,A*31
$
+200.00
@19.20
#1003.48
%6.44
:150
&40.57
GPGGA,031104.00,4916.48225,N,12413.50849,W,1,09,1.05,163.2,M,-1$GPRMC,031107.00,A,4916.50193,N,12413.52058,W,24.990,21.47,170621,,,A*76
$GPVTG,21.47,T,,M,24.990,N,46.281,K,A*02
$GPGGA,031107.00,4916.50193,N,12413.52058,W,1,09,0.95,158.7,M,-17.7,M,,*63
$GPGSA,A,3,32,10,21,08,27,23,24,01,22,,,,2.12,0.95,1.90*0F
$GPGSV,4,1,14,01,19,310,35,08,35,252,39,10,56,074,29,14,01,332,35*7F
$GPGSV,4,2,14,21,42,303,43,22,17,274,38,23,22,084,34,24,17,043,37*7D
$GPGSV,4,3,14,27,25,216,30,28,02,347,41,32,74,157,38,46,33,186,35*73
$GPGSV,4,4,14,48,33,192,26,51,31,158,35*72
$GPGLL,4916.50193,N,12413.52058,W,031107.00,A,A*74
$GPRMC,031108.00,A,4916.50531,N,12413.51456,W,18.565,66.91,170621,,,A*7D
$GPVTG,66.91,T,,M,18.565,N,34.383,K,A*05
$
+200.00
@19.11
#1003.04
%10.06
:154
&41.30
GPGGA,031108.00,4916.50531,N,12413.51456,W,1,09,0.94,163.4,M,-1$GPRMC,031111.00,A,4916.49663,N,12413.49819,W,20.791,144.43,170621,,,A*4B
$GPVTG,144.43,T,,M,20.791,N,38.506,K,A*3E
$GPGGA,031111.00,4916.49663,N,12413.49819,W,1,09,0.94,157.4,M,-17.7,M,,*6E
$GPGSA,A,3,32,10,21,08,27,23,24,01,22,,,,1.78,0.94,1.52*0F
$GPGSV,4,1,14,01,19,310,40,08,35,252,33,10,56,074,26,14,01,332,34*79
$GPGSV,4,2,14,21,42,303,26,22,17,274,40,23,22,084,40,24,17,043,28*7C
$GPGSV,4,3,14,27,25,216,39,28,02,347,43,32,74,157,41,46,33,186,37*74
$GPGSV,4,4,14,48,33,192,33,51,31,158,35*76
$GPGLL,4916.49663,N,12413.49819,W,031111.00,A,A*74
$GPRMC,031112.00,A,4916.49198,N,12413.49200,W,23.448,135.63,170621,,,A*49
$GPVTG,135.63,T,,M,23.448,N,43.425,K,A*32
$
+200.00
@18.94
#1003.51
%7.39
:159
&40.82
GPGGA,031112.00,4916.49198,N,12413.49200,W,1,09,0.94,159.5,M,-1$GPRMC,031115.00,A,4916.47828,N,12413.47710,W,24.989,154.23,170621,,,A*4C
$GPVTG,154.23,T,,M,24.989,N,46.279,K,A*3C
$GPGGA,031115.00,4916.47828,N,12413.47710,W,1,08,1.38,164.7,M,-17.7,M,,*68
$GPGSA,A,3,10,21,08,27,23,24,01,22,,,,,2.46,1.38,2.04*07
$GPGSV,4,1,14,01,19,310,31,08,35,252,36,10,56,074,39,14,01,332,41*76
$GPGSV,4,2,14,21,42,303,31,22,17,275,34,23,22,084,36,24,17,043,32*72
$GPGSV,4,3,14,27,25,216,40,28,02,347,39,32,74,157,33,46,33,186,33*76
$GPGSV,4,4,14,48,33,192,35,51,31,158,41*73
$GPGLL,4916.47828,N,12413.47710,W,031115.00,A,A*77
$GPRMC,031116.00,A,4916.47161,N,12413.47327,W,26.835,160.34,170621,,,A*4E
$GPVTG,160.34,T,,M,26.835,N,49.698,K,A*3D
$
+200.00
@19.09
#1001.91
%23.72
:162
&40.71
GPGGA,031116.00,4916.47161,N,12413.47327,W,1,07,1.38,168.6,M,-1$GPRMC,031119.00,A,4916.45898,N,12413.45169,W,20.897,109.00,170621,,,A*40
$GPVTG,109.00,T,,M,20.897,N,38.702,K,A*3F
$GPGGA,031119.00,4916.45898,N,12413.45169,W,1,09,1.04,190.7,M,-17.7,M,,*62
$GPGSA,A,3,32,10,21,08,27,23,24,01,22,,,,1.99,1.04,1.70*08
$GPGSV,4,1,14,01,19,310,26,08,35,252,34,10,56,074,36,14,01,332,39*72
$GPGSV,4,2,14,21,42,303,25,22,17,275,35,23,22,084,38,24,17,043,34*7E
$GPGSV,4,3,14,27,24,216,38,28,02,347,40,32,74,157,33,46,33,186,43*71
$GPGSV,4,4,14,48,33,192,40,51,31,158,40*70
$GPGLL,4916.45898,N,12413.45169,W,031119.00,A,A*78
$GPRMC,031120.00,A,4916.45745,N,12413.44404,W,17.309,105.18,170621,,,A*47
$GPVTG,105.18,T,,M,17.309,N,32.056,K,A*3E
$
+200.00
@19.23
#998.34
%51.88
:166
&40.74
GPGGA,031120.00,4916.45745,N,12413.44404,W,1,08,0.97,198.2,M,-1$GPRMC,031123.00,A,4916.45178,N,12413.43129,W,11.456,130.50,170621,,,A*40
$GPVTG,130.50,T,,M,11.456,N,21.216,K,A*3B
$GPGGA,031123.00,4916.45178,N,12413.43129,W,1,09,0.98,199.3,M,-17.7,M,,*67
$GPGSA,A,3,32,10,21,08,27,23,24,01,22,,,,2.18,0.98,1.95*0D
$GPGSV,4,1,14,01,19,310,38,08,35,252,38,10,56,074,41,14,01,332,37*7F
$GPGSV,4,2,14,21,42,303,43,22,17,275,41,23,22,084,42,24,17,043,25*70
$GPGSV,4,3,14,27,24,216,35,28,02,347,26,32,74,157,33,46,33,186,34*7C
$GPGSV,4,4,14,48,33,192,31,51,31,158,31*70
$GPGLL,4916.45178,N,12413.43129,W,031123.00,A,A*74
$GPRMC,031124.00,A,4916.44597,N,12413.42695,W,24.579,151.82,170621,,,A*40
$GPVTG,151.82,T,,M,24.579,N,45.521,K,A*38
$
+200.00
@19.33
#999.66
%40.87
:170
&40.52
GPGGA,031124.00,4916.44597,N,12413.42695,W,1,09,1.04,196.2,M,-1$GPRMC,031127.00,A,4916.43893,N,12413.40520,W,17.451,56.67,170621,,,A*74
$GPVTG,56.67,T,,M,17.451,N,32.320,K,A*09
$GPGGA,031127.00,4916.43893,N,12413.40520,W,1,09,0.94,197.1,M,-17.7,M,,*67
$GPGSA,A,3,32,10,21,08,27,23,24,01,22,,,,1.78,0.94,1.51*0C
$GPGSV,4,1,14,01,19,310,32,08,35,252,37,10,56,074,42,14,01,332,30*7E
$GPGSV,4,2,14,21,42,303,29,22,17,275,32,23,22,084,44,24,17,043,36*7C
$GPGSV,4,3,14,27,24,216,38,28,02,347,32,32,74,156,39,46,33,186,37*7C
$GPGSV,4,4,14,48,33,192,38,51,31,158,43*7C
$GPGLL,4916.43893,N,12413.40520,W,031127.00,A,A*74
$GPRMC,031128.00,A,4916.44401,N,12413.40276,W,21.287,6.35,170621,,,A*45
$GPVTG,6.35,T,,M,21.287,N,39.423,K,A*3C
$
+200.00
@19.47
#1000.22
%32.52
:174
&40.34
GPGGA,031128.00,4916.44401,N,12413.40276,W,1,09,0.94,195.3,M,-1$GPRMC,031131.00,A,4916.46047,N,12413.42417,W,31.136,314.84,170621,,,A*48
$GPVTG,314.84,T,,M,31.136,N,57.664,K,A*37
$GPGGA,031131.00,4916.46047,N,12413.42417,W,1,09,1.02,182.6,M,-17.7,M,,*6E
$GPGSA,A,3,32,10,21,08,27,23,24,01,22,,,,2.48,1.02,2.26*01
$GPGSV,4,1,14,01,19,310,33,08,35,252,30,10,56,074,33,14,01,332,28*77
$GPGSV,4,2,14,21,42,303,35,22,17,275,36,23,22,084,30,24,17,043,38*78
$GPGSV,4,3,14,27,24,216,40,28,02,347,31,32,74,156,32,46,33,186,36*7A
$GPGSV,4,4,14,48,33,192,35,51,31,158,39*7C
$GPGLL,4916.46047,N,12413.42417,W,031131.00,A,A*70
$GPRMC,031132.00,A,4916.46675,N,12413.43454,W,34.582,312.61,170621,,,A*49
$GPVTG,312.61,T,,M,34.582,N,64.046,K,A*32
$
+200.00
@19.53
#1002.32
%15.15
:179
&40.21
GPGGA,031132.00,4916.46675,N,12413.43454,W,1,09,1.02,177.9,M,-1$GPRMC,031135.00,A,4916.48421,N,12413.47265,W,38.864,307.15,170621,,,A*4D
$GPVTG,307.15,T,,M,38.864,N,71.975,K,A*31
$GPGGA,031135.00,4916.48421,N,12413.47265,W,1,08,1.02,167.1,M,-17.7,M,,*6B
$GPGSA,A,3,32,10,21,08,27,23,01,22,,,,,1.91,1.02,1.61*00
$GPGSV,4,1,14,01,19,310,31,08,35,252,39,10,56,074,32,14,01,332,34*70
$GPGSV,4,2,14,21,42,303,28,22,17,275,38,23,22,084,39,24,17,043,37*7C
$GPGSV,4,3,14,27,24,216,37,28,02,347,31,32,74,156,35,46,33,186,41*7D
$GPGSV,4,4,14,48,33,192,39,51,31,158,39*70
$GPGLL,4916.48421,N,12413.47265,W,031135.00,A,A*78
$GPRMC,031136.00,A,4916.49092,N,12413.48491,W,37.307,310.88,170621,,,A*42
$GPVTG,310.88,T,,M,37.307,N,69.093,K,A*3A
$
+200.00
@19.56
#1003.86
%4.38
:183
&40.20
GPGGA,031136.00,4916.49092,N,12413.48491,W,1,09,1.38,163.8,M,-1$GPRMC,031139.00,A,4916.51416,N,12413.50859,W,28.693,355.32,170621,,,A*4B
$GPVTG,355.32,T,,M,28.693,N,53.139,K,A*34
$GPGGA,031139.00,4916.51416,N,12413.50859,W,1,09,1.07,158.3,M,-17.7,M,,*62
$GPGSA,A,3,32,10,21,08,27,23,24,01,22,,,,2.02,1.07,1.71*0B
$GPGSV,4,1,14,01,19,310,40,08,35,252,33,10,56,074,35,14,01,332,41*79
$GPGSV,4,2,14,21,42,303,39,22,17,275,40,23,22,084,30,24,17,043,31*7C
$GPGSV,4,3,14,27,24,216,38,28,02,347,41,32,74,156,35,46,33,186,38*7B
$GPGSV,4,4,14,48,33,192,37,51,31,158,34*73
$GPGLL,4916.51416,N,12413.50859,W,031139.00,A,A*7B
$GPRMC,031140.00,A,4916.51956,N,12413.50398,W,21.189,46.62,170621,,,A*7B
$GPVTG,46.62,T,,M,21.189,N,39.242,K,A*06
$
+200.00
@19.57
#1003.50
%6.23
:187
&40.24
GPGGA,031140.00,4916.51956,N,12413.50398,W,1,09,1.38,158.5,M,-1$GPRMC,031143.00,A,4916.51358,N,12413.48426,W,21.380,148.50,170621,,,A*42
$GPVTG,148.50,T,,M,21.380,N,39.595,K,A*3E
$GPGGA,031143.00,4916.51358,N,12413.48426,W,1,09,0.97,153.2,M,-17.7,M,,*6D
$GPGSA,A,3,32,10,21,08,27,23,24,01,22,,,,1.80,0.97,1.51*08
$GPGSV,4,1,14,01,20,310,41,08,35,252,32,10,56,074,37,14,01,332,32*75
$GPGSV,4,2,14,21,42,303,36,22,17,275,38,23,22,084,42,24,17,043,29*70
$GPGSV,4,3,14,27,24,216,41,28,02,347,37,32,74,156,37,46,33,186,33*7D
$GPGSV,4,4,14,48,33,192,35,51,31,158,33*76
$GPGLL,4916.51358,N,12413.48426,W,031143.00,A,A*76
$GPRMC,031144.00,A,4916.50692,N,12413.48135,W,24.404,168.20,170621,,,A*4B
$GPVTG,168.20,T,,M,24.404,N,45.197,K,A*38
$
+200.00
@19.57
#1004.68
%-3.01
:191
&40.45
GPGGA,031144.00,4916.50692,N,12413.48135,W,1,09,1.35,149.2,M,-1$GPRMC,031147.00,A,4916.48496,N,12413.47984,W,27.747,176.62,170621,,,A*44
$GPVTG,176.62,T,,M,27.747,N,51.388,K,A*3F
$GPGGA,031147.00,4916.48496,N,12413.47984,W,1,09,0.94,145.8,M,-17.7,M,,*60
$GPGSA,A,3,32,10,21,08,27,23,24,01,22,,,,1.78,0.94,1.51*0C
$GPGSV,4,1,14,01,20,310,38,08,35,252,33,10,56,074,30,14,01,332,36*79
$GPGSV,4,2,14,21,42,303,36,22,17,275,30,23,22,084,28,24,17,043,35*79
$GPGSV,4,3,14,27,24,216,43,28,02,347,36,32,74,156,34,46,33,186,31*7F
$GPGSV,4,4,14,48,33,192,30,51,31,158,34*74
$GPGLL,4916.48496,N,12413.47984,W,031147.00,A,A*75
$GPRMC,031148.00,A,4916.47685,N,12413.47823,W,32.103,171.37,170621,,,A*4D
$GPVTG,171.37,T,,M,32.103,N,59.455,K,A*35
$
+200.00
@19.56
#1003.88
%10.33
:195
&39.91
GPGGA,031148.00,4916.47685,N,12413.47823,W,1,09,0.94,145.8,M,-1$GPRMC,031151.00,A,4916.45606,N,12413.46741,W,23.969,158.35,170621,,,A*4B
$GPVTG,158.35,T,,M,23.969,N,44.391,K,A*3B
$GPGGA,031151.00,4916.45606,N,12413.46741,W,1,09,1.02,168.7,M,-17.7,M,,*69
$GPGSA,A,3,32,10,21,08,27,23,24,01,22,,,,2.48,1.02,2.26*01
$GPGSV,4,1,14,01,20,310,31,08,35,252,42,10,56,075,31,14,01,332,37*77
$GPGSV,4,2,14,21,42,303,35,22,17,275,35,23,22,084,41,24,17,043,29*7D
$GPGSV,4,3,14,27,24,216,34,28,02,347,35,32,74,156,38,46,33,186,32*73
$GPGSV,4,4,14,48,33,192,29,51,31,158,39*71
$GPGLL,4916.45606,N,12413.46741,W,031151.00,A,A*72
$GPRMC,031152.00,A,4916.44995,N,12413.46398,W,21.371,158.96,170621,,,A*44
$GPVTG,158.96,T,,M,21.371,N,39.580,K,A*3F
$
+200.00
@19.54
#1001.60
%23.58
:199
&40.15
GPGGA,031152.00,4916.44995,N,12413.46398,W,1,09,0.97,170.0,M,-1$GPRMC,031155.00,A,4916.44037,N,12413.45046,W,12.625,106.93,170621,,,A*4B
$GPVTG,106.93,T,,M,12.625,N,23.381,K,A*39
$GPGGA,031155.00,4916.44037,N,12413.45046,W,1,09,1.01,169.0,M,-17.7,M,,*6E
$GPGSA,A,3,32,10,21,08,27,23,24,01,22,,,,2.16,1.01,1.91*06
$GPGSV,4,1,14,01,20,310,35,08,35,252,39,10,56,075,41,14,01,332,31*7E
$GPGSV,4,2,14,21,42,303,40,22,17,275,40,23,22,084,29,24,17,043,27*7D
$GPGSV,4,3,14,27,24,216,42,28,02,347,31,32,74,156,28,46,33,186,44*76
$GPGSV,4,4,14,48,33,192,35,51,31,158,45*77
$GPGLL,4916.44037,N,12413.45046,W,031155.00,A,A*70
$GPRMC,031156.00,A,4916.44217,N,12413.44415,W,18.817,52.66,170621,,,A*74
$GPVTG,52.66,T,,M,18.817,N,34.849,K,A*0F
$
+200.00
@19.45
#1002.82
%11.72
:203
&40.30
GPGGA,031156.00,4916.44217,N,12413.44415,W,1,09,0.94,165.7,M,-1$GPRMC,031159.00,A,4916.46058,N,12413.45042,W,29.164,314.82,170621,,,A*43
$GPVTG,314.82,T,,M,29.164,N,54.012,K,A*3B
$GPGGA,031159.00,4916.46058,N,12413.45042,W,1,09,1.01,156.8,M,-17.7,M,,*69
$GPGSA,A,3,32,10,21,08,27,23,24,01,22,,,,1.95,1.01,1.67*07
$GPGSV,4,1,14,01,20,310,28,08,35,252,32,10,56,075,38,14,01,332,42*73
$GPGSV,4,2,14,21,42,303,32,22,17,275,26,23,22,084,42,24,17,043,45*71
$GPGSV,4,3,14,27,24,216,30,28,02,347,40,32,74,156,33,46,33,186,33*7F
$GPGSV,4,4,14,48,33,192,28,51,31,158,38*71
$GPGLL,4916.46058,N,12413.45042,W,031159.00,A,A*73
$GPRMC,031200.00,A,4916.46421,N,12413.46250,W,32.628,288.26,170621,,,A*4B
$GPVTG,288.26,T,,M,32.628,N,60.427,K,A*31
$
+200.00
@19.41
#1004.48
%-1.03
:207
&39.99
GPGGA,031200.00,4916.46421,N,12413.46250,W,1,09,1.01,153.7,M,-1$GPRMC,031203.00,A,4916.46384,N,12413.50371,W,30.729,274.34,170621,,,A*47
$GPVTG,274.34,T,,M,30.729,N,56.910,K,A*3F
$GPGGA,031203.00,4916.46384,N,12413.50371,W,1,09,1.04,149.0,M,-17.7,M,,*63
$GPGSA,A,3,32,10,21,08,27,23,24,01,22,,,,2.20,1.04,1.94*03
$GPGSV,4,1,14,01,20,310,34,08,35,252,38,10,56,075,32,14,01,332,35*7E
$GPGSV,4,2,14,21,42,303,42,22,18,275,32,23,22,085,41,24,17,043,29*74
$GPGSV,4,3,14,27,24,216,40,28,02,347,34,32,74,156,42,46,33,186,40*79
$GPGSV,4,4,14,48,33,192,30,51,31,158,37*77
$GPGLL,4916.46384,N,12413.50371,W,031203.00,A,A*7A
$GPRMC,031204.00,A,4916.46722,N,12413.51517,W,29.604,302.79,170621,,,A*40
$GPVTG,302.79,T,,M,29.604,N,54.827,K,A*37
$
+200.00
@19.25
#1005.21
%-6.85
:211
&40.41
GPGGA,031204.00,4916.46722,N,12413.51517,W,1,09,1.16,147.3,M,-1$GPRMC,031207.00,A,4916.48469,N,12413.51105,W,20.435,61.57,170621,,,A*75
$GPVTG,61.57,T,,M,20.435,N,37.846,K,A*06
$GPGGA,031207.00,4916.48469,N,12413.51105,W,1,09,0.97,143.8,M,-17.7,M,,*64
$GPGSA,A,3,32,10,21,08,27,23,24,01,22,,,,1.79,0.97,1.51*0E
$GPGSV,4,1,14,01,20,310,34,08,35,252,39,10,56,075,37,14,01,332,37*78
$GPGSV,4,2,14,21,42,303,35,22,18,275,39,23,22,085,41,24,17,043,35*72
$GPGSV,4,3,14,27,24,216,33,28,02,347,36,32,74,156,33,46,33,186,34*7A
$GPGSV,4,4,14,48,33,192,34,51,31,158,34*70
$GPGLL,4916.48469,N,12413.51105,W,031207.00,A,A*74
$GPRMC,031208.00,A,4916.48473,N,12413.50400,W,16.182,100.86,170621,,,A*46
$GPVTG,100.86,T,,M,16.182,N,29.969,K,A*33
$
+200.00
@19.14
#1005.03
%-6.72
:215
&40.94
GPGGA,031208.00,4916.48473,N,12413.50400,W,1,09,0.94,143.0,M,-1$GPRMC,031211.00,A,4916.47097,N,12413.48745,W,24.297,142.50,170621,,,A*4F
$GPVTG,142.50,T,,M,24.297,N,44.998,K,A*3D
$GPGGA,031211.00,4916.47097,N,12413.48745,W,1,09,0.94,140.2,M,-17.7,M,,*69
$GPGSA,A,3,32,10,21,08,27,23,24,01,22,,,,1.77,0.94,1.50*02
$GPGSV,4,1,13,01,20,310,36,08,35,252,35,10,56,075,34,14,01,332,32*77
$GPGSV,4,2,13,21,42,303,41,22,18,275,38,23,22,085,26,24,17,043,24*76
$GPGSV,4,3,13,27,24,216,34,28,02,347,41,32,75,155,40,46,33,186,37*7F
$GPGSV,4,4,13,51,31,158,28*4B
$GPGLL,4916.47097,N,12413.48745,W,031211.00,A,A*73
$GPRMC,031212.00,A,4916.46572,N,12413.48081,W,29.748,137.60,170621,,,A*47
$GPVTG,137.60,T,,M,29.748,N,55.094,K,A*33
$
+200.00
@19.18
#1004.01
%9.52
:219
&40.68
GPGGA,031212.00,4916.46572,N,12413.48081,W,1,09,0.97,155.7,M,-1$GPRMC,031215.00,A,4916.45312,N,12413.46310,W,18.141,140.97,170621,,,A*43
$GPVTG,140.97,T,,M,18.141,N,33.597,K,A*30
$GPGGA,031215.00,4916.45312,N,12413.46310,W,1,09,0.93,189.6,M,-17.7,M,,*6D
$GPGSA,A,3,32,10,21,08,27,23,24,01,22,,,,1.77,0.93,1.50*05
$GPGSV,4,1,14,01,20,310,25,08,35,252,35,10,56,075,39,14,01,332,34*79
$GPGSV,4,2,14,21,42,303,32,22,18,275,32,23,22,085,41,24,17,043,40*7C
$GPGSV,4,3,14,27,24,216,39,28,02,347,33,32,75,155,37,46,33,186,37*70
$GPGSV,4,4,14,48,33,192,37,51,31,158,38*7F
$GPGLL,4916.45312,N,12413.46310,W,031215.00,A,A*71
$GPRMC,031216.00,A,4916.44868,N,12413.45759,W,21.196,139.85,170621,,,A*40
$GPVTG,139.85,T,,M,21.196,N,39.255,K,A*3E
$
+200.00
@19.30
#1000.43
%33.20
:223
&40.63
GPGGA,031216.00,4916.44868,N,12413.45759,W,1,09,1.04,198.1,M,-1$GPRMC,031219.00,A,4916.43896,N,12413.44265,W,14.635,109.47,170621,,,A*47
$GPVTG,109.47,T,,M,14.635,N,27.104,K,A*33
$GPGGA,031219.00,4916.43896,N,12413.44265,W,1,09,0.93,202.7,M,-17.7,M,,*60
$GPGSA,A,3,32,10,21,08,27,23,24,01,22,,,,1.77,0.93,1.50*05
$GPGSV,4,1,14,01,20,310,33,08,35,252,36,10,56,075,30,14,01,332,41*76
$GPGSV,4,2,14,21,42,303,31,22,18,275,42,23,22,085,34,24,17,043,33*7E
$GPGSV,4,3,14,27,24,216,42,28,02,347,37,32,75,155,37,46,33,186,39*76
$GPGSV,4,4,14,48,33,192,40,51,31,158,31*76
$GPGLL,4916.43896,N,12413.44265,W,031219.00,A,A*7D
$GPRMC,031220.00,A,4916.43852,N,12413.43691,W,13.738,93.18,170621,,,A*7E
$GPVTG,93.18,T,,M,13.738,N,25.443,K,A*04
$
+200.00
@19.23
#1001.16
%26.81
:227
&40.72
GPGGA,031220.00,4916.43852,N,12413.43691,W,1,09,0.93,203.9,M,-1$GPRMC,031223.00,A,4916.44806,N,12413.42118,W,18.245,11.51,170621,,,A*7F
$GPVTG,11.51,T,,M,18.245,N,33.790,K,A*0D
$GPGGA,031223.00,4916.44806,N,12413.42118,W,1,09,0.95,202.0,M,-17.7,M,,*69
$GPGSA,A,3,32,10,21,08,27,23,24,01,22,,,,1.93,0.95,1.68*02
$GPGSV,4,1,13,01,20,310,37,08,35,252,36,10,56,075,43,14,01,332,27*71
$GPGSV,4,2,13,21,42,303,34,22,18,275,35,23,22,085,46,24,17,043,38*72
$GPGSV,4,3,13,27,24,216,35,28,02,347,29,32,75,155,30,46,33,186,34*74
$GPGSV,4,4,13,51,31,158,*41
$GPGLL,4916.44806,N,12413.42118,W,031223.00,A,A*75
$GPRMC,031224.00,A,4916.45323,N,12413.42241,W,21.161,338.89,170621,,,A*48
$GPVTG,338.89,T,,M,21.161,N,39.190,K,A*33
$
+200.00
@19.26
#1002.07
%18.08
:231
&40.82
GPGGA,031224.00,4916.45323,N,12413.42241,W,1,09,0.95,194.6,M,-1$GPRMC,031227.00,A,4916.45568,N,12413.44992,W,26.980,234.54,170621,,,A*4C
$GPVTG,234.54,T,,M,26.980,N,49.967,K,A*39
$GPGGA,031227.00,4916.45568,N,12413.44992,W,1,09,0.93,184.4,M,-17.7,M,,*6A
$GPGSA,A,3,32,10,21,08,27,23,24,01,22,,,,1.77,0.93,1.50*05
$GPGSV,4,1,13,01,20,310,43,08,35,252,36,10,56,075,37,14,01,332,31*76
$GPGSV,4,2,13,21,42,303,39,22,18,275,44,23,22,085,26,24,17,043,40*70
$GPGSV,4,3,13,27,24,216,35,28,02,347,38,32,75,155,38,46,33,186,29*70
$GPGSV,4,4,13,51,31,158,*41
$GPGLL,4916.45568,N,12413.44992,W,031227.00,A,A*79
$GPRMC,031228.00,A,4916.45004,N,12413.45620,W,25.465,208.09,170621,,,A*49
$GPVTG,208.09,T,,M,25.465,N,47.162,K,A*38
$
+200.00
@19.16
#1002.47
%16.00
:235
&40.84
GPGGA,031228.00,4916.45004,N,12413.45620,W,1,09,0.93,181.9,M,-1$GPRMC,031231.00,A,4916.43345,N,12413.46461,W,19.169,201.13,170621,,,A*41
$GPVTG,201.13,T,,M,19.169,N,35.501,K,A*38
$GPGGA,031231.00,4916.43345,N,12413.46461,W,1,09,1.01,178.2,M,-17.7,M,,*6E
$GPGSA,A,3,32,10,21,08,27,23,24,01,22,,,,1.94,1.01,1.66*07
$GPGSV,4,1,13,01,20,310,37,08,35,252,39,10,56,075,32,14,01,332,39*77
$GPGSV,4,2,13,21,42,303,36,22,18,275,40,23,22,085,40,24,17,043,41*7A
$GPGSV,4,3,13,27,24,216,28,28,02,347,35,32,75,155,35,46,33,186,27*72
$GPGSV,4,4,13,51,31,158,*41
$GPGLL,4916.43345,N,12413.46461,W,031231.00,A,A*72
$GPRMC,031232.00,A,4916.42766,N,12413.46718,W,22.404,195.93,170621,,,A*4B
$GPVTG,195.93,T,,M,22.404,N,41.492,K,A*30
$
+200.00
@19.18
#1003.19
%10.50
:239
&40.81
GPGGA,031232.00,4916.42766,N,12413.46718,W,1,09,1.01,175.4,M,-1$GPRMC,031235.00,A,4916.41576,N,12413.45722,W,14.222,103.55,170621,,,A*44
$GPVTG,103.55,T,,M,14.222,N,26.339,K,A*35
$GPGGA,031235.00,4916.41576,N,12413.45722,W,1,09,0.93,169.5,M,-17.7,M,,*64
$GPGSA,A,3,32,10,21,08,27,23,24,01,22,,,,1.77,0.93,1.50*05
$GPGSV,4,1,13,01,20,310,32,08,35,252,36,10,56,075,30,14,01,332,28*7F
$GPGSV,4,2,13,21,42,303,31,22,18,275,40,23,22,085,28,24,17,043,28*7C
$GPGSV,4,3,13,27,24,216,36,28,02,347,26,32,75,155,40,46,33,186,42*7E
$GPGSV,4,4,13,51,31,158,*41
$GPGLL,4916.41576,N,12413.45722,W,031235.00,A,A*75
$GPRMC,031236.00,A,4916.41764,N,12413.45094,W,18.331,49.01,170621,,,A*7D
$GPVTG,49.01,T,,M,18.331,N,33.948,K,A*0C
$
+246.39
@19.14
#1004.00
%2.67
:243
&40.37
GPGGA,031236.00,4916.41764,N,12413.45094,W,1,09,0.93,166.5,M,-1$GPRMC,031239.00,A,4916.43351,N,12413.45122,W,24.672,323.37,170621,,,A*49
$GPVTG,323.37,T,,M,24.672,N,45.693,K,A*33
$GPGGA,031239.00,4916.43351,N,12413.45122,W,1,09,0.93,158.7,M,-17.7,M,,*6F
$GPGSA,A,3,32,10,21,08,27,23,24,01,22,,,,1.77,0.93,1.50*05
$GPGSV,4,1,14,01,20,310,30,08,35,252,37,10,56,075,35,14,01,332,40*70
$GPGSV,4,2,14,21,42,303,36,22,18,275,31,23,22,085,35,24,17,043,43*7B
$GPGSV,4,3,14,27,24,216,38,28,02,347,38,32,75,155,28,46,33,186,33*70
$GPGSV,4,4,14,48,33,192,27,51,31,158,37*71
$GPGLL,4916.43351,N,12413.45122,W,031239.00,A,A*7E
$GPRMC,031240.00,A,4916.43857,N,12413.45982,W,29.106,308.48,170621,,,A*40
$GPVTG,308.48,T,,M,29.106,N,53.904,K,A*3D
$
+200.00
@19.12
#1005.11
%-5.88
:247
&40.47
GPGGA,031240.00,4916.43857,N,12413.45982,W,1,09,0.93,155.3,M,-1$GPRMC,031243.00,A,4916.45843,N,12413.47322,W,27.589,8.47,170621,,,A*43
$GPVTG,8.47,T,,M,27.589,N,51.095,K,A*3F
$GPGGA,031243.00,4916.45843,N,12413.47322,W,1,09,0.93,160.9,M,-17.7,M,,*69
$GPGSA,A,3,32,10,21,08,27,23,24,01,22,,,,1.76,0.93,1.50*04
$GPGSV,4,1,14,01,20,310,38,08,35,252,33,10,56,075,29,14,01,331,34*71
$GPGSV,4,2,14,21,42,303,41,22,18,275,35,23,22,085,39,24,17,043,43*73
$GPGSV,4,3,14,27,24,216,36,28,02,347,42,32,75,155,38,46,33,186,35*74
$GPGSV,4,4,14,48,33,192,33,51,31,158,30*73
$GPGLL,4916.45843,N,12413.47322,W,031243.00,A,A*7D
$GPRMC,031244.00,A,4916.46093,N,12413.46798,W,14.312,79.54,170621,,,A*76
$GPVTG,79.54,T,,M,14.312,N,26.507,K,A*01
$
+200.00
@19.27
#1001.96
%24.12
:251
&40.59
GPGGA,031244.00,4916.46093,N,12413.46798,W,1,09,0.93,171.4,M,-1$GPRMC,031247.00,A,4916.44433,N,12413.46202,W,26.067,189.03,170621,,,A*43
$GPVTG,189.03,T,,M,26.067,N,48.276,K,A*34
$GPGGA,031247.00,4916.44433,N,12413.46202,W,1,08,0.99,194.7,M,-17.7,M,,*6B
$GPGSA,A,3,10,21,08,27,23,24,01,22,,,,,2.18,0.99,1.95*0D
$GPGSV,4,1,14,01,20,310,30,08,35,252,43,10,56,075,29,14,01,331,33*79
$GPGSV,4,2,14,21,43,303,40,22,18,275,48,23,22,085,32,24,17,043,27*70
$GPGSV,4,3,14,27,24,216,45,28,02,347,35,32,75,155,24,46,33,186,40*7F
$GPGSV,4,4,14,48,33,192,37,51,31,158,31*76
$GPGLL,4916.44433,N,12413.46202,W,031247.00,A,A*71
$GPRMC,031248.00,A,4916.43866,N,12413.46089,W,19.271,167.02,170621,,,A*4E
$GPVTG,167.02,T,,M,19.271,N,35.690,K,A*3A
$
+200.00
@19.35
#999.74
%34.24
:255
&40.66
GPGGA,031248.00,4916.43866,N,12413.46089,W,1,09,0.93,198.2,M,-1$GPRMC,031251.00,A,4916.44208,N,12413.44887,W,27.931,0.79,170621,,,A*49
$GPVTG,0.79,T,,M,27.931,N,51.728,K,A*34
$GPGGA,031251.00,4916.44208,N,12413.44887,W,1,08,1.10,178.5,M,-17.7,M,,*67
$GPGSA,A,3,32,10,21,08,27,23,24,22,,,,,1.88,1.10,1.53*0D
$GPGSV,4,1,14,01,20,310,31,08,35,252,30,10,56,075,39,14,01,331,29*76
$GPGSV,4,2,14,21,43,303,38,22,18,275,28,23,22,085,46,24,17,042,40*7A
$GPGSV,4,3,14,27,24,216,32,28,02,347,35,32,75,155,37,46,33,186,41*7C
$GPGSV,4,4,14,48,33,192,40,51,31,158,*74
$GPGLL,4916.44208,N,12413.44887,W,031251.00,A,A*7D
$GPRMC,031252.00,A,4916.44952,N,12413.45431,W,32.339,326.21,170621,,,A*42
$GPVTG,326.21,T,,M,32.339,N,59.891,K,A*3D
$
+200.00
@19.24
#1002.58
%14.30
:259
&40.76
GPGGA,031252.00,4916.44952,N,12413.45431,W,1,08,1.00,174.0,M,-1$GPRMC,031255.00,A,4916.46195,N,12413.49342,W,29.818,291.85,170621,,,A*4A
$GPVTG,291.85,T,,M,29.818,N,55.223,K,A*33
$GPGGA,031255.00,4916.46195,N,12413.49342,W,1,08,1.02,166.7,M,-17.7,M,,*67
$GPGSA,A,3,32,10,21,08,27,23,01,22,,,,,1.90,1.02,1.60*00
$GPGSV,4,1,14,01,20,310,36,08,35,252,36,10,56,075,40,14,01,331,40*76
$GPGSV,4,2,14,21,43,303,35,22,18,275,34,23,22,085,30,24,17,042,*7F
$GPGSV,4,3,14,27,24,215,38,28,02,347,37,32,75,155,38,46,33,186,31*7F
$GPGSV,4,4,14,48,33,192,34,51,31,158,*77
$GPGLL,4916.46195,N,12413.49342,W,031255.00,A,A*73
$GPRMC,031256.00,A,4916.46501,N,12413.50392,W,26.343,297.57,170621,,,A*46
$GPVTG,297.57,T,,M,26.343,N,48.788,K,A*38
$
+200.00
@19.17
#1002.37
%14.79
:263
&40.86
GPGGA,031256.00,4916.46501,N,12413.50392,W,1,09,1.03,165.4,M,-1$GPRMC,031259.00,A,4916.48172,N,12413.51251,W,21.817,8.43,170621,,,A*44
$GPVTG,8.43,T,,M,21.817,N,40.406,K,A*39
$GPGGA,031259.00,4916.48172,N,12413.51251,W,1,09,0.97,162.0,M,-17.7,M,,*69
$GPGSA,A,3,32,10,21,08,27,23,24,01,22,,,,2.96,0.97,2.80*03
$GPGSV,4,1,14,01,20,310,36,08,35,252,41,10,56,075,35,14,01,331,31*72
$GPGSV,4,2,14,21,43,303,38,22,18,275,36,23,22,085,36,24,17,042,34*71
$GPGSV,4,3,14,27,24,215,29,28,02,347,31,32,75,154,38,46,33,186,34*7D
$GPGSV,4,4,14,48,33,192,34,51,31,158,35*71
$GPGLL,4916.48172,N,12413.51251,W,031259.00,A,A*72
$GPRMC,031300.00,A,4916.48699,N,12413.51023,W,18.317,23.49,170621,,,A*7E
$GPVTG,23.49,T,,M,18.317,N,33.922,K,A*04
$
+200.00
@19.16
#1002.37
%15.70
:267
&40.93
GPGGA,031300.00,4916.48699,N,12413.51023,W,1,09,0.93,165.6,M,-1$GPRMC,031303.00,A,4916.48695,N,12413.49391,W,19.313,134.95,170621,,,A*41
$GPVTG,134.95,T,,M,19.313,N,35.768,K,A*31
$GPGGA,031303.00,4916.48695,N,12413.49391,W,1,08,1.13,163.4,M,-17.7,M,,*64
$GPGSA,A,3,32,10,21,08,27,23,01,22,,,,,2.11,1.13,1.79*02
$GPGSV,4,1,14,01,20,310,38,08,35,252,34,10,56,075,32,14,01,331,34*7C
$GPGSV,4,2,14,21,43,303,43,22,18,275,38,23,22,085,38,24,17,042,30*79
$GPGSV,4,3,14,27,24,215,38,28,02,347,40,32,75,154,36,46,33,186,27*77
$GPGSV,4,4,14,48,33,192,30,51,31,158,33*73
$GPGLL,4916.48695,N,12413.49391,W,031303.00,A,A*76
$GPRMC,031304.00,A,4916.48216,N,12413.48957,W,19.565,150.64,170621,,,A*43
$GPVTG,150.64,T,,M,19.565,N,36.235,K,A*34
$
+200.00
@19.05
#1003.05
%10.83
:271
&40.69
GPGGA,031304.00,4916.48216,N,12413.48957,W,1,09,0.96,164.0,M,-1$GPRMC,031307.00,A,4916.46717,N,12413.47799,W,21.056,143.57,170621,,,A*45
$GPVTG,143.57,T,,M,21.056,N,38.996,K,A*34
$GPGGA,031307.00,4916.46717,N,12413.47799,W,1,09,0.93,160.7,M,-17.7,M,,*6F
$GPGSA,A,3,32,10,21,08,27,23,24,01,22,,,,1.76,0.93,1.49*0C
$GPGSV,4,1,14,01,20,310,39,08,35,252,38,10,56,075,35,14,01,331,36*74
$GPGSV,4,2,14,21,43,303,41,22,18,275,41,23,22,085,29,24,17,042,27*73
$GPGSV,4,3,14,27,24,215,40,28,02,347,40,32,75,154,37,46,33,186,38*77
$GPGSV,4,4,14,48,33,192,39,51,31,158,30*79
$GPGLL,4916.46717,N,12413.47799,W,031307.00,A,A*75
$GPRMC,031308.00,A,4916.46299,N,12413.47358,W,17.560,140.53,170621,,,A*42
$GPVTG,140.53,T,,M,17.560,N,32.521,K,A*3C
$
+200.00
@18.99
#1003.20
%7.92
:275
&40.69
GPGGA,031308.00,4916.46299,N,12413.47358,W,1,09,0.96,164.8,M,-1$GPRMC,031311.00,A,4916.45072,N,12413.46929,W,23.063,194.09,170621,,,A*44
$GPVTG,194.09,T,,M,23.063,N,42.713,K,A*3F
$GPGGA,031311.00,4916.45072,N,12413.46929,W,1,09,1.00,161.0,M,-17.7,M,,*66
$GPGSA,A,3,32,10,21,08,27,23,24,01,22,,,,1.93,1.00,1.65*02
$GPGSV,4,1,14,01,20,310,29,08,35,252,38,10,56,075,36,14,01,331,42*75
$GPGSV,4,2,14,21,43,303,36,22,18,275,41,23,22,085,35,24,17,042,40*7F
$GPGSV,4,3,14,27,24,215,28,28,02,347,36,32,75,154,32,46,33,186,33*76
$GPGSV,4,4,14,48,33,192,33,51,31,158,31*72
$GPGLL,4916.45072,N,12413.46929,W,031311.00,A,A*71
$GPRMC,031312.00,A,4916.44418,N,12413.47160,W,24.591,192.34,170621,,,A*4D
$GPVTG,192.34,T,,M,24.591,N,45.542,K,A*39
$
+200.00
@18.90
#1004.34
%1.45
:279
&40.54
GPGGA,031312.00,4916.44418,N,12413.47160,W,1,09,1.00,159.6,M,-1$GPRMC,031315.00,A,4916.43120,N,12413.46268,W,13.703,107.13,170621,,,A*4D
$GPVTG,107.13,T,,M,13.703,N,25.378,K,A*34
$GPGGA,031315.00,4916.43120,N,12413.46268,W,1,09,0.93,155.7,M,-17.7,M,,*67
$GPGSA,A,3,32,10,21,08,27,23,24,01,22,,,,1.76,0.93,1.49*0C
$GPGSV,4,1,14,01,20,310,28,08,35,252,37,10,56,075,28,14,01,331,30*71
$GPGSV,4,2,14,21,43,303,40,22,18,275,41,23,22,085,29,24,17,042,26*73
$GPGSV,4,3,14,27,24,215,38,28,02,347,35,32,75,154,44,46,33,186,45*74
$GPGSV,4,4,14,48,33,192,44,51,31,158,48*7C
$GPGLL,4916.43120,N,12413.46268,W,031315.00,A,A*7B
$GPRMC,031316.00,A,4916.43297,N,12413.45635,W,17.020,49.96,170621,,,A*7A
$GPVTG,49.96,T,,M,17.020,N,31.521,K,A*0F
$
+207.32
@18.87
#1005.22
%-8.47
:283
&40.45
GPGGA,031316.00,4916.43297,N,12413.45635,W,1,09,0.93,149.2,M,-1$GPRMC,031319.00,A,4916.45286,N,12413.46167,W,30.468,325.19,170621,,,A*43
$GPVTG,325.19,T,,M,30.468,N,56.427,K,A*3A
$GPGGA,031319.00,4916.45286,N,12413.46167,W,1,09,0.93,139.0,M,-17.7,M,,*63
$GPGSA,A,3,32,10,21,08,27,23,24,01,22,,,,1.76,0.93,1.49*0C
$GPGSV,4,1,14,01,20,310,31,08,35,252,33,10,56,075,34,14,01,331,36*76
$GPGSV,4,2,14,21,43,303,33,22,18,275,33,23,22,085,39,24,17,042,42*71
$GPGSV,4,3,14,27,24,215,36,28,02,347,39,32,75,154,28,46,33,186,31*7F
$GPGSV,4,4,14,48,33,192,35,51,31,158,39*7C
$GPGLL,4916.45286,N,12413.46167,W,031319.00,A,A*72
$GPRMC,031320.00,A,4916.45903,N,12413.47101,W,31.959,310.92,170621,,,A*45
$GPVTG,310.92,T,,M,31.959,N,59.188,K,A*3E
$
+200.00
@18.84
#1006.43
%-17.70
:287
&40.88
GPGGA,031320.00,4916.45903,N,12413.47101,W,1,09,0.93,136.4,M,-1$GPRMC,031323.00,A,4916.46778,N,12413.50651,W,27.198,285.15,170621,,,A*43
$GPVTG,285.15,T,,M,27.198,N,50.370,K,A*32
$GPGGA,031323.00,4916.46778,N,12413.50651,W,1,09,1.13,131.5,M,-17.7,M,,*6C
$GPGSA,A,3,32,10,21,08,27,23,24,01,22,,,,5.45,1.13,5.33*08
$GPGSV,4,1,14,01,20,310,33,08,35,251,39,10,56,075,34,14,01,331,35*7E
$GPGSV,4,2,14,21,43,303,37,22,18,275,38,23,22,085,41,24,17,042,34*70
$GPGSV,4,3,14,27,24,215,41,28,02,347,32,32,75,154,41,46,33,186,30*7A
$GPGSV,4,4,14,48,33,192,33,51,31,158,43*77
$GPGLL,4916.46778,N,12413.50651,W,031323.00,A,A*79
$GPRMC,031324.00,A,4916.47130,N,12413.51516,W,25.511,311.95,170621,,,A*4D
$GPVTG,311.95,T,,M,25.511,N,47.246,K,A*33
$
+200.00
@18.87
#1006.25
%-13.78
:291
&40.94
GPGGA,031324.00,4916.47130,N,12413.51516,W,1,09,0.97,130.8,M,-1$GPRMC,031327.00,A,4916.47642,N,12413.48972,W,36.169,121.32,170621,,,A*4F
$GPVTG,121.32,T,,M,36.169,N,66.986,K,A*32
$GPGGA,031327.00,4916.47642,N,12413.48972,W,1,09,1.35,133.7,M,-17.7,M,,*62
$GPGSA,A,3,32,10,21,08,27,23,24,01,22,,,,2.45,1.35,2.04*08
$GPGSV,4,1,14,01,20,310,24,08,35,251,32,10,55,075,32,14,00,331,35*77
$GPGSV,4,2,14,21,43,303,32,22,18,275,38,23,22,085,33,24,17,042,40*73
$GPGSV,4,3,14,27,24,215,36,28,02,347,33,32,75,154,36,46,33,186,36*7D
$GPGSV,4,4,14,48,33,192,35,51,31,158,36*73
$GPGLL,4916.47642,N,12413.48972,W,031327.00,A,A*73
$GPRMC,031328.00,A,4916.47017,N,12413.47924,W,32.952,135.97,170621,,,A*44
$GPVTG,135.97,T,,M,32.952,N,61.027,K,A*39
$
+200.00
@18.98
#1002.28
%24.30
:295
&40.53
GPGGA,031328.00,4916.47017,N,12413.47924,W,1,08,1.35,140.5,M,-1$GPRMC,031331.00,A,4916.45116,N,12413.47017,W,18.217,173.00,170621,,,A*49
$GPVTG,173.00,T,,M,18.217,N,33.738,K,A*39
$GPGGA,031331.00,4916.45116,N,12413.47017,W,1,09,0.93,166.5,M,-17.7,M,,*6B
$GPGSA,A,3,32,10,21,08,27,23,24,01,22,,,,2.11,0.93,1.89*02
$GPGSV,4,1,14,01,20,310,35,08,35,251,40,10,55,075,35,14,00,331,33*73
$GPGSV,4,2,14,21,43,303,30,22,18,275,33,23,22,085,34,24,17,042,36*7C
$GPGSV,4,3,14,27,24,215,37,28,02,347,35,32,75,154,28,46,33,186,39*7A
$GPGSV,4,4,14,48,33,192,32,51,31,158,35*77
$GPGLL,4916.45116,N,12413.47017,W,031331.00,A,A*75
$GPRMC,031332.00,A,4916.44636,N,12413.46926,W,16.121,166.93,170621,,,A*42
$GPVTG,166.93,T,,M,16.121,N,29.857,K,A*32
$
+200.00
@19.09
#1001.26
%24.33
:299
&40.80
GPGGA,031332.00,4916.44636,N,12413.46926,W,1,09,0.93,165.6,M,-1$GPRMC,031335.00,A,4916.43121,N,12413.45752,W,21.640,140.67,170621,,,A*46
$GPVTG,140.67,T,,M,21.640,N,40.077,K,A*3C
$GPGGA,031335.00,4916.43121,N,12413.45752,W,1,09,1.00,165.5,M,-17.7,M,,*61
$GPGSA,A,3,32,10,21,08,27,23,24,01,22,,,,1.93,1.00,1.65*02
$GPGSV,4,1,14,01,20,310,28,08,35,251,23,10,55,075,34,14,00,331,39*71
$GPGSV,4,2,14,21,43,303,32,22,18,275,38,23,22,085,35,24,17,042,33*71
$GPGSV,4,3,14,27,24,215,40,28,02,347,31,32,75,154,32,46,33,186,38*74
$GPGSV,4,4,14,48,33,192,29,51,31,158,38*70
$GPGLL,4916.43121,N,12413.45752,W,031335.00,A,A*77
$GPRMC,031336.00,A,4916.42796,N,12413.45170,W,16.841,123.62,170621,,,A*43
$GPVTG,123.62,T,,M,16.841,N,31.190,K,A*39
$
+200.00
@19.10
#1001.57
%22.04
:303
&40.54
GPGGA,031336.00,4916.42796,N,12413.45170,W,1,08,1.14,166.1,M,-1$GPRMC,031339.00,A,4916.43447,N,12413.43883,W,17.116,6.53,170621,,,A*4F
$GPVTG,6.53,T,,M,17.116,N,31.699,K,A*39
$GPGGA,031339.00,4916.43447,N,12413.43883,W,1,09,0.97,159.5,M,-17.7,M,,*6D
$GPGSA,A,3,32,10,21,08,27,23,24,01,22,,,,1.79,0.97,1.51*0E
$GPGSV,4,1,14,01,20,310,33,08,35,251,22,10,55,075,40,14,00,331,31*71
$GPGSV,4,2,14,21,43,303,30,22,18,275,38,23,21,085,40,24,17,042,39*78
$GPGSV,4,3,14,27,24,215,33,28,02,347,34,32,75,154,36,46,33,186,34*7D
$GPGSV,4,4,14,48,33,192,28,51,31,158,28*70
$GPGLL,4916.43447,N,12413.43883,W,031339.00,A,A*7B
$GPRMC,031340.00,A,4916.43959,N,12413.44195,W,19.025,333.46,170621,,,A*44
$GPVTG,333.46,T,,M,19.025,N,35.235,K,A*31
$
+295.21
@19.16
#1002.30
%16.02
:307
&40.38
GPGGA,031340.00,4916.43959,N,12413.44195,W,1,09,0.97,157.8,M,-1$GPRMC,031343.00,A,4916.44243,N,12413.46881,W,25.734,253.03,170621,,,A*40
$GPVTG,253.03,T,,M,25.734,N,47.660,K,A*3E
$GPGGA,031343.00,4916.44243,N,12413.46881,W,1,09,0.96,151.8,M,-17.7,M,,*66
$GPGSA,A,3,32,10,21,08,27,23,24,01,22,,,,1.77,0.96,1.49*08
$GPGSV,4,1,14,01,20,310,47,08,35,251,31,10,55,075,33,14,00,331,39*7C
$GPGSV,4,2,14,21,43,303,43,22,18,275,40,23,21,085,34,24,17,042,37*7E
