Methane:+
Temperature:@
Pressure:#
Altitude:%
Humidity:&
Methane:+
Temperature:@
Pressure:#
Altitude:%
Humidity:&

+54028.12
@0.00
#0.00
%44330.00
:2
&0.00
$ÿÿÿÿÿÿÿÿÿÿÿÿÿÿÿÿGÿÿÿÿÿÿÿÿÿÿÿÿÿÿÿÿPÿÿÿÿÿÿÿÿÿÿÿÿÿÿÿÿÿTÿÿÿÿÿÿÿXT,01,01,02,u-blox ag - www.u-blox.com*50$GPTXT,01,01,02,HW  UBX-G70xx   00070000 *77$GPTXT,01,01,02,ROM CORE 1.00 (59842) Jun 27 2012 17:43:52*59$GPTXT,01,01,02,PROTVER 14.00*1E$GPTXT,01,01,02,ANTSUPERV=AC SD PDoS SR*20$GPTXT,01,01,02,ANTSTATUS=DONTKNOW*33$GPTXT,01,01,02,LLC FFFFFFFF-FFFFFFED-FFFFFFFF-FFFFFFFF-FFFFFFFD*2D$GPRMC,202031.12,V,,,,,,,270421,,,N*7E$GPVTG,,,,,,,,,N*30$GPGGA,202031.12,,,,,0,00,99.99,,,,,,*67$GPGSA,A,1,,,,,,,,,,,,,99.99,99.99,99.99*30$GPGSV,4,1,14,02,29,176,,03,08,049,,06,48,137,,12,39,291,*7A$GPGSV,4,2,14,14,12,104,,17,40,058,,19,66,060,,22,04,024,*7A$GPGSV,4,3,14,24,58,247,,25,02,289,,28,24,100,,32,09,329,*7A$GPGSV,4,4,14,46,33,186,,51,31,158,*7B$GPGL
+54028.12
@0.00
#0.00
%44330.00
:16
&0.00
,,,,,202031.12,V,N*4B$GPRMC,202032.00,V,,,,,,,270421,,,N*7E0,V,N*4Dÿÿÿÿÿÿÿÿÿÿÿÿÿÿÿÿÿÿÿÿÿÿÿÿÿÿÿÿÿÿÿÿÿÿÿÿÿÿÿÿÿÿÿÿÿÿÿÿÿÿÿÿÿÿÿÿÿÿÿÿÿÿÿÿÿÿÿÿÿÿÿÿÿÿÿÿÿÿÿÿÿÿÿÿÿÿÿÿÿÿÿÿÿÿÿÿÿÿÿÿÿÿÿÿÿÿÿÿÿÿÿÿÿÿÿÿÿÿÿÿÿÿÿÿÿÿÿÿÿÿÿÿÿÿÿÿÿÿÿÿÿÿÿÿÿÿÿÿÿÿÿÿÿÿÿÿÿÿÿÿÿÿÿÿÿÿÿÿÿÿÿÿÿÿÿÿÿÿÿÿÿÿÿÿÿÿÿÿÿÿÿÿÿÿÿÿÿÿÿÿÿÿÿÿÿÿÿÿÿÿÿÿÿÿÿÿÿÿÿÿÿÿÿÿÿÿÿÿÿÿÿÿÿÿÿÿÿÿÿÿÿÿÿÿÿÿÿÿÿÿÿÿÿÿÿÿÿÿÿÿÿÿÿÿÿÿÿÿÿÿÿÿÿÿÿÿÿÿÿÿÿÿÿÿÿÿÿÿÿÿÿÿÿÿÿÿÿÿÿÿÿÿÿÿÿÿÿÿÿÿÿÿÿÿÿÿÿÿÿÿÿÿÿÿÿÿÿÿÿÿÿÿÿÿÿÿÿÿÿÿÿÿÿÿÿÿÿÿÿÿÿÿÿÿÿÿÿÿÿÿÿÿÿÿÿÿÿÿÿÿÿÿÿÿÿÿÿÿÿÿÿÿÿÿÿÿÿÿÿÿÿÿÿÿÿÿÿÿÿÿÿÿÿÿÿÿÿÿÿÿÿÿÿÿÿÿÿÿÿÿÿÿÿÿÿÿÿÿÿÿÿÿÿÿÿÿÿÿÿÿÿÿÿÿÿÿÿÿÿÿÿÿÿÿÿÿÿÿÿÿÿÿÿÿÿÿÿÿÿÿÿÿÿÿÿÿÿÿÿÿÿÿÿÿÿÿÿÿÿÿÿÿÿÿÿÿÿÿÿÿÿÿÿÿÿÿÿÿÿÿÿÿÿÿÿÿÿÿÿÿÿÿÿ$GPRMC,202035.00,V,,,,,,,270421,,,N*79$GPVTG,,,,,,,,,N*30$GPGGA,202035.00,,,,,0,03,4.57,,,,,,*55$GPGSA,A,1,24,06,12,,,,,,,,,,4.68,4.57,1.00*0E$GPGSV,4,1,14,02,29,176,,03,08,049,,06,48,137,29,12,39,291,29*7A$GPGSV,4,2,14,14,12,104,,17,40,058,18,19,66,060,26,22,04,024,*77$GPGSV,4,3,14,24,58,247,26,25,02,289,,28,24,100,,32,09,329,*7E$GPGSV,4,4,14,46,33,186,,51,31,158,*7B$GPGL
+54028.12
@0.00
#0.00
%44330.00
:20
&0.00
,,,,,202035.00,V,N*4C$GPRMC,202036.00,V,,,,,,,270421,,,N*7A,V,,,,,,,270421,,,N*74$GPVTG,,,,,,,,,N*30$GPGGA,202038.00,,,,,0,05,1.64,,,,,,*5B$GPGSA,A,1,19,24,06,17,12,,,,,,,,4.61,1.64,4.30*0A$GPGSV,4,1,14,02,29,176,20,03,08,049,,06,48,137,27,12,39,291,27*78$GPGSV,4,2,14,14,12,104,,17,40,058,14,19,66,060,24,22,04,024,*79$GPGSV,4,3,14,24,58,247,23,25,02,289,,28,24,100,,32,09,329,*7B$GPGSV,4,4,14,46,33,186,,51,31,158,*7B$GPGL
+54028.12
@0.00
#0.00
%44330.00
:23
&0.00
,,,,,202038.00,V,N*41$GPRMC,202039.00,A,4916.57503,N,12416.2157,,270421,,,A*68$GPVTG,,T,,M,0.757,N,1.402,K,A*21$GPGGA,202041.00,4916.57692,N,12416.21592,W,1,05,1.65,120.2,M,-17.7,M,,*69$GPGSA,A,3,19,24,06,17,12,,,,,,,,4.61,1.65,4.31*08$GPGSV,4,1,14,02,29,176,19,03,08,049,,06,48,137,26,12,39,291,26*72$GPGSV,4,2,14,14,12,104,,17,40,058,15,19,66,060,23,22,04,024,*7F$GPGSV,4,3,14,24,58,247,22,25,02,289,,28,24,100,,32,09,329,*7A$GPGSV,4,4,14,46,33,186,,51,31,158,*7B$GPGLMethane:+
Temperature:@
Pressure:#
Altitude:%
Humidity:&

+74562.80
@0.00
#0.00
%44330.00
:2
&0.00
¢r‚‚RŠ*5$GPTXT,01,01,02,ANTSUPERV=AC SD PDoS SR*20$GPTXT,01,ÿÿÿÿÿÿÿÿÿÿÿÿÿÿÿÿÿÿÿÿÿÿÿÿÿÿÿÿÿÿÿÿÿÿÿÿÿÿÿÿÿÿÿÿÿÿÿÿÿÿÿÿÿÿÿÿÿÿÿÿÿÿÿÿÿÿÿÿÿÿÿÿÿÿÿÿÿÿÿÿÿÿÿÿÿÿÿÿÿÿÿÿÿÿÿÿÿÿÿÿÿÿÿÿÿÿÿÿÿÿÿÿÿÿÿÿÿÿÿÿÿÿÿÿÿÿÿÿÿÿÿÿÿÿÿÿÿÿÿÿÿÿÿÿÿÿÿÿÿÿÿÿÿÿÿÿÿÿÿÿÿÿÿÿÿÿÿÿÿÿÿÿÿÿÿÿÿÿÿÿÿÿÿÿÿÿÿÿÿÿÿÿÿÿÿÿÿÿÿÿÿÿÿÿÿÿÿÿÿÿÿÿÿÿÿÿÿÿÿÿÿÿÿÿÿÿÿÿÿÿÿÿÿÿÿÿÿÿÿÿÿÿÿÿÿÿÿÿÿÿÿÿÿÿÿÿÿÿÿÿÿÿÿÿÿÿÿÿÿÿÿÿÿÿÿÿÿÿÿÿÿÿÿÿÿÿÿÿÿÿÿÿÿ$GPRMC,202050.00,V,,,,,,,270421,,,N*7A$GPVTG,,,,,,,,,N*30$GPGGA,202050.00,,,,,0,04,2.14,,,,,,*50$GPGSA,A,1,19,24,06,17,,,,,,,,,6.17,2.14,5.79*02$GPGSV,4,1,14,02,29,176,,03,08,049,,06,48,137,25,12,39,291,27*78$GPGSV,4,2,14,14,12,104,,17,40,058,20,19,66,060,26,22,04,024,*7C$GPGSV,4,3,14,24,58,247,27,25,02,290,,28,24,100,,32,09,329,*77$GPGSV,4,4,14,46,33,186,,51,31,158,*7B$GPGL
+74562.80
@0.00
#0.00
%44330.00
:6
&0.00
,,,,,202050.00,V,N*4F$GPRMC,202051.00,V,,,,,,,270421,,,N*7BPVTG,,,,,,,,,N*30$GPGGA,202053.00,,,,,0,03,5.47,,,,,,*55$GPGSA,A,1,19,06,17,,,,,,,,,,5.56,5.47,1.00*09$GPGSV,4,1,14,02,29,176,19,03,08,049,,06,48,137,24,12,39,291,27*71$GPGSV,4,2,14,14,12,104,,17,40,058,19,19,66,060,26,22,04,024,*76$GPGSV,4,3,14,24,58,247,27,25,02,290,,28,24,100,,32,09,329,*77$GPGSV,4,4,14,46,33,186,,51,31,158,*7B$GPGL
+74562.80
@0.00
#0.00
%44330.00
:9
&0.00
,,,,,202053.00,V,N*4C$GPRMC,202054.00,V,,,,,,,270421,,,N*7EVTG,,,,,,,,,N*30$GPGGA,202056.00,,,,,0,03,5.47,,,,,,*50$GPGSA,A,1,19,06,17,,,,,,,,,,5.56,5.47,1.00*09$GPGSV,4,1,14,02,29,176,17,03,08,049,,06,48,137,24,12,39,291,27*7F$GPGSV,4,2,14,14,12,105,,17,40,058,18,19,66,060,25,22,04,024,*75$GPGSV,4,3,14,24,58,247,26,25,02,290,,28,24,100,,32,09,329,*76$GPGSV,4,4,14,46,33,186,,51,31,158,*7B$GPGL
+74562.80
@0.00
#0.00
%44330.00
:12
&0.00
,,,,,202056.00,V,N*49$GPRMC,202057.00,V,,,,,,,270421,,,N*7D21321,W,2.268,,270421,,,A*61$GPVTG,,T,,M,2.268,N,4.201,K,A*2A$GPGGA,202059.00,4916.57558,N,12416.21321,W,1,03,5.47,138.4,M,-17.7,M,,*66$GPGSA,A,2,19,06,17,,,,,,,,,,5.56,5.47,1.00*0A$GPGSV,4,1,14,02,29,176,18,03,08,049,,06,48,137,22,12,39,291,27*76$GPGSV,4,2,14,14,12,105,,17,40,058,22,19,66,060,25,22,04,024,*7C$GPGSV,4,3,14,24,58,247,27,25,02,290,,28,24,100,,32,09,329,*77$GPGSV,4,4,14,46,33,186,,51,31,158,*7B$GPGL
+74562.80
@0.00
#0.00
%44330.00
:15
&0.00
,4916.57558,N,12416.21321,W,202059.00,A,A*74$GPRMC,202100.00,4916.57507,N,12416.21473,W,1,05,1.65,139.4,M,-17.7,M,,*60$GPGSA,A,3,19,24,06,17,12,,,,,,,,4.64,1.65,4.34*08$GPGSV,4,1,14,02,29,176,18,03,08,049,,06,48,137,21,12,39,291,27*75$GPGSV,4,2,14,14,12,105,,17,40,058,20,19,66,060,25,22,04,024,*7E$GPGSV,4,3,14,24,58,247,28,25,02,290,,28,24,100,,32,09,329,*78$GPGSV,4,4,14,46,33,186,,51,31,158,*7B$GPGL
+74562.80
@0.00
#0.00
%44330.00
:18
&0.00
,4916.57507,N,12416.21473,W,202102.00,A,A*71$GPRMC,202103.00,.00,4916.57578,N,12416.21639,W,1,05,1.65,139.2,M,-17.7,M,,*65$GPGSA,A,3,19,24,06,17,12,,,,,,,,4.64,1.65,4.34*08$GPGSV,4,1,14,02,29,176,17,03,08,049,,06,48,137,22,12,39,291,27*79$GPGSV,4,2,14,14,12,105,,17,40,058,18,19,66,060,25,22,04,024,*75$GPGSV,4,3,14,24,58,246,27,25,02,290,,28,24,100,,32,09,329,*76$GPGSV,4,4,14,46,33,186,,51,31,158,*7B$GPGL
+74562.80
@0.00
#0.00
%44330.00
:21
&0.00
,4916.57578,N,12416.21639,W,202105.00,A,A*72$GPRMC,202106.00,108.00,4916.57593,N,12416.21764,W,1,05,1.65,136.0,M,-17.7,M,,*69$GPGSA,A,3,19,24,06,17,12,,,,,,,,4.65,1.65,4.35*08$GPGSV,4,1,14,02,29,176,19,03,08,049,,06,48,137,24,12,39,291,28*7E$GPGSV,4,2,14,14,12,105,,17,40,058,17,19,66,060,26,22,04,024,*79$GPGSV,4,3,14,24,58,246,28,25,03,290,,28,24,100,,32,09,329,*78$GPGSV,4,4,14,46,33,186,,51,31,158,*7B$GPGL
+74562.80
@0.00
#0.00
%44330.00
:24
&0.00
,4916.57593,N,12416.21764,W,202108.00,A,A*73$GPRMC,202109.00,16.57587,N,12416.21759,W,1,05,1.65,133.9,M,-17.7,M,,*66$GPGSA,A,3,19,24,06,17,12,,,,,,,,4.65,1.65,4.35*08$GPGSV,4,1,14,02,29,176,20,03,08,049,,06,48,137,25,12,39,291,28*75$GPGSV,4,2,14,14,12,105,,17,40,058,13,19,66,060,27,22,04,024,*7C$GPGSV,4,3,14,24,58,246,28,25,03,290,,28,24,100,,32,09,329,*78$GPGSV,4,4,14,46,33,186,,51,31,158,*7B$GPGL
+74562.80
@0.00
#0.00
%44330.00
:27
&0.00
,4916.57587,N,12416.21759,W,202111.00,A,A*70$GPRMC,202112.00,.00,4916.57610,N,12416.21710,W,1,05,1.65,129.9,M,-17.7,M,,*68$GPGSA,A,3,19,24,06,17,12,,,,,,,,4.66,1.65,4.35*0B$GPGSV,4,1,14,02,29,176,19,03,08,049,,06,48,137,26,12,39,291,28*7C$GPGSV,4,2,14,14,12,105,,17,40,058,11,19,66,060,25,22,04,024,*7C$GPGSV,4,3,14,24,58,246,25,25,03,290,,28,24,100,20,32,09,329,*77$GPGSV,4,4,14,46,33,186,,51,31,158,*7B$GPGL
+74562.80
@0.00
#0.00
%44330.00
:30
&0.00
,4916.57610,N,12416.21710,W,202114.00,A,A*75$GPRMC,202115.00,117.00,4916.57628,N,12416.21665,W,1,05,1.65,128.4,M,-17.7,M,,*6F$GPGSA,A,3,19,24,06,17,12,,,,,,,,4.66,1.65,4.36*08$GPGSV,4,1,14,02,29,176,17,03,08,049,,06,48,137,28,12,39,291,26*72$GPGSV,4,2,14,14,12,105,,17,40,058,14,19,66,060,27,22,04,024,*7B$GPGSV,4,3,14,24,58,246,21,25,03,290,,28,24,100,19,32,09,329,*79$GPGSV,4,4,14,46,33,186,,51,31,158,*7B$GPGLMethane:+
Temperature:@
Pressure:#
Altitude:%
Humidity:&
Methane:+
Temperature:@
Pressure:#
Altitude:%
Humidity:&

+54028.12
@0.00
#0.00
%44330.00
:2
&0.00
%Õ±202128.00,V,,,,,,,270421,,,N*74$GPVTG,,,,,,,,,N*30$GPGÿÿÿÿÿÿÿÿÿÿÿÿÿÿÿÿÿÿÿÿÿÿÿÿÿÿÿÿÿÿÿÿÿÿÿÿÿÿÿÿÿÿÿÿÿÿÿÿÿÿÿÿÿÿÿÿÿÿÿÿÿÿÿÿÿÿÿÿÿÿÿÿÿÿÿÿÿÿÿÿÿÿÿÿÿÿÿÿÿÿÿÿÿÿÿÿÿÿÿÿÿÿÿÿÿÿÿÿÿÿÿÿÿÿÿÿÿÿÿÿÿÿÿÿÿÿÿÿÿÿ$GPRMC,202131.00,V,,,,,,,270421,,,N*7C$GPVTG,,,,,,,,,N*30$GPGGA,202131.00,,,,,0,04,2.15,,,,,,*57$GPGSA,A,1,19,24,06,17,,,,,,,,,6.16,2.15,5.77*0C$GPGSV,4,1,14,02,29,176,21,03,08,048,,06,49,136,31,12,40,291,27*71$GPGSV,4,2,14,14,12,105,,17,39,058,23,19,65,060,31,22,04,024,*75$GPGSV,4,3,14,24,58,246,30,25,03,290,,28,24,101,,32,09,329,*70$GPGSV,4,4,14,46,33,186,,51,31,158,*7B$GPGL
+54028.12
@0.00
#0.00
%44330.00
:5
&0.00
,,,,,202131.00,V,N*49$GPRMC,202132.00,V,,,,,,,270421,,,N*7F76,N,12416.21268,W,0.251,,270421,,,A*69$GPVTG,,T,,M,0.251,N,0.464,K,A*23$GPGGA,202134.00,4916.58076,N,12416.21268,W,1,04,2.15,119.2,M,-17.7,M,,*64$GPGSA,A,3,19,24,06,17,,,,,,,,,6.16,2.15,5.77*0E$GPGSV,4,1,14,02,29,176,22,03,08,048,,06,49,136,32,12,40,291,27*71$GPGSV,4,2,14,14,12,105,,17,39,058,20,19,65,060,28,22,04,024,*7E$GPGSV,4,3,14,24,58,246,28,25,03,290,,28,24,101,,32,09,329,*79$GPGSV,4,4,14,46,33,186,,51,31,158,*7B$GPGL
+54028.12
@0.00
#0.00
%44330.00
:8
&0.00
,4916.58076,N,12416.21268,W,202134.00,A,A*74$GPRMC,202135.00,0,4916.58110,N,12416.21360,W,1,04,2.15,114.7,M,-17.7,M,,*67$GPGSA,A,3,19,24,06,17,,,,,,,,,6.16,2.15,5.77*0E$GPGSV,4,1,14,02,29,176,22,03,08,048,,06,49,136,33,12,40,291,29*7E$GPGSV,4,2,14,14,12,105,,17,39,058,18,19,65,060,29,22,04,024,*74$GPGSV,4,3,14,24,58,246,27,25,03,290,,28,24,101,,32,09,329,*76$GPGSV,4,4,14,46,33,186,,51,31,158,*7B$GPGL
+54028.12
@0.00
#0.00
%44330.00
:11
&0.00
,4916.58110,N,12416.21360,W,202137.00,A,A*7F$GPRMC,202138.00,40.00,4916.58222,N,12416.21460,W,1,04,2.15,110.6,M,-17.7,M,,*67$GPGSA,A,3,19,24,06,17,,,,,,,,,6.16,2.15,5.77*0E$GPGSV,4,1,14,02,29,176,28,03,08,048,,06,49,136,32,12,40,291,25*79$GPGSV,4,2,14,14,12,105,,17,39,058,20,19,65,060,29,22,04,024,*7F$GPGSV,4,3,14,24,58,246,26,25,03,290,,28,24,101,,32,09,329,*77$GPGSV,4,4,14,46,33,186,,51,31,158,*7B$GPGL
+54028.12
@0.00
#0.00
%44330.00
:14
&0.00
,4916.58222,N,12416.21460,W,202140.00,A,A*7A$GPRMC,202141.00,0,4916.58309,N,12416.21535,W,1,04,2.15,107.7,M,-17.7,M,,*6A$GPGSA,A,3,19,24,06,17,,,,,,,,,6.16,2.15,5.77*0E$GPGSV,4,1,14,02,29,176,27,03,08,048,,06,49,136,33,12,40,291,25*77$GPGSV,4,2,14,14,12,105,,17,39,058,22,19,65,060,28,22,04,024,*7C$GPGSV,4,3,14,24,58,246,26,25,03,290,,28,24,101,,32,09,329,*77$GPGSV,4,4,14,46,33,186,33,51,31,158,*7B$GPGL
+54028.12
@0.00
#0.00
%44330.00
:17
&0.00
,4916.58309,N,12416.21535,W,202143.00,A,A*70$GPRMC,202144.00,00,4916.58327,N,12416.21583,W,1,05,1.66,111.4,M,-17.7,M,,*6C$GPGSA,A,3,19,24,06,12,17,,,,,,,,4.70,1.66,4.40*0D$GPGSV,4,1,14,02,29,176,27,03,08,048,,06,49,136,34,12,40,291,27*72$GPGSV,4,2,14,14,12,105,,17,39,058,22,19,65,060,29,22,04,023,*7A$GPGSV,4,3,14,24,58,246,25,25,03,290,,28,24,101,15,32,09,329,*70$GPGSV,4,4,14,46,33,186,35,51,31,158,*7D$GPGL
+54028.12
@0.00
#0.00
%44330.00
:20
&0.00
,4916.58327,N,12416.21583,W,202146.00,A,A*74$GPRMC,202147.00,00,4916.58333,N,12416.21556,W,1,05,1.66,119.1,M,-17.7,M,,*63$GPGSA,A,3,19,24,06,12,17,,,,,,,,4.71,1.66,4.41*0D$GPGSV,4,1,14,02,29,176,27,03,08,048,,06,49,136,34,12,40,291,31*75$GPGSV,4,2,14,14,12,105,,17,39,058,24,19,65,060,30,22,04,023,*74$GPGSV,4,3,14,24,58,246,29,25,03,290,,28,24,101,,32,09,329,*78$GPGSV,4,4,14,46,33,186,34,51,31,158,*7C$GPGL
+54028.12
@0.00
#0.00
%44330.00
:23
&0.00
,4916.58333,N,12416.21556,W,202149.00,A,A*76$GPRMC,202150.00,.00,4916.58322,N,12416.21557,W,1,05,1.66,122.2,M,-17.7,M,,*63$GPGSA,A,3,19,24,06,12,17,,,,,,,,4.71,1.66,4.41*0D$GPGSV,4,1,14,02,29,176,25,03,08,048,,06,49,136,34,12,40,291,31*77$GPGSV,4,2,14,14,12,105,,17,39,058,25,19,65,060,30,22,04,023,*75$GPGSV,4,3,14,24,58,246,30,25,03,290,,28,24,101,,32,09,329,*70$GPGSV,4,4,14,46,33,186,34,51,31,158,*7C$GPGL
+54028.12
@0.00
#0.00
%44330.00
:26
&0.00
,4916.58322,N,12416.21557,W,202152.00,A,A*7D$GPRMC,202153.00,.00,4916.58316,N,12416.21580,W,1,05,1.66,124.5,M,-17.7,M,,*68$GPGSA,A,3,19,24,06,12,17,,,,,,,,4.72,1.66,4.42*0D$GPGSV,4,1,14,02,29,176,25,03,08,048,,06,49,136,34,12,40,291,31*77$GPGSV,4,2,14,14,12,105,,17,39,058,25,19,65,060,29,22,04,023,*7D$GPGSV,4,3,14,24,58,246,31,25,03,290,,28,24,101,19,32,09,328,*78$GPGSV,4,4,14,46,33,186,34,51,31,158,*7C$GPGL
+54028.12
@0.00
#0.00
%44330.00
:29
&0.00
,4916.58316,N,12416.21580,W,202155.00,A,A*77$GPRMC,202156.00,58.00,4916.58327,N,12416.21562,W,1,05,1.66,124.4,M,-17.7,M,,*6A$GPGSA,A,3,19,24,06,12,17,,,,,,,,4.72,1.66,4.42*0D$GPGSV,4,1,14,02,29,176,26,03,08,048,,06,49,136,34,12,40,291,31*74$GPGSV,4,2,14,14,12,105,,17,39,058,25,19,65,060,28,22,04,023,*7C$GPGSV,4,3,14,24,58,246,30,25,03,290,,28,24,101,19,32,09,328,17*7F$GPGSV,4,4,14,46,33,186,34,51,31,158,*7C$GPGL
+54028.12
@0.00
#0.00
%44330.00
:32
&0.00
,4916.58327,N,12416.21562,W,202158.00,A,A*74$GPRMC,202159.00,8343,N,12416.21556,W,1,05,1.66,123.6,M,-17.7,M,,*65$GPGSA,A,3,19,24,06,12,17,,,,,,,,4.73,1.66,4.42*0C$GPGSV,4,1,14,02,29,176,25,03,08,048,,06,49,136,35,12,40,291,30*77$GPGSV,4,2,14,14,12,105,,17,39,058,26,19,65,060,27,22,04,023,*70$GPGSV,4,3,14,24,58,246,26,25,03,290,,28,24,101,23,32,09,328,14*72$GPGSV,4,4,14,46,33,186,32,51,31,158,*7A$GPGL
+54028.12
@0.00
#0.00
%44330.00
:35
&0.00
,4916.58343,N,12416.21556,W,202201.00,A,A*7E$GPRMC,202202.00,916.58350,N,12416.21532,W,1,05,1.66,123.9,M,-17.7,M,,*6F$GPGSA,A,3,19,24,06,12,17,,,,,,,,4.73,1.66,4.43*0D$GPGSV,4,1,14,02,29,176,26,03,08,048,,06,49,136,35,12,40,291,31*75$GPGSV,4,2,14,14,12,105,,17,39,058,26,19,65,060,27,22,04,023,*70$GPGSV,4,3,14,24,58,246,30,25,03,290,,28,24,101,22,32,09,328,15*75$GPGSV,4,4,14,46,33,186,33,51,31,158,*7B$GPGL
+54028.12
@0.00
#0.00
%44330.00
:38
&0.00
,4916.58350,N,12416.21532,W,202204.00,A,A*7B$GPRMC,202205.00,,4916.58357,N,12416.21518,W,1,05,1.66,123.2,M,-17.7,M,,*68$GPGSA,A,3,19,24,06,12,17,,,,,,,,4.73,1.66,4.43*0D$GPGSV,4,1,14,02,29,176,25,03,08,048,,06,49,136,35,12,40,291,32*75$GPGSV,4,2,14,14,12,105,,17,39,058,24,19,65,060,28,22,04,023,*7D$GPGSV,4,3,14,24,58,246,30,25,03,290,,28,24,101,22,32,09,328,12*72$GPGSV,4,4,14,46,33,186,34,51,31,158,*7C$GPGL
+54028.12
@0.00
#0.00
%44330.00
:41
&0.00
,4916.58357,N,12416.21518,W,202207.00,A,A*77$GPRMC,202208.00,916.58365,N,12416.21514,W,1,05,1.66,123.5,M,-17.7,M,,*64$GPGSA,A,3,19,24,06,12,17,,,,,,,,4.74,1.66,4.44*0D$GPGSV,4,1,14,02,29,175,25,03,08,048,,06,49,136,35,12,40,291,31*75$GPGSV,4,2,14,14,12,105,,17,39,058,23,19,65,060,27,22,04,023,*75$GPGSV,4,3,14,24,58,246,30,25,03,290,,28,24,101,22,32,09,328,*71$GPGSV,4,4,14,46,33,186,33,51,31,158,*7B$GPGL
+54028.12
@0.00
#0.00
%44330.00
:44
&0.00
,4916.58365,N,12416.21514,W,202210.00,A,A*7C$GPRMC,202211.00,.00,4916.58375,N,12416.21520,W,1,05,1.67,123.0,M,-17.7,M,,*65$GPGSA,A,3,19,24,06,12,17,,,,,,,,4.74,1.67,4.44*0C$GPGSV,4,1,14,02,29,175,27,03,08,048,,06,49,136,35,12,40,291,31*77$GPGSV,4,2,14,14,12,105,,17,39,058,25,19,65,060,28,22,04,023,*7C$GPGSV,4,3,14,24,58,246,30,25,03,290,,28,24,101,23,32,09,328,16*77$GPGSV,4,4,14,46,33,186,33,51,31,158,*7B$GPGL
+54028.12
@0.00
#0.00
%44330.00
:47
&0.00
,4916.58375,N,12416.21520,W,202213.00,A,A*79$GPRMC,202214.00,6.58378,N,12416.21526,W,1,05,1.67,122.4,M,-17.7,M,,*6E$GPGSA,A,3,19,24,06,12,17,,,,,,,,4.75,1.67,4.45*0C$GPGSV,4,1,14,02,29,175,27,03,08,048,,06,49,136,35,12,40,291,31*77$GPGSV,4,2,14,14,12,105,,17,39,058,26,19,65,060,29,22,04,023,*7E$GPGSV,4,3,14,24,58,246,31,25,03,290,,28,24,101,23,32,09,328,*71$GPGSV,4,4,14,46,33,186,34,51,31,158,*7C$GPGL
+54028.12
@0.00
#0.00
%44330.00
:50
&0.00
,4916.58378,N,12416.21526,W,202216.00,A,A*77$GPRMC,202217.00,,4916.58371,N,12416.21535,W,1,05,1.67,121.3,M,-17.7,M,,*6E$GPGSA,A,3,19,24,06,12,17,,,,,,,,4.75,1.67,4.45*0C$GPGSV,4,1,14,02,29,175,27,03,08,048,,06,49,136,35,12,40,292,30*75$GPGSV,4,2,14,14,12,105,,17,39,058,27,19,65,060,29,22,04,023,*7F$GPGSV,4,3,14,24,58,246,30,25,03,290,,28,24,101,22,32,09,328,*71$GPGSV,4,4,14,46,33,186,33,51,31,158,*7B$GPGL
+54028.12
@0.00
#0.00
%44330.00
:53
&0.00
,4916.58371,N,12416.21535,W,202219.00,A,A*73$GPRMC,202220.00,00,4916.583592416.21556,W,1,05,1.67,121.1,M,-17.7,M,,*6B$GPGSA,A,3,19,24,06,12,17,,,,,,,,4.76,1.67,4.46*0C$GPGSV,4,1,14,02,29,175,28,03,08,048,,06,49,136,35,12,40,292,31*7B$GPGSV,4,2,14,14,11,105,,17,39,058,28,19,65,060,28,22,04,023,*72$GPGSV,4,3,14,24,58,246,31,25,03,290,,28,24,101,22,32,09,328,19*78$GPGSV,4,4,14,46,33,186,34,51,31,158,*7C$GPGL
+54028.12
@0.00
#0.00
%44330.00
:56
&0.00
,4916.58359,N,12416.21556,W,202222.00,A,A*74$GPRMC,202223.00,225.00,4916.58336,N,12416.21573,W,1,06,1.25,120.1,M,-17.7,M,,*66$GPGSA,A,3,19,24,06,12,17,02,,,,,,,3.34,1.25,3.10*0D$GPGSV,4,1,14,02,30,175,28,03,08,048,,06,49,136,35,12,40,292,31*73$GPGSV,4,2,14,14,11,105,,17,39,058,29,19,65,060,28,22,04,023,*73$GPGSV,4,3,14,24,58,246,30,25,03,290,,28,24,101,21,32,09,328,10*73$GPGSV,4,4,14,46,33,186,34,51,31,158,*7C$GPGL
+54028.12
@0.00
#0.00
%44330.00
:59
&0.00
,4916.58336,N,12416.21573,W,202225.00,A,A*7D$GPRMC,202226.00,6,N,12416.21579,W,1,06,1.25,118.4,M,-17.7,M,,*6C$GPGSA,A,3,19,24,06,12,17,02,,,,,,,3.35,1.25,3.10*0C$GPGSV,4,1,14,02,30,175,29,03,08,048,,06,49,136,35,12,40,292,32*71$GPGSV,4,2,14,14,11,105,,17,39,058,29,19,65,060,28,22,04,023,*73$GPGSV,4,3,14,24,58,246,31,25,03,290,,28,24,101,20,32,09,328,*72$GPGSV,4,4,14,46,33,186,33,51,31,158,*7B$GPGL
+54028.12
@0.00
#0.00
%44330.00
:62
&0.00
,4916.58306,N,12416.21579,W,202228.00,A,A*79$GPRMC,202229.00,6.58295,N,12416.21579,W,1,06,1.25,117.3,M,-17.7,M,,*67$GPGSA,A,3,19,24,06,12,17,02,,,,,,,3.35,1.25,3.10*0C$GPGSV,4,1,14,02,30,175,30,03,08,048,,06,49,136,35,12,40,292,33*78$GPGSV,4,2,14,14,11,105,,17,39,058,29,19,65,060,29,22,04,023,*72$GPGSV,4,3,14,24,58,245,31,25,03,290,13,28,24,101,21,32,09,328,*72$GPGSV,4,4,14,46,33,186,34,51,31,158,*7C$GPGL
+54028.12
@0.00
#0.00
%44330.00
:65
&0.00
,4916.58295,N,12416.21579,W,202231.00,A,A*7A$GPRMC,202232.00,73,N,12416.21583,W,1,06,1.25,116.4,M,-17.7,M,,*69$GPGSA,A,3,19,24,06,12,17,02,,,,,,,3.35,1.25,3.11*0D$GPGSV,4,1,14,02,30,175,31,03,08,048,,06,49,136,35,12,40,292,33*79$GPGSV,4,2,14,14,11,105,,17,39,058,28,19,65,060,29,22,04,023,*73$GPGSV,4,3,14,24,58,245,31,25,03,290,09,28,23,101,21,32,09,328,*7E$GPGSV,4,4,14,46,33,186,34,51,31,158,*7C$GPGL
+54028.12
@0.00
#0.00
%44330.00
:68
&0.00
,4916.58273,N,12416.21583,W,202234.00,A,A*72$GPRMC,202235.00,,4916.58257,N,12416.21583,W,1,06,1.25,115.6,M,-17.7,M,,*6D$GPGSA,A,3,19,24,06,12,17,02,,,,,,,3.35,1.25,3.11*0D$GPGSV,4,1,14,02,30,175,31,03,08,048,,06,49,136,34,12,40,292,33*78$GPGSV,4,2,14,14,11,105,,17,39,058,27,19,65,060,30,22,04,023,*74$GPGSV,4,3,14,24,58,245,31,25,03,290,12,28,23,101,20,32,09,328,*75$GPGSV,4,4,14,46,33,186,33,51,31,158,*7B$GPGL
+54028.12
@0.00
#0.00
%44330.00
:71
&0.00
,4916.58257,N,12416.21583,W,202237.00,A,A*77$GPRMC,202238.00,8245,N,12416.21574,W,1,06,1.25,114.3,M,-17.7,M,,*62$GPGSA,A,3,19,24,06,12,17,02,,,,,,,3.35,1.25,3.11*0D$GPGSV,4,1,14,02,30,175,31,03,08,048,,06,49,136,34,12,40,292,33*78$GPGSV,4,2,14,14,11,105,,17,39,058,27,19,65,060,30,22,04,023,*74$GPGSV,4,3,14,24,58,245,31,25,03,290,12,28,23,101,18,32,09,328,*7E$GPGSV,4,4,14,46,33,186,34,51,31,158,*7C$GPGL
+54028.12
@0.00
#0.00
%44330.00
:74
&0.00
,4916.58245,N,12416.21574,W,202240.00,A,A*7C$GPRMC,202241.00,58237,N,12416.21563,W,1,06,1.25,113.0,M,-17.7,M,,*66$GPGSA,A,3,19,24,06,12,17,02,,,,,,,3.35,1.25,3.11*0D$GPGSV,4,1,14,02,30,175,31,03,08,048,,06,49,136,34,12,40,292,32*79$GPGSV,4,2,14,14,11,105,,17,39,058,27,19,65,060,30,22,04,023,*74$GPGSV,4,3,14,24,58,245,31,25,03,290,,28,23,101,18,32,09,328,*7D$GPGSV,4,4,14,46,33,186,33,51,31,158,*7B$GPGL
+54028.12
@0.00
#0.00
%44330.00
:77
&0.00
,4916.58237,N,12416.21563,W,202243.00,A,A*7C$GPRMC,202244.00,,4916.58235,N,12416.21554,W,1,06,1.25,112.6,M,-17.7,M,,*62$GPGSA,A,3,19,24,06,12,17,02,,,,,,,3.36,1.25,3.11*0E$GPGSV,4,1,14,02,30,175,31,03,08,048,,06,49,136,34,12,40,292,32*79$GPGSV,4,2,14,14,11,105,,17,39,058,26,19,65,060,29,22,04,023,*7D$GPGSV,4,3,14,24,58,245,31,25,03,290,,28,23,101,16,32,09,328,*73$GPGSV,4,4,14,46,33,186,33,51,31,158,*7B$GPGL
+54028.12
@0.00
#0.00
%44330.00
:80
&0.00
,4916.58235,N,12416.21554,W,202246.00,A,A*7F$GPRMC,202247.00,.58243,N,12416.21539,W,1,06,1.25,111.8,M,-17.7,M,,*6A$GPGSA,A,3,19,24,06,12,17,02,,,,,,,3.36,1.25,3.12*0D$GPGSV,4,1,14,02,30,175,31,03,08,048,,06,49,136,34,12,40,292,32*79$GPGSV,4,2,14,14,11,105,,17,39,058,26,19,65,060,28,22,04,023,*7C$GPGSV,4,3,14,24,58,245,31,25,03,290,11,28,23,101,15,32,09,328,19*78$GPGSV,4,4,14,46,33,186,33,51,31,158,*7B$GPGL
+54028.12
@0.00
#0.00
%44330.00
:83
&0.00
,4916.58243,N,12416.21539,W,202249.00,A,A*7A$GPRMC,202250.00,12416.21523,W,1,06,1.25,111.3,M,-17.7,M,,*64$GPGSA,A,3,19,24,06,12,17,02,,,,,,,3.36,1.25,3.12*0D$GPGSV,4,1,14,02,30,175,29,03,08,048,,06,49,136,32,12,40,292,31*75$GPGSV,4,2,14,14,11,105,,17,39,058,27,19,65,060,26,22,04,023,*73$GPGSV,4,3,14,24,58,245,30,25,03,290,13,28,23,101,15,32,09,328,10*72$GPGSV,4,4,14,46,33,186,32,51,31,158,*7A$GPGL
+54028.12
@0.00
#0.00
%44330.00
:86
&0.00
,4916.58247,N,12416.21523,W,202252.00,A,A*7F$GPRMC,202253.00,.58256,N,12416.21520,W,1,06,1.25,111.5,M,-17.7,M,,*66$GPGSA,A,3,19,24,06,12,17,02,,,,,,,3.36,1.25,3.12*0D$GPGSV,4,1,14,02,30,175,29,03,08,048,,06,49,136,32,12,40,292,31*75$GPGSV,4,2,14,14,11,105,,17,39,058,27,19,65,060,26,22,04,023,*73$GPGSV,4,3,14,24,58,245,31,25,03,290,12,28,23,101,18,32,09,328,18*77$GPGSV,4,4,14,46,33,186,32,51,31,158,*7A$GPGL
+54028.12
@0.00
#0.00
%44330.00
:89
&0.00
,4916.58256,N,12416.21520,W,202255.00,A,A*7B$GPRMC,202256.00,.58280,N,12416.21512,W,1,06,1.25,111.0,M,-17.7,M,,*64$GPGSA,A,3,19,24,06,12,17,02,,,,,,,3.36,1.25,3.12*0D$GPGSV,4,1,14,02,30,175,29,03,08,048,,06,49,136,32,12,40,292,31*75$GPGSV,4,2,14,14,11,105,,17,39,058,27,19,65,060,24,22,04,023,*71$GPGSV,4,3,14,24,58,245,30,25,03,290,14,28,23,101,16,32,09,328,16*70$GPGSV,4,4,14,46,33,186,33,51,31,158,*7B$GPGL
+54028.12
@0.00
#0.00
%44330.00
:92
&0.00
,4916.58280,N,12416.21512,W,202258.00,A,A*7C$GPRMC,202259.00,87,N,12416.21499,W,1,06,1.25,111.1,M,-17.7,M,,*6D$GPGSA,A,3,19,24,06,12,17,02,,,,,,,3.36,1.25,3.12*0D$GPGSV,4,1,14,02,30,175,28,03,08,048,,06,49,136,33,12,40,292,31*75$GPGSV,4,2,14,14,11,105,,17,39,058,26,19,65,060,25,22,04,023,*71$GPGSV,4,3,14,24,58,245,30,25,03,290,08,28,23,101,16,32,09,328,12*79$GPGSV,4,4,14,46,33,186,33,51,31,158,*7B$GPGL
+54028.12
@0.00
#0.00
%44330.00
:95
&0.00
,4916.58287,N,12416.21499,W,202301.00,A,A*74$GPRMC,202302.00,298,N,12416.21487,W,1,06,1.25,110.9,M,-17.7,M,,*60$GPGSA,A,3,19,24,06,12,17,02,,,,,,,3.36,1.25,3.12*0D$GPGSV,4,1,14,02,30,175,27,03,08,048,,06,49,136,32,12,40,292,31*7B$GPGSV,4,2,14,14,11,105,,17,39,058,27,19,65,060,24,22,04,023,*71$GPGSV,4,3,14,24,58,245,30,25,03,290,08,28,23,101,15,32,09,328,09*70$GPGSV,4,4,14,46,33,186,32,51,31,158,*7A$GPGL
+54028.12
@0.00
#0.00
%44330.00
:98
&0.00
,4916.58298,N,12416.21487,W,202304.00,A,A*70$GPRMC,202305.00,305,N,12416.21481,W,1,06,1.25,110.7,M,-17.7,M,,*6E$GPGSA,A,3,19,24,06,12,17,02,,,,,,,3.37,1.25,3.13*0D$GPGSV,4,1,14,02,30,175,27,03,08,048,,06,49,136,33,12,40,292,31*7A$GPGSV,4,2,14,14,11,105,,17,39,058,28,19,65,060,25,22,04,023,*7F$GPGSV,4,3,14,24,58,245,29,25,03,290,08,28,23,101,15,32,09,328,11*71$GPGSV,4,4,14,46,33,186,33,51,31,158,*7B$GPGL
+54028.12
@0.00
#0.00
%44330.00
:101
&0.00
,4916.58305,N,12416.21481,W,202307.00,A,A*70$GPRMC,202308.00,8308,N,12416.21479,W,1,06,1.25,110.6,M,-17.7,M,,*63$GPGSA,A,3,19,24,06,12,17,02,,,,,,,3.37,1.25,3.13*0D$GPGSV,4,1,14,02,30,175,24,03,08,048,,06,49,136,31,12,40,292,28*73$GPGSV,4,2,14,14,11,105,,17,39,058,26,19,65,059,23,22,04,023,*7D$GPGSV,4,3,14,24,58,245,27,25,03,290,17,28,23,101,15,32,09,328,08*79$GPGSV,4,4,14,46,33,186,31,51,31,158,*79$GPGL
+54028.12
@0.00
#0.00
%44330.00
:104
&0.00
,4916.58308,N,12416.21479,W,202310.00,A,A*7C$GPRMC,202311.00,8306,N,12416.21471,W,1,06,1.25,110.7,M,-17.7,M,,*67$GPGSA,A,3,19,24,06,12,17,02,,,,,,,3.37,1.25,3.13*0D$GPGSV,4,1,14,02,30,175,24,03,08,048,,06,49,136,31,12,40,292,28*73$GPGSV,4,2,14,14,11,105,,17,39,058,27,19,65,059,22,22,04,023,*7D$GPGSV,4,3,14,24,58,245,28,25,03,290,18,28,23,101,10,32,09,328,08*7C$GPGSV,4,4,14,46,33,186,31,51,31,158,*79$GPGL
+54028.12
@0.00
#0.00
%44330.00
:107
&0.00
,4916.58306,N,12416.21471,W,202313.00,A,A*79$GPRMC,202314.00,8311,N,12416.21467,W,1,06,1.25,110.4,M,-17.7,M,,*60$GPGSA,A,3,19,24,06,12,17,02,,,,,,,3.37,1.25,3.13*0D$GPGSV,4,1,14,02,30,175,22,03,08,048,,06,49,136,31,12,40,292,27*7A$GPGSV,4,2,14,14,11,105,,17,39,058,27,19,65,059,20,22,04,023,*7F$GPGSV,4,3,14,24,58,244,28,25,03,290,21,28,23,101,08,32,09,328,11*76$GPGSV,4,4,14,46,33,186,31,51,31,158,*79$GPGL
+54028.12
@0.00
#0.00
%44330.00
:110
&0.00
,4916.58311,N,12416.21467,W,202316.00,A,A*7D$GPRMC,202317.00,319,N,12416.21453,W,1,06,1.25,110.0,M,-17.7,M,,*64$GPGSA,A,3,19,24,06,12,17,02,,,,,,,3.37,1.25,3.13*0D$GPGSV,4,1,14,02,30,175,21,03,08,048,,06,49,136,31,12,40,292,28*76$GPGSV,4,2,14,14,11,105,,17,39,058,27,19,65,059,22,22,04,023,*7D$GPGSV,4,3,14,24,58,244,29,25,03,290,22,28,23,101,08,32,09,328,12*77$GPGSV,4,4,14,46,33,186,31,51,31,158,*79$GPGL
+54028.12
@0.00
#0.00
%44330.00
:113
&0.00
,4916.58319,N,12416.21453,W,202319.00,A,A*7D$GPRMC,202320.00,325,N,12416.21446,W,1,06,1.25,109.2,M,-17.7,M,,*6D$GPGSA,A,3,19,24,06,12,17,02,,,,,,,3.37,1.25,3.14*0A$GPGSV,4,1,14,02,30,175,22,03,08,048,,06,49,136,32,12,40,292,28*76$GPGSV,4,2,14,14,11,105,,17,39,058,28,19,65,059,25,22,04,023,*75$GPGSV,4,3,14,24,58,244,30,25,03,290,23,28,23,101,09,32,09,328,13*7E$GPGSV,4,4,14,46,33,186,32,51,31,158,*7A$GPGL
+54028.12
@0.00
#0.00
%44330.00
:116
&0.00
,4916.58325,N,12416.21446,W,202322.00,A,A*7E$GPRMC,202323.00,327,N,12416.21446,W,1,06,1.25,108.4,M,-17.7,M,,*6F$GPGSA,A,3,19,24,06,12,17,02,,,,,,,3.38,1.25,3.14*05$GPGSV,4,1,14,02,30,175,23,03,08,048,,06,49,136,32,12,40,292,29*76$GPGSV,4,2,14,14,11,105,,17,39,058,28,19,65,059,26,22,04,023,*76$GPGSV,4,3,14,24,58,244,31,25,03,290,24,28,23,101,09,32,09,328,08*72$GPGSV,4,4,14,46,33,186,33,51,31,158,*7B$GPGL
+54028.12
@0.00
#0.00
%44330.00
:119
&0.00
,4916.58327,N,12416.21446,W,202325.00,A,A*7B$GPRMC,202326.00,12416.21449,W,1,06,1.25,107.2,M,-17.7,M,,*63$GPGSA,A,3,19,24,06,12,17,02,,,,,,,3.38,1.25,3.14*05$GPGSV,4,1,14,02,30,175,25,03,08,048,,06,49,136,33,12,40,292,29*71$GPGSV,4,2,14,14,11,105,,17,39,058,29,19,65,059,27,22,04,023,*76$GPGSV,4,3,14,24,58,244,32,25,03,290,24,28,23,101,,32,09,328,17*76$GPGSV,4,4,14,46,33,186,33,51,31,158,*7B$GPGL
+54028.12
@0.00
#0.00
%44330.00
:122
&0.00
,4916.58331,N,12416.21449,W,202328.00,A,A*7E$GPRMC,202329.00,.58334,N,12416.21446,W,1,06,1.25,106.0,M,-17.7,M,,*62$GPGSA,A,3,19,24,06,12,17,02,,,,,,,3.38,1.25,3.14*05$GPGSV,4,1,14,02,30,175,26,03,08,048,,06,49,136,33,12,40,292,30*7A$GPGSV,4,2,14,14,11,105,,17,39,058,28,19,65,059,27,22,04,023,*77$GPGSV,4,3,14,24,58,244,32,25,03,290,24,28,23,101,,32,09,328,15*74$GPGSV,4,4,14,46,33,186,33,51,31,158,*7B$GPGL
+54028.12
@0.00
#0.00
%44330.00
:125
&0.00
,4916.58334,N,12416.21446,W,202331.00,A,A*7C$GPRMC,202332.00,16.58345,N,12416.21437,W,1,06,1.25,105.0,M,-17.7,M,,*64$GPGSA,A,3,19,24,06,12,17,02,,,,,,,3.38,1.25,3.14*05$GPGSV,4,1,14,02,30,175,26,03,08,048,,06,49,136,33,12,40,292,30*7A$GPGSV,4,2,14,14,11,105,,17,39,058,28,19,65,059,27,22,04,023,*77$GPGSV,4,3,14,24,58,244,32,25,03,290,25,28,23,101,,32,09,328,15*75$GPGSV,4,4,14,46,33,186,33,51,31,158,*7B$GPGL
+54028.12
@0.00
#0.00
%44330.00
:128
&0.00
,4916.58345,N,12416.21437,W,202334.00,A,A*79$GPRMC,202335.00,355,N,12416.21427,W,1,06,1.25,104.8,M,-17.7,M,,*6E$GPGSA,A,3,19,24,06,12,17,02,,,,,,,3.38,1.25,3.14*05$GPGSV,4,1,14,02,30,175,26,03,08,048,,06,49,136,32,12,40,292,29*73$GPGSV,4,2,14,14,11,105,,17,39,058,28,19,65,059,27,22,04,023,*77$GPGSV,4,3,14,24,58,244,31,25,03,290,25,28,23,101,,32,09,328,13*70$GPGSV,4,4,14,46,33,186,33,51,31,158,*7B$GPGL
+54028.12
@0.00
#0.00
%44330.00
:131
&0.00
,4916.58355,N,12416.21427,W,202337.00,A,A*7A$GPRMC,202338.00,6.58362,N,12416.21420,W,1,06,1.25,104.4,M,-17.7,M,,*61$GPGSA,A,3,19,24,06,12,17,02,,,,,,,3.38,1.25,3.15*04$GPGSV,4,1,14,02,30,175,26,03,09,047,,06,49,136,32,12,40,292,29*7D$GPGSV,4,2,14,14,11,105,,17,39,058,27,19,65,059,26,22,04,023,*79$GPGSV,4,3,14,24,58,244,31,25,03,290,24,28,23,101,,32,09,328,10*72$GPGSV,4,4,14,46,33,186,32,51,31,158,*7A$GPGL
+54028.12
@0.00
#0.00
%44330.00
:134
&0.00
,4916.58362,N,12416.21420,W,202340.00,A,A*79$GPRMC,202341.00,366,N,12416.21417,W,1,06,1.25,104.3,M,-17.7,M,,*65$GPGSA,A,3,19,24,06,12,17,02,,,,,,,3.39,1.25,3.15*05$GPGSV,4,1,14,02,30,175,27,03,09,047,,06,49,135,33,12,40,292,29*7E$GPGSV,4,2,14,14,11,105,,17,39,058,26,19,65,059,26,22,04,023,*78$GPGSV,4,3,14,24,58,244,31,25,03,290,24,28,23,101,,32,09,328,12*70$GPGSV,4,4,14,46,33,186,33,51,31,158,*7B$GPGL