
+200.00
@20.48
#1009.65
%-44.34
:2
&41.14
‚‚RŠ*5
$GPTXT,01,01,02,ANTSUPERV=AC SD PDoS SR*20
$GPTXT,01,01$GPRMC,023207.00,A,4916.45326,N,12413.53676,W,0.088,,170621,,,A*6D
$GPVTG,,T,,M,0.088,N,0.163,K,A*27
$GPGGA,023207.00,4916.45326,N,12413.53676,W,1,08,0.94,111.4,M,-17.7,M,,*6E
$GPGSA,A,3,10,32,08,27,23,21,24,18,,,,,1.73,0.94,1.46*09
$GPGSV,4,1,14,01,04,306,,08,42,274,40,10,72,056,39,14,02,346,*79
$GPGSV,4,2,14,18,13,128,40,21,27,305,36,22,04,265,31,23,37,074,41*7F
$GPGSV,4,3,14,24,21,059,43,27,40,227,36,28,00,001,,32,57,179,26*75
$GPGSV,4,4,14,46,33,186,32,51,31,158,*7A
$GPGLL,4916.45326,N,12413.53676,W,023207.00,A,A*77
$
+200.00
@20.56
#1009.69
%-44.49
:6
&41.10
GPRMC,023208.00,A,4916.45331,N,12413.53682,W,0.083,,170621,,,A*,12413.53692,W,023210.00,A,A*7D
$GPRMC,023211.00,A,4916.45377,N,12413.53711,W,0.024,,170621,,,A*68
$GPVTG,,T,,M,0.024,N,0.045,K,A*24
$GPGGA,023211.00,4916.45377,N,12413.53711,W,1,08,0.94,111.7,M,-17.7,M,,*6E
$GPGSA,A,3,10,32,08,27,23,21,24,18,,,,,1.73,0.94,1.46*09
$GPGSV,4,1,14,01,04,306,25,08,42,274,40,10,72,056,39,14,02,346,*7E
$GPGSV,4,2,14,18,13,128,39,21,27,305,39,22,04,265,27,23,37,074,44*7C
$GPGSV,4,3,14,24,21,059,44,27,40,227,38,28,00,001,,32,57,179,37*7C
$GPGSV,4,4,14,46,33,186,38,51,31,158,*70
$GPGLL,4916.45377,N,12413.53711,W,023211.00,A,A*74
$GPRMC,023212.00,A,4916.45388,N,12413.53721,W,0.081,,170621,,,A*67
$GPVTG,,T,,M,0.081,N,0.150,K,A*2E
$
+331.84
@20.59
#1009.68
%-44.58
:10
&40.92
GPGGA,023212.00,4916.45388,N,12413.53721,W,1,08,0.94,111.3,M,-1$GPRMC,023215.00,A,4916.45418,N,12413.53733,W,0.042,,170621,,,A*62
$GPVTG,,T,,M,0.042,N,0.078,K,A*2A
$GPGGA,023215.00,4916.45418,N,12413.53733,W,1,08,0.94,110.8,M,-17.7,M,,*6A
$GPGSA,A,3,10,32,08,27,23,21,24,18,,,,,1.73,0.94,1.46*09
$GPGSV,4,1,14,01,04,306,23,08,42,274,36,10,72,056,41,14,02,346,*76
$GPGSV,4,2,14,18,13,128,38,21,27,305,37,22,04,265,,23,37,074,41*73
$GPGSV,4,3,14,24,21,059,43,27,40,227,36,28,00,001,19,32,57,179,27*7C
$GPGSV,4,4,14,46,33,186,38,51,31,158,*70
$GPGLL,4916.45418,N,12413.53733,W,023215.00,A,A*7E
$GPRMC,023216.00,A,4916.45424,N,12413.53727,W,0.007,,170621,,,A*6A
$GPVTG,,T,,M,0.007,N,0.013,K,A*26
$
+646.78
@20.61
#1009.71
%-44.37
:14
&40.78
GPGGA,023216.00,4916.45424,N,12413.53727,W,1,08,0.94,110.7,M,-1$GPRMC,023219.00,A,4916.45425,N,12413.53731,W,0.047,,170621,,,A*67
$GPVTG,,T,,M,0.047,N,0.086,K,A*2E
$GPGGA,023219.00,4916.45425,N,12413.53731,W,1,08,0.94,110.3,M,-17.7,M,,*61
$GPGSA,A,3,10,32,08,27,23,21,24,18,,,,,1.73,0.94,1.45*0A
$GPGSV,4,1,14,01,04,306,,08,42,274,38,10,72,056,41,14,02,346,*79
$GPGSV,4,2,14,18,13,128,40,21,27,305,37,22,04,265,32,23,37,074,43*7F
$GPGSV,4,3,14,24,21,059,44,27,40,227,39,28,00,001,,32,57,179,34*7E
$GPGSV,4,4,14,46,33,186,37,51,31,158,*7F
$GPGLL,4916.45425,N,12413.53731,W,023219.00,A,A*7E
$GPRMC,023220.00,A,4916.45426,N,12413.53729,W,0.025,,170621,,,A*63
$GPVTG,,T,,M,0.025,N,0.047,K,A*27
$
+627.25
@20.62
#1009.70
%-44.34
:18
&40.67
GPGGA,023220.00,4916.45426,N,12413.53729,W,1,08,0.94,110.2,M,-1$GPRMC,023223.00,A,4916.45425,N,12413.53736,W,0.089,,170621,,,A*6B
$GPVTG,,T,,M,0.089,N,0.165,K,A*20
$GPGGA,023223.00,4916.45425,N,12413.53736,W,1,08,0.94,110.3,M,-17.7,M,,*6F
$GPGSA,A,3,10,32,08,27,23,21,24,18,,,,,1.73,0.94,1.45*0A
$GPGSV,4,1,14,01,04,306,,08,42,274,41,10,72,056,41,14,02,346,*77
$GPGSV,4,2,14,18,13,128,39,21,27,305,37,22,04,266,31,23,37,074,45*77
$GPGSV,4,3,14,24,21,059,40,27,40,227,40,28,00,001,,32,57,179,36*76
$GPGSV,4,4,14,46,33,186,33,51,31,158,*7B
$GPGLL,4916.45425,N,12413.53736,W,023223.00,A,A*70
$GPRMC,023224.00,A,4916.45428,N,12413.53737,W,0.030,,170621,,,A*62
$GPVTG,,T,,M,0.030,N,0.055,K,A*20
$
+529.59
@20.63
#1009.67
%-44.48
:22
&40.59
GPGGA,023224.00,4916.45428,N,12413.53737,W,1,08,0.94,110.6,M,-1$GPRMC,023227.00,A,4916.45430,N,12413.53734,W,0.030,,170621,,,A*6B
$GPVTG,,T,,M,0.030,N,0.056,K,A*23
$GPGGA,023227.00,4916.45430,N,12413.53734,W,1,08,0.94,110.9,M,-17.7,M,,*67
$GPGSA,A,3,10,32,08,27,23,21,24,18,,,,,1.73,0.94,1.45*0A
$GPGSV,4,1,14,01,04,306,,08,42,274,42,10,72,056,42,14,02,346,*77
$GPGSV,4,2,14,18,13,128,40,21,27,305,36,22,04,266,25,23,37,074,43*7B
$GPGSV,4,3,14,24,21,059,43,27,40,227,39,28,00,001,,32,57,179,40*7A
$GPGSV,4,4,14,46,33,186,34,51,31,158,*7C
$GPGLL,4916.45430,N,12413.53734,W,023227.00,A,A*72
$GPRMC,023228.00,A,4916.45429,N,12413.53731,W,0.030,,170621,,,A*69
$GPVTG,,T,,M,0.030,N,0.056,K,A*23
$
+480.76
@20.64
#1009.65
%-44.49
:26
&40.50
GPGGA,023228.00,4916.45429,N,12413.53731,W,1,08,0.94,110.9,M,-1$GPRMC,023231.00,A,4916.45437,N,12413.53722,W,0.010,,170621,,,A*6E
$GPVTG,,T,,M,0.010,N,0.019,K,A*2A
$GPGGA,023231.00,4916.45437,N,12413.53722,W,1,08,0.94,110.5,M,-17.7,M,,*6C
$GPGSA,A,3,10,32,08,27,23,21,24,18,,,,,1.73,0.94,1.45*0A
$GPGSV,4,1,14,01,04,306,,08,42,274,42,10,72,056,43,14,02,346,*76
$GPGSV,4,2,14,18,13,128,33,21,27,305,35,22,04,266,36,23,37,074,41*7C
$GPGSV,4,3,14,24,21,059,41,27,40,227,40,28,00,001,,32,57,179,38*79
$GPGSV,4,4,14,46,33,186,36,51,31,158,*7E
$GPGLL,4916.45437,N,12413.53722,W,023231.00,A,A*75
$GPRMC,023232.00,A,4916.45439,N,12413.53721,W,0.014,,170621,,,A*64
$GPVTG,,T,,M,0.014,N,0.026,K,A*22
$
+451.46
@20.65
#1009.68
%-44.49
:30
&40.50
GPGGA,023232.00,4916.45439,N,12413.53721,W,1,08,0.94,110.4,M,-1$GPRMC,023235.00,A,4916.45438,N,12413.53718,W,0.024,,170621,,,A*6B
$GPVTG,,T,,M,0.024,N,0.044,K,A*25
$GPGGA,023235.00,4916.45438,N,12413.53718,W,1,08,0.94,110.1,M,-17.7,M,,*6A
$GPGSA,A,3,10,32,08,27,23,21,24,18,,,,,1.73,0.94,1.45*0A
$GPGSV,4,1,14,01,04,306,24,08,42,274,42,10,72,056,44,14,02,346,*77
$GPGSV,4,2,14,18,13,128,37,21,27,305,34,22,04,266,34,23,37,074,40*7A
$GPGSV,4,3,14,24,21,059,43,27,40,227,40,28,00,001,,32,57,179,37*74
$GPGSV,4,4,14,46,33,186,33,51,31,158,*7B
$GPGLL,4916.45438,N,12413.53718,W,023235.00,A,A*77
$GPRMC,023236.00,A,4916.45440,N,12413.53714,W,0.025,,170621,,,A*6A
$GPVTG,,T,,M,0.025,N,0.046,K,A*26
$
+436.82
@20.65
#1009.71
%-44.51
:34
&40.84
GPGGA,023236.00,4916.45440,N,12413.53714,W,1,08,0.94,110.1,M,-1$GPRMC,023239.00,A,4916.45441,N,12413.53708,W,0.050,,170621,,,A*6B
$GPVTG,,T,,M,0.050,N,0.093,K,A*2C
$GPGGA,023239.00,4916.45441,N,12413.53708,W,1,08,0.94,110.0,M,-17.7,M,,*68
$GPGSA,A,3,10,32,08,27,23,21,24,18,,,,,1.73,0.94,1.45*0A
$GPGSV,4,1,14,01,04,306,24,08,42,274,41,10,72,056,44,14,02,346,*74
$GPGSV,4,2,14,18,13,128,29,21,27,305,36,22,04,266,33,23,37,074,37*70
$GPGSV,4,3,14,24,21,059,42,27,40,227,39,28,00,001,,32,57,179,34*78
$GPGSV,4,4,14,46,33,186,35,51,31,158,*7D
$GPGLL,4916.45441,N,12413.53708,W,023239.00,A,A*74
$GPRMC,023240.00,A,4916.45441,N,12413.53707,W,0.016,,170621,,,A*68
$GPVTG,,T,,M,0.016,N,0.029,K,A*2F
$
+451.46
@20.65
#1009.68
%-44.61
:38
&41.05
GPGGA,023240.00,4916.45441,N,12413.53707,W,1,08,0.94,110.0,M,-1$GPRMC,023243.00,A,4916.45439,N,12413.53696,W,0.041,,170621,,,A*6F
$GPVTG,,T,,M,0.041,N,0.076,K,A*27
$GPGGA,023243.00,4916.45439,N,12413.53696,W,1,08,0.94,109.9,M,-17.7,M,,*6D
$GPGSA,A,3,10,32,08,27,23,21,24,18,,,,,1.73,0.94,1.45*0A
$GPGSV,4,1,14,01,04,306,22,08,42,274,43,10,72,056,44,14,02,346,*70
$GPGSV,4,2,14,18,13,128,34,21,27,305,35,22,04,266,36,23,37,074,43*79
$GPGSV,4,3,14,24,21,059,39,27,40,227,39,28,00,001,,32,57,179,37*77
$GPGSV,4,4,14,46,33,186,38,51,31,158,*70
$GPGLL,4916.45439,N,12413.53696,W,023243.00,A,A*70
$GPRMC,023244.00,A,4916.45438,N,12413.53693,W,0.035,,170621,,,A*6F
$GPVTG,,T,,M,0.035,N,0.065,K,A*26
$
+412.40
@20.64
#1009.67
%-44.60
:42
&41.14
GPGGA,023244.00,4916.45438,N,12413.53693,W,1,08,0.94,109.8,M,-1$GPRMC,023247.00,A,4916.45442,N,12413.53687,W,0.019,,170621,,,A*6A
$GPVTG,,T,,M,0.019,N,0.036,K,A*2E
$GPGGA,023247.00,4916.45442,N,12413.53687,W,1,08,0.94,109.4,M,-17.7,M,,*68
$GPGSA,A,3,10,32,08,27,23,21,24,18,,,,,1.73,0.94,1.45*0A
$GPGSV,4,1,14,01,04,306,24,08,42,274,39,10,72,056,43,14,02,346,*7C
$GPGSV,4,2,14,18,13,128,31,21,27,305,37,22,04,266,28,23,37,074,40*72
$GPGSV,4,3,14,24,21,059,38,27,40,227,34,28,00,001,,32,57,179,37*7B
$GPGSV,4,4,14,46,33,186,32,51,31,158,*7A
$GPGLL,4916.45442,N,12413.53687,W,023247.00,A,A*78
$GPRMC,023248.00,A,4916.45441,N,12413.53683,W,0.049,,170621,,,A*67
$GPVTG,,T,,M,0.049,N,0.090,K,A*27
$
+485.64
@20.64
#1009.70
%-44.18
:46
&41.95
GPGGA,023248.00,4916.45441,N,12413.53683,W,1,08,0.94,109.3,M,-1$GPRMC,023251.00,A,4916.45438,N,12413.53669,W,0.038,,170621,,,A*63
$GPVTG,,T,,M,0.038,N,0.070,K,A*2F
$GPGGA,023251.00,4916.45438,N,12413.53669,W,1,08,0.94,109.4,M,-17.7,M,,*62
$GPGSA,A,3,10,32,08,27,23,21,24,18,,,,,1.73,0.94,1.45*0A
$GPGSV,4,1,14,01,04,306,22,08,42,274,42,10,72,056,44,14,02,346,*71
$GPGSV,4,2,14,18,13,128,40,21,27,305,34,22,04,266,32,23,37,074,42*7E
$GPGSV,4,3,14,24,21,059,41,27,40,227,38,28,00,001,,32,57,179,39*77
$GPGSV,4,4,14,46,33,186,38,51,31,158,*70
$GPGLL,4916.45438,N,12413.53669,W,023251.00,A,A*72
$GPRMC,023252.00,A,4916.45440,N,12413.53671,W,0.044,,170621,,,A*6D
$GPVTG,,T,,M,0.044,N,0.081,K,A*2A
$
+429.49
@20.64
#1009.70
%-44.41
:50
&41.39
GPGGA,023252.00,4916.45440,N,12413.53671,W,1,08,0.94,109.5,M,-1$GPRMC,023255.00,A,4916.45426,N,12413.53677,W,0.007,,170621,,,A*6B
$GPVTG,,T,,M,0.007,N,0.013,K,A*26
$GPGGA,023255.00,4916.45426,N,12413.53677,W,1,08,0.94,109.9,M,-17.7,M,,*6B
$GPGSA,A,3,10,32,08,27,23,21,24,18,,,,,1.73,0.94,1.45*0A
$GPGSV,4,1,15,01,04,306,,08,42,273,43,10,72,056,44,14,02,346,*76
$GPGSV,4,2,15,18,13,128,40,21,27,305,35,22,04,266,38,23,37,074,43*75
$GPGSV,4,3,15,24,21,059,38,27,40,227,37,28,00,001,,32,57,179,38*76
$GPGSV,4,4,15,46,33,186,35,48,33,192,28,51,31,158,*40
$GPGLL,4916.45426,N,12413.53677,W,023255.00,A,A*76
$GPRMC,023256.00,A,4916.45423,N,12413.53676,W,0.049,,170621,,,A*66
$GPVTG,,T,,M,0.049,N,0.091,K,A*26
$
+392.87
@20.65
#1009.67
%-44.43
:54
&40.96
GPGGA,023256.00,4916.45423,N,12413.53676,W,1,08,0.94,109.9,M,-1$GPRMC,023259.00,A,4916.45418,N,12413.53673,W,0.080,,170621,,,A*61
$GPVTG,,T,,M,0.080,N,0.149,K,A*27
$GPGGA,023259.00,4916.45418,N,12413.53673,W,1,08,0.94,109.8,M,-17.7,M,,*6F
$GPGSA,A,3,10,32,08,27,23,21,24,18,,,,,1.73,0.94,1.45*0A
$GPGSV,4,1,15,01,04,306,,08,42,273,38,10,72,056,40,14,02,346,*7E
$GPGSV,4,2,15,18,13,128,37,21,27,305,37,22,04,266,34,23,37,074,34*7B
$GPGSV,4,3,15,24,21,059,33,27,40,227,33,28,00,001,,32,57,179,35*74
$GPGSV,4,4,15,46,33,186,31,48,33,192,27,51,31,158,*4B
$GPGLL,4916.45418,N,12413.53673,W,023259.00,A,A*73
$GPRMC,023300.00,A,4916.45420,N,12413.53674,W,0.006,,170621,,,A*6E
$GPVTG,,T,,M,0.006,N,0.011,K,A*25
$
+373.34
@20.65
#1009.67
%-44.36
:58
&40.90
GPGGA,023300.00,4916.45420,N,12413.53674,W,1,08,0.94,109.8,M,-1$GPRMC,023303.00,A,4916.45372,N,12413.53696,W,2.081,220.79,170621,,,A*7C
$GPVTG,220.79,T,,M,2.081,N,3.855,K,A*33
$GPGGA,023303.00,4916.45372,N,12413.53696,W,1,08,0.94,109.9,M,-17.7,M,,*60
$GPGSA,A,3,10,32,08,27,23,21,24,18,,,,,1.73,0.94,1.45*0A
$GPGSV,4,1,14,01,04,306,22,08,42,273,27,10,72,056,27,14,02,346,*70
$GPGSV,4,2,14,18,13,128,26,21,27,305,27,22,04,266,39,23,37,074,27*74
$GPGSV,4,3,14,24,21,059,34,27,40,227,27,28,00,001,,32,57,179,37*75
$GPGSV,4,4,14,46,33,186,28,51,31,158,*71
$GPGLL,4916.45372,N,12413.53696,W,023303.00,A,A*7D
$GPRMC,023304.00,A,4916.45373,N,12413.53764,W,1.692,,170621,,,A*61
$GPVTG,,T,,M,1.692,N,3.134,K,A*2A
$
+373.34
@20.66
#1009.67
%-43.88
:62
&40.70
GPGGA,023304.00,4916.45373,N,12413.53764,W,1,08,1.01,110.5,M,-1$GPRMC,023307.00,A,4916.45438,N,12413.53845,W,1.015,,170621,,,A*6F
$GPVTG,,T,,M,1.015,N,1.880,K,A*27
$GPGGA,023307.00,4916.45438,N,12413.53845,W,1,08,0.93,109.8,M,-17.7,M,,*6B
$GPGSA,A,3,10,32,08,27,23,21,24,18,,,,,1.73,0.93,1.45*0D
$GPGSV,4,1,14,01,04,306,21,08,42,273,27,10,72,056,39,14,02,346,*7C
$GPGSV,4,2,14,18,13,128,28,21,27,305,28,22,04,266,32,23,37,074,40*7F
$GPGSV,4,3,14,24,21,059,33,27,40,227,38,28,00,001,,32,57,179,35*7E
$GPGSV,4,4,14,46,33,186,33,51,31,158,*7B
$GPGLL,4916.45438,N,12413.53845,W,023307.00,A,A*70
$GPRMC,023308.00,A,4916.45505,N,12413.53823,W,2.294,1.32,170621,,,A*79
$GPVTG,1.32,T,,M,2.294,N,4.248,K,A*3A
$
+324.51
@20.71
#1009.63
%-43.89
:66
&40.53
GPGGA,023308.00,4916.45505,N,12413.53823,W,1,08,0.93,110.7,M,-1$GPRMC,023311.00,A,4916.45702,N,12413.53634,W,3.099,26.88,170621,,,A*46
$GPVTG,26.88,T,,M,3.099,N,5.740,K,A*0C
$GPGGA,023311.00,4916.45702,N,12413.53634,W,1,08,1.01,110.9,M,-17.7,M,,*6D
$GPGSA,A,3,10,32,08,27,23,21,24,18,,,,,1.92,1.01,1.64*0B
$GPGSV,4,1,15,01,04,306,26,08,42,273,34,10,72,056,39,14,02,346,*78
$GPGSV,4,2,15,18,13,128,38,21,27,305,25,22,04,266,34,23,37,075,42*77
$GPGSV,4,3,15,24,21,059,35,27,40,227,35,28,00,001,,32,57,179,31*70
$GPGSV,4,4,15,46,33,186,39,48,33,192,38,51,31,158,43*4A
$GPGLL,4916.45702,N,12413.53634,W,023311.00,A,A*75
$GPRMC,023312.00,A,4916.45736,N,12413.53596,W,0.968,,170621,,,A*67
$GPVTG,,T,,M,0.968,N,1.792,K,A*29
$
+353.81
@20.75
#1009.63
%-44.28
:70
&40.53
GPGGA,023312.00,4916.45736,N,12413.53596,W,1,08,0.93,110.8,M,-1$GPRMC,023315.00,A,4916.45879,N,12413.53626,W,2.510,331.07,170621,,,A*75
$GPVTG,331.07,T,,M,2.510,N,4.649,K,A*32
$GPGGA,023315.00,4916.45879,N,12413.53626,W,1,08,0.93,109.9,M,-17.7,M,,*6B
$GPGSA,A,3,10,32,08,27,23,21,24,18,,,,,1.72,0.93,1.45*0C
$GPGSV,4,1,15,01,04,306,39,08,42,273,38,10,72,056,38,14,02,346,*7B
$GPGSV,4,2,15,18,13,128,28,21,27,305,42,22,04,266,37,23,37,075,40*76
$GPGSV,4,3,15,24,21,059,39,27,39,227,28,28,00,000,,32,57,179,38*76
$GPGSV,4,4,15,46,33,186,33,48,33,192,33,51,31,158,34*4B
$GPGLL,4916.45879,N,12413.53626,W,023315.00,A,A*71
$GPRMC,023316.00,A,4916.45908,N,12413.53652,W,0.908,333.96,170621,,,A*7F
$GPVTG,333.96,T,,M,0.908,N,1.682,K,A*3D
$
+353.81
@20.83
#1009.65
%-43.93
:74
&40.30
GPGGA,023316.00,4916.45908,N,12413.53652,W,1,08,0.93,109.3,M,-1$GPRMC,023319.00,A,4916.46000,N,12413.53653,W,5.086,47.60,170621,,,A*40
$GPVTG,47.60,T,,M,5.086,N,9.420,K,A*0C
$GPGGA,023319.00,4916.46000,N,12413.53653,W,1,08,0.93,109.6,M,-17.7,M,,*6F
$GPGSA,A,3,10,32,08,27,23,21,24,18,,,,,1.72,0.93,1.45*0C
$GPGSV,4,1,15,01,04,306,27,08,42,273,31,10,72,056,42,14,02,346,*70
$GPGSV,4,2,15,18,13,128,43,21,27,305,39,22,04,266,29,23,37,075,40*78
$GPGSV,4,3,15,24,21,059,40,27,39,227,37,28,00,000,,32,58,178,37*77
$GPGSV,4,4,15,46,33,186,37,48,33,192,37,51,31,158,38*47
$GPGLL,4916.46000,N,12413.53653,W,023319.00,A,A*7A
$GPRMC,023320.00,A,4916.46324,N,12413.53202,W,20.009,40.86,170621,,,A*70
$GPVTG,40.86,T,,M,20.009,N,37.057,K,A*0A
$
+200.00
@20.60
#1008.61
%-30.79
:78
&39.83
GPGGA,023320.00,4916.46324,N,12413.53202,W,1,08,0.93,110.3,M,-1$GPRMC,023323.00,A,4916.47406,N,12413.50697,W,22.802,89.43,170621,,,A*73
$GPVTG,89.43,T,,M,22.802,N,42.229,K,A*0E
$GPGGA,023323.00,4916.47406,N,12413.50697,W,1,08,1.07,109.5,M,-17.7,M,,*61
$GPGSA,A,3,10,32,08,27,23,21,24,18,,,,,1.80,1.07,1.45*0D
$GPGSV,4,1,15,01,04,306,36,08,42,273,34,10,72,056,38,14,02,346,27*7D
$GPGSV,4,2,15,18,13,128,43,21,27,305,34,22,04,266,32,23,37,075,40*7F
$GPGSV,4,3,15,24,21,059,30,27,39,227,34,28,00,000,,32,58,178,31*75
$GPGSV,4,4,15,46,33,186,40,48,33,192,36,51,31,158,36*48
$GPGLL,4916.47406,N,12413.50697,W,023323.00,A,A*7B
$GPRMC,023324.00,A,4916.47343,N,12413.49745,W,22.631,96.46,170621,,,A*71
$GPVTG,96.46,T,,M,22.631,N,41.913,K,A*0A
$
+200.00
@20.35
#1003.67
%10.91
:82
&39.56
GPGGA,023324.00,4916.47343,N,12413.49745,W,1,07,1.26,112.3,M,-1$GPRMC,023327.00,A,4916.46949,N,12413.47515,W,24.046,100.51,170621,,,A*42
$GPVTG,100.51,T,,M,24.046,N,44.534,K,A*3E
$GPGGA,023327.00,4916.46949,N,12413.47515,W,1,07,1.19,162.3,M,-17.7,M,,*66
$GPGSA,A,3,10,32,27,23,21,24,18,,,,,,1.89,1.19,1.47*01
$GPGSV,4,1,15,01,04,306,29,08,42,273,,10,72,056,21,14,02,346,36*7C
$GPGSV,4,2,15,18,13,128,42,21,27,305,36,22,04,266,34,23,37,075,37*7A
$GPGSV,4,3,15,24,21,059,35,27,39,227,34,28,00,000,,32,58,178,38*79
$GPGSV,4,4,15,46,33,186,40,48,33,192,37,51,31,158,39*46
$GPGLL,4916.46949,N,12413.47515,W,023327.00,A,A*77
$GPRMC,023328.00,A,4916.46864,N,12413.46348,W,29.246,97.39,170621,,,A*72
$GPVTG,97.39,T,,M,29.246,N,54.164,K,A*00
$
+200.00
@20.17
#1000.90
%30.45
:86
&39.79
GPGGA,023328.00,4916.46864,N,12413.46348,W,1,07,1.05,168.5,M,-1$GPRMC,023331.00,A,4916.47052,N,12413.43511,W,20.786,66.61,170621,,,A*7A
$GPVTG,66.61,T,,M,20.786,N,38.495,K,A*02
$GPGGA,023331.00,4916.47052,N,12413.43511,W,1,08,0.93,179.4,M,-17.7,M,,*62
$GPGSA,A,3,10,32,08,27,23,21,24,18,,,,,1.72,0.93,1.45*0C
$GPGSV,4,1,15,01,04,306,37,08,42,273,31,10,72,056,36,14,02,346,32*73
$GPGSV,4,2,15,18,13,128,45,21,27,305,23,22,04,266,41,23,37,075,25*78
$GPGSV,4,3,15,24,21,059,31,27,39,227,29,28,00,000,,32,58,178,28*70
$GPGSV,4,4,15,46,33,186,36,48,33,192,30,51,31,158,28*40
$GPGLL,4916.47052,N,12413.43511,W,023331.00,A,A*72
$GPRMC,023332.00,A,4916.47456,N,12413.42915,W,20.317,35.61,170621,,,A*7A
$GPVTG,35.61,T,,M,20.317,N,37.628,K,A*03
$
+200.00
@20.04
#1000.93
%28.43
:90
&39.69
GPGGA,023332.00,4916.47456,N,12413.42915,W,1,08,1.02,180.5,M,-1$GPRMC,023335.00,A,4916.48726,N,12413.44401,W,24.143,288.07,170621,,,A*4B
$GPVTG,288.07,T,,M,24.143,N,44.713,K,A*3D
$GPGGA,023335.00,4916.48726,N,12413.44401,W,1,08,0.93,174.6,M,-17.7,M,,*65
$GPGSA,A,3,10,32,08,27,23,21,24,18,,,,,1.72,0.93,1.45*0C
$GPGSV,4,1,15,01,04,307,30,08,42,273,29,10,72,056,35,14,02,346,41*7B
$GPGSV,4,2,15,18,13,128,40,21,27,305,31,22,04,266,34,23,37,075,34*7C
$GPGSV,4,3,15,24,21,059,36,27,39,227,33,28,00,000,,32,58,178,33*76
$GPGSV,4,4,15,46,33,186,30,48,33,192,30,51,31,158,35*4A
$GPGLL,4916.48726,N,12413.44401,W,023335.00,A,A*7A
$GPRMC,023336.00,A,4916.48930,N,12413.45625,W,30.561,283.98,170621,,,A*48
$GPVTG,283.98,T,,M,30.561,N,56.599,K,A*32
$
+200.00
@19.87
#1002.39
%16.19
:94
&40.28
GPGGA,023336.00,4916.48930,N,12413.45625,W,1,08,0.93,172.8,M,-1$GPRMC,023339.00,A,4916.49734,N,12413.49462,W,26.751,301.92,170621,,,A*46
$GPVTG,301.92,T,,M,26.751,N,49.542,K,A*3D
$GPGGA,023339.00,4916.49734,N,12413.49462,W,1,08,0.93,171.7,M,-17.7,M,,*67
$GPGSA,A,3,10,32,08,27,23,21,24,18,,,,,1.72,0.93,1.45*0C
$GPGSV,4,1,15,01,04,307,36,08,42,273,35,10,72,056,40,14,02,346,35*71
$GPGSV,4,2,15,18,13,128,39,21,27,305,34,22,04,266,39,23,37,075,35*7B
$GPGSV,4,3,15,24,21,059,29,27,39,227,41,28,00,000,,32,58,178,36*78
$GPGSV,4,4,15,46,33,186,28,48,33,192,29,51,31,158,32*4C
$GPGLL,4916.49734,N,12413.49462,W,023339.00,A,A*7C
$GPRMC,023340.00,A,4916.50057,N,12413.50406,W,24.221,296.95,170621,,,A*40
$GPVTG,296.95,T,,M,24.221,N,44.858,K,A*3E
$
+200.00
@19.75
#1002.74
%11.93
:98
&40.67
GPGGA,023340.00,4916.50057,N,12413.50406,W,1,08,0.93,171.1,M,-1$GPRMC,023343.00,A,4916.49835,N,12413.53322,W,21.464,214.55,170621,,,A*41
$GPVTG,214.55,T,,M,21.464,N,39.751,K,A*36
$GPGGA,023343.00,4916.49835,N,12413.53322,W,1,08,0.93,165.4,M,-17.7,M,,*6A
$GPGSA,A,3,10,32,08,27,23,21,24,18,,,,,1.72,0.93,1.45*0C
$GPGSV,4,1,15,01,04,307,41,08,42,273,44,10,72,056,33,14,02,346,32*74
$GPGSV,4,2,15,18,13,128,31,21,27,305,45,22,04,266,46,23,37,075,35*7D
$GPGSV,4,3,15,24,21,059,28,27,39,227,37,28,00,000,,32,58,178,31*7F
$GPGSV,4,4,15,46,33,186,29,48,33,192,34,51,31,158,*40
$GPGLL,4916.49835,N,12413.53322,W,023343.00,A,A*77
$GPRMC,023344.00,A,4916.49215,N,12413.53425,W,24.471,176.34,170621,,,A*4F
$GPVTG,176.34,T,,M,24.471,N,45.321,K,A*3F
$
+200.00
@19.62
#1004.01
%2.73
:102
&41.07
GPGGA,023344.00,4916.49215,N,12413.53425,W,1,07,1.31,164.0,M,-1$GPRMC,023347.00,A,4916.47511,N,12413.51135,W,32.628,125.77,170621,,,A*4F
$GPVTG,125.77,T,,M,32.628,N,60.427,K,A*31
$GPGGA,023347.00,4916.47511,N,12413.51135,W,1,08,0.93,159.5,M,-17.7,M,,*63
$GPGSA,A,3,10,32,08,27,23,21,24,18,,,,,1.72,0.93,1.45*0C
$GPGSV,4,1,15,01,04,307,37,08,42,273,34,10,72,057,25,14,02,346,34*72
$GPGSV,4,2,15,18,13,128,38,21,27,305,38,22,04,266,38,23,37,075,32*70
$GPGSV,4,3,15,24,21,059,37,27,39,227,37,28,00,000,,32,58,178,43*74
$GPGSV,4,4,15,46,33,186,45,48,33,192,39,51,31,158,37*43
$GPGLL,4916.47511,N,12413.51135,W,023347.00,A,A*70
$GPRMC,023348.00,A,4916.47132,N,12413.49913,W,31.664,113.15,170621,,,A*4A
$GPVTG,113.15,T,,M,31.664,N,58.642,K,A*31
$
+200.00
@19.50
#1002.22
%26.35
:106
&40.87
GPGGA,023348.00,4916.47132,N,12413.49913,W,1,08,0.93,161.2,M,-1$GPRMC,023351.00,A,4916.46820,N,12413.47908,W,18.484,97.09,170621,,,A*7A
$GPVTG,97.09,T,,M,18.484,N,34.233,K,A*0E
$GPGGA,023351.00,4916.46820,N,12413.47908,W,1,07,0.96,191.0,M,-17.7,M,,*60
$GPGSA,A,3,10,32,27,23,21,24,18,,,,,,1.75,0.96,1.46*05
$GPGSV,4,1,15,01,04,307,25,08,42,273,27,10,72,057,38,14,02,346,34*7F
$GPGSV,4,2,15,18,12,128,45,21,27,305,33,22,04,266,28,23,37,075,38*7B
$GPGSV,4,3,15,24,21,059,29,27,39,227,37,28,00,000,,32,58,178,37*78
$GPGSV,4,4,15,46,33,186,41,48,33,192,42,51,31,158,41*4A
$GPGLL,4916.46820,N,12413.47908,W,023351.00,A,A*78
$GPRMC,023352.00,A,4916.46806,N,12413.47056,W,21.352,86.09,170621,,,A*79
$GPVTG,86.09,T,,M,21.352,N,39.544,K,A*02
$
+200.00
@19.55
#998.13
%53.06
:110
&40.71
GPGGA,023352.00,4916.46806,N,12413.47056,W,1,08,0.96,198.9,M,-1$GPRMC,023355.00,A,4916.47177,N,12413.45432,W,14.711,41.63,170621,,,A*76
$GPVTG,41.63,T,,M,14.711,N,27.244,K,A*08
$GPGGA,023355.00,4916.47177,N,12413.45432,W,1,07,1.02,196.3,M,-17.7,M,,*60
$GPGSA,A,3,10,08,27,23,21,24,18,,,,,,1.90,1.02,1.61*0E
$GPGSV,4,1,15,01,04,307,31,08,42,273,31,10,72,057,41,14,02,346,29*7F
$GPGSV,4,2,15,18,12,128,40,21,27,305,26,22,04,266,33,23,37,075,41*7E
$GPGSV,4,3,15,24,21,059,34,27,39,227,40,28,00,000,,32,58,178,39*7A
$GPGSV,4,4,15,46,33,186,37,48,33,192,38,51,31,158,38*48
$GPGLL,4916.47177,N,12413.45432,W,023355.00,A,A*70
$GPRMC,023356.00,A,4916.47700,N,12413.45373,W,20.752,354.74,170621,,,A*40
$GPVTG,354.74,T,,M,20.752,N,38.434,K,A*36
$
+200.00
@19.70
#999.10
%44.29
:114
&40.55
GPGGA,023356.00,4916.47700,N,12413.45373,W,1,08,0.93,194.4,M,-1$GPRMC,023359.00,A,4916.49196,N,12413.46975,W,23.607,310.76,170621,,,A*47
$GPVTG,310.76,T,,M,23.607,N,43.720,K,A*3C
$GPGGA,023359.00,4916.49196,N,12413.46975,W,1,08,1.07,193.0,M,-17.7,M,,*6C
$GPGSA,A,3,10,32,08,27,23,21,24,18,,,,,1.80,1.07,1.45*0D
$GPGSV,4,1,14,01,04,307,35,08,42,273,36,10,72,057,37,14,02,346,37*73
$GPGSV,4,2,14,18,12,128,40,21,27,305,36,22,04,266,26,23,36,075,32*7F
$GPGSV,4,3,14,24,21,059,25,27,39,227,35,28,00,000,,32,58,178,36*76
$GPGSV,4,4,14,46,33,186,37,51,31,158,40*7B
$GPGLL,4916.49196,N,12413.46975,W,023359.00,A,A*70
$GPRMC,023400.00,A,4916.49647,N,12413.47795,W,25.998,306.79,170621,,,A*41
$GPVTG,306.79,T,,M,25.998,N,48.147,K,A*37
$
+200.00
@19.79
#1000.07
%35.50
:118
&40.58
GPGGA,023400.00,4916.49647,N,12413.47795,W,1,08,1.07,190.3,M,-1$GPRMC,023403.00,A,4916.50558,N,12413.50930,W,28.086,276.52,170621,,,A*44
$GPVTG,276.52,T,,M,28.086,N,52.015,K,A*3E
$GPGGA,023403.00,4916.50558,N,12413.50930,W,1,08,1.07,185.7,M,-17.7,M,,*6C
$GPGSA,A,3,10,32,08,27,23,21,24,18,,,,,1.80,1.07,1.45*0D
$GPGSV,4,1,14,01,04,307,41,08,42,273,26,10,72,057,30,14,02,346,41*77
$GPGSV,4,2,14,18,12,128,34,21,27,305,38,22,04,266,36,23,36,075,36*77
$GPGSV,4,3,14,24,21,059,38,27,39,227,32,28,00,000,,32,58,178,29*73
$GPGSV,4,4,14,46,33,186,29,51,31,158,32*71
$GPGLL,4916.50558,N,12413.50930,W,023403.00,A,A*70
$GPRMC,023404.00,A,4916.50308,N,12413.51959,W,26.975,242.68,170621,,,A*4B
$GPVTG,242.68,T,,M,26.975,N,49.957,K,A*3E
$
+200.00
@19.81
#1000.59
%30.74
:122
&40.66
GPGGA,023404.00,4916.50308,N,12413.51959,W,1,08,1.07,185.8,M,-1$GPRMC,023407.00,A,4916.48360,N,12413.52437,W,27.462,156.95,170621,,,A*47
$GPVTG,156.95,T,,M,27.462,N,50.859,K,A*37
$GPGGA,023407.00,4916.48360,N,12413.52437,W,1,08,0.93,180.6,M,-17.7,M,,*6C
$GPGSA,A,3,10,32,08,27,23,21,24,18,,,,,1.72,0.93,1.44*0D
$GPGSV,4,1,14,01,04,307,32,08,42,273,36,10,72,057,28,14,02,346,36*7B
$GPGSV,4,2,14,18,12,128,34,21,27,305,32,22,04,266,36,23,36,075,33*78
$GPGSV,4,3,14,24,21,059,31,27,39,227,41,28,00,000,,32,58,178,35*73
$GPGSV,4,4,14,46,33,186,38,51,31,158,*70
$GPGLL,4916.48360,N,12413.52437,W,023407.00,A,A*78
$GPRMC,023408.00,A,4916.47757,N,12413.51717,W,27.784,138.24,170621,,,A*4C
$GPVTG,138.24,T,,M,27.784,N,51.456,K,A*3C
$
+200.00
@19.82
#1001.67
%22.13
:126
&40.42
GPGGA,023408.00,4916.47757,N,12413.51717,W,1,08,1.01,178.4,M,-1$GPRMC,023411.00,A,4916.46247,N,12413.48935,W,26.968,133.97,170621,,,A*49
$GPVTG,133.97,T,,M,26.968,N,49.945,K,A*34
$GPGGA,023411.00,4916.46247,N,12413.48935,W,1,08,0.95,175.7,M,-17.7,M,,*68
$GPGSA,A,3,10,32,08,27,23,21,24,18,,,,,1.74,0.95,1.46*0F
$GPGSV,4,1,14,01,04,307,32,08,42,273,39,10,72,057,39,14,02,346,40*75
$GPGSV,4,2,14,18,12,128,36,21,27,305,37,22,04,266,37,23,36,075,34*79
$GPGSV,4,3,14,24,21,059,36,27,39,227,37,28,00,000,,32,58,178,33*73
$GPGSV,4,4,14,46,33,186,34,51,31,158,*7C
$GPGLL,4916.46247,N,12413.48935,W,023411.00,A,A*71
$GPRMC,023412.00,A,4916.45705,N,12413.48240,W,24.737,144.20,170621,,,A*49
$GPVTG,144.20,T,,M,24.737,N,45.813,K,A*30
$
+200.00
@19.83
#1002.04
%18.13
:130
&40.29
GPGGA,023412.00,4916.45705,N,12413.48240,W,1,08,0.95,175.2,M,-1$GPRMC,023415.00,A,4916.43706,N,12413.46970,W,28.167,157.81,170621,,,A*4B
$GPVTG,157.81,T,,M,28.167,N,52.165,K,A*38
$GPGGA,023415.00,4916.43706,N,12413.46970,W,1,08,0.95,168.8,M,-17.7,M,,*65
$GPGSA,A,3,10,32,08,27,23,21,24,18,,,,,1.74,0.95,1.46*0F
$GPGSV,4,1,14,01,04,307,32,08,42,273,41,10,72,057,33,14,02,346,35*72
$GPGSV,4,2,14,18,12,128,34,21,27,305,30,22,04,266,39,23,36,075,32*74
$GPGSV,4,3,14,24,21,059,31,27,39,227,38,28,00,000,,32,58,178,31*79
$GPGSV,4,4,14,46,33,186,34,51,31,158,*7C
$GPGLL,4916.43706,N,12413.46970,W,023415.00,A,A*7F
$GPRMC,023416.00,A,4916.43085,N,12413.46481,W,24.886,152.55,170621,,,A*41
$GPVTG,152.55,T,,M,24.886,N,46.088,K,A*39
$
+200.00
@19.88
#1002.26
%17.59
:134
&39.80
GPGGA,023416.00,4916.43085,N,12413.46481,W,1,08,1.03,169.9,M,-1$GPRMC,023419.00,A,4916.42080,N,12413.44736,W,16.650,95.85,170621,,,A*74
$GPVTG,95.85,T,,M,16.650,N,30.836,K,A*06
$GPGGA,023419.00,4916.42080,N,12413.44736,W,1,08,0.99,169.1,M,-17.7,M,,*6B
$GPGSA,A,3,10,32,08,27,23,21,24,18,,,,,1.76,0.99,1.45*02
$GPGSV,4,1,15,01,04,307,33,08,42,273,32,10,72,057,36,14,02,346,36*70
$GPGSV,4,2,15,18,12,128,41,21,27,305,31,22,04,266,36,23,36,075,35*7E
$GPGSV,4,3,15,24,21,059,35,27,39,227,31,28,00,000,,32,58,178,43*70
$GPGSV,4,4,15,46,33,186,31,48,33,192,37,51,31,158,*4A
$GPGLL,4916.42080,N,12413.44736,W,023419.00,A,A*75
$GPRMC,023420.00,A,4916.42359,N,12413.44054,W,21.163,45.30,170621,,,A*7A
$GPVTG,45.30,T,,M,21.163,N,39.194,K,A*0E
$
+200.00
@19.80
#1001.49
%28.28
:138
&39.89
GPGGA,023420.00,4916.42359,N,12413.44054,W,1,08,0.99,170.7,M,-1$GPRMC,023423.00,A,4916.44123,N,12413.43267,W,18.590,4.15,170621,,,A*45
$GPVTG,4.15,T,,M,18.590,N,34.429,K,A*30
$GPGGA,023423.00,4916.44123,N,12413.43267,W,1,08,0.93,196.6,M,-17.7,M,,*67
$GPGSA,A,3,10,32,08,27,23,21,24,18,,,,,1.72,0.93,1.44*0D
$GPGSV,4,1,15,01,05,307,36,08,42,273,35,10,72,057,33,14,02,346,38*78
$GPGSV,4,2,15,18,12,128,37,21,27,305,33,22,04,266,28,23,36,075,43*73
$GPGSV,4,3,15,24,21,059,44,27,39,227,33,28,00,000,,32,58,178,40*77
$GPGSV,4,4,15,46,33,186,29,48,33,192,30,51,31,158,32*45
$GPGLL,4916.44123,N,12413.43267,W,023423.00,A,A*74
$GPRMC,023424.00,A,4916.44713,N,12413.43182,W,22.321,6.13,170621,,,A*4E
$GPVTG,6.13,T,,M,22.321,N,41.338,K,A*34
$
+200.00
@19.72
#997.96
%54.22
:142
&39.93
GPGGA,023424.00,4916.44713,N,12413.43182,W,1,07,1.13,204.3,M,-1$GPRMC,023427.00,A,4916.46385,N,12413.43366,W,22.110,4.89,170621,,,A*4D
$GPVTG,4.89,T,,M,22.110,N,40.948,K,A*39
$GPGGA,023427.00,4916.46385,N,12413.43366,W,1,08,0.93,208.8,M,-17.7,M,,*65
$GPGSA,A,3,10,32,08,27,23,21,24,18,,,,,1.72,0.93,1.44*0D
$GPGSV,4,1,14,01,05,307,40,08,42,273,40,10,72,057,31,14,02,346,33*73
$GPGSV,4,2,14,18,12,128,37,21,27,305,37,22,04,266,35,23,36,075,40*79
$GPGSV,4,3,14,24,21,059,32,27,39,227,37,28,00,000,,32,58,178,38*7C
$GPGSV,4,4,14,46,33,186,38,51,31,158,34*77
$GPGLL,4916.46385,N,12413.43366,W,023427.00,A,A*7C
$GPRMC,023428.00,A,4916.47045,N,12413.43216,W,25.315,9.39,170621,,,A*4C
$GPVTG,9.39,T,,M,25.315,N,46.883,K,A*3F
$
+200.00
@19.80
#998.60
%48.86
:146
&39.75
GPGGA,023428.00,4916.47045,N,12413.43216,W,1,08,1.02,207.1,M,-1$GPRMC,023431.00,A,4916.48883,N,12413.43365,W,22.333,334.60,170621,,,A*4E
$GPVTG,334.60,T,,M,22.333,N,41.361,K,A*3D
$GPGGA,023431.00,4916.48883,N,12413.43365,W,1,08,0.95,205.2,M,-17.7,M,,*63
$GPGSA,A,3,10,32,08,27,23,21,24,18,,,,,1.74,0.95,1.46*0F
$GPGSV,4,1,14,01,05,307,29,08,42,272,30,10,71,057,39,14,02,346,38*7A
$GPGSV,4,2,14,18,12,128,35,21,27,305,32,22,04,266,34,23,36,075,30*78
$GPGSV,4,3,14,24,21,059,39,27,39,227,23,28,00,000,,32,58,178,33*79
$GPGSV,4,4,14,46,33,186,30,51,31,158,39*72
$GPGLL,4916.48883,N,12413.43365,W,023431.00,A,A*7B
$GPRMC,023432.00,A,4916.49379,N,12413.44015,W,24.312,314.57,170621,,,A*42
$GPVTG,314.57,T,,M,24.312,N,45.025,K,A*39
$
+200.00
@19.79
#999.46
%40.60
:150
&40.32
GPGGA,023432.00,4916.49379,N,12413.44015,W,1,08,0.95,203.4,M,-1$GPRMC,023435.00,A,4916.50181,N,12413.47178,W,28.819,277.60,170621,,,A*4D
$GPVTG,277.60,T,,M,28.819,N,53.373,K,A*32
$GPGGA,023435.00,4916.50181,N,12413.47178,W,1,08,1.13,196.2,M,-17.7,M,,*69
$GPGSA,A,3,10,32,08,27,23,21,24,18,,,,,1.84,1.13,1.46*0F
$GPGSV,4,1,14,01,05,307,33,08,42,272,32,10,71,057,28,14,02,346,45*79
$GPGSV,4,2,14,18,12,128,43,21,27,305,34,22,04,266,34,23,36,075,37*78
$GPGSV,4,3,14,24,21,059,37,27,39,227,29,28,00,000,21,32,58,178,28*74
$GPGSV,4,4,14,46,33,186,30,51,31,158,39*72
$GPGLL,4916.50181,N,12413.47178,W,023435.00,A,A*77
$GPRMC,023436.00,A,4916.50230,N,12413.48477,W,31.363,272.56,170621,,,A*4C
$GPVTG,272.56,T,,M,31.363,N,58.084,K,A*3C
$
+200.00
@19.73
#1000.59
%32.44
:154
&40.37
GPGGA,023436.00,4916.50230,N,12413.48477,W,1,08,0.95,193.5,M,-1$GPRMC,023439.00,A,4916.49453,N,12413.51431,W,21.832,201.04,170621,,,A*4F
$GPVTG,201.04,T,,M,21.832,N,40.433,K,A*30
$GPGGA,023439.00,4916.49453,N,12413.51431,W,1,07,1.44,189.1,M,-17.7,M,,*68
$GPGSA,A,3,10,32,08,27,23,21,24,,,,,,2.66,1.44,2.23*0B
$GPGSV,4,1,14,01,05,307,41,08,42,272,48,10,71,057,34,14,02,346,30*7E
$GPGSV,4,2,14,18,12,128,,21,27,305,40,22,04,266,48,23,36,075,38*78
$GPGSV,4,3,14,24,21,059,30,27,39,227,40,28,00,000,,32,58,178,39*7F
$GPGSV,4,4,14,46,33,186,,51,31,158,27*7E
$GPGLL,4916.49453,N,12413.51431,W,023439.00,A,A*76
$GPRMC,023440.00,A,4916.48961,N,12413.51343,W,20.024,164.40,170621,,,A*40
$GPVTG,164.40,T,,M,20.024,N,37.084,K,A*36
$
+200.00
@19.69
#1001.18
%26.11
:158
&40.58
GPGGA,023440.00,4916.48961,N,12413.51343,W,1,08,0.93,186.5,M,-1$GPRMC,023443.00,A,4916.46893,N,12413.49808,W,29.205,151.41,170621,,,A*43
$GPVTG,151.41,T,,M,29.205,N,54.087,K,A*3F
$GPGGA,023443.00,4916.46893,N,12413.49808,W,1,08,0.93,179.3,M,-17.7,M,,*6C
$GPGSA,A,3,10,32,08,27,23,21,24,18,,,,,1.71,0.93,1.44*0E
$GPGSV,4,1,14,01,05,307,35,08,42,272,35,10,71,057,37,14,02,346,35*71
$GPGSV,4,2,14,18,12,128,30,21,28,305,36,22,04,266,39,23,36,075,39*72
$GPGSV,4,3,14,24,21,059,26,27,39,227,35,28,00,000,,32,58,178,38*7B
$GPGSV,4,4,14,46,33,186,,51,31,158,*7B
$GPGLL,4916.46893,N,12413.49808,W,023443.00,A,A*7B
$GPRMC,023444.00,A,4916.46189,N,12413.49238,W,28.059,150.78,170621,,,A*4E
$GPVTG,150.78,T,,M,28.059,N,51.965,K,A*3E
$
+200.00
@19.65
#1001.58
%24.34
:162
&40.41
GPGGA,023444.00,4916.46189,N,12413.49238,W,1,08,0.95,178.4,M,-1$GPRMC,023447.00,A,4916.44540,N,12413.47761,W,20.586,139.51,170621,,,A*42
$GPVTG,139.51,T,,M,20.586,N,38.126,K,A*35
$GPGGA,023447.00,4916.44540,N,12413.47761,W,1,08,0.93,178.7,M,-17.7,M,,*62
$GPGSA,A,3,10,32,08,27,23,21,24,18,,,,,1.71,0.93,1.44*0E
$GPGSV,4,1,14,01,05,307,35,08,42,272,34,10,71,057,30,14,02,346,41*74
$GPGSV,4,2,14,18,12,128,38,21,28,305,39,22,04,266,36,23,36,075,37*74
$GPGSV,4,3,14,24,21,058,38,27,39,226,41,28,00,000,16,32,58,178,39*71
$GPGSV,4,4,14,46,33,186,,51,31,158,*7B
$GPGLL,4916.44540,N,12413.47761,W,023447.00,A,A*70
$GPRMC,023448.00,A,4916.44162,N,12413.47100,W,20.754,126.67,170621,,,A*4E
$GPVTG,126.67,T,,M,20.754,N,38.436,K,A*37
$
+200.00
@19.63
#1001.83
%22.40
:166
&40.12
GPGGA,023448.00,4916.44162,N,12413.47100,W,1,08,0.99,177.3,M,-1$GPRMC,023451.00,A,4916.43903,N,12413.44836,W,15.800,69.98,170621,,,A*73
$GPVTG,69.98,T,,M,15.800,N,29.261,K,A*01
$GPGGA,023451.00,4916.43903,N,12413.44836,W,1,08,0.99,179.4,M,-17.7,M,,*6F
$GPGSA,A,3,10,32,08,27,23,21,24,18,,,,,1.75,0.99,1.45*01
$GPGSV,4,1,14,01,05,307,36,08,42,272,35,10,71,057,32,14,02,346,26*75
$GPGSV,4,2,14,18,12,128,42,21,28,305,41,22,04,266,41,23,36,075,29*79
$GPGSV,4,3,14,24,21,058,34,27,39,226,35,28,00,360,,32,58,178,38*7D
$GPGSV,4,4,14,46,33,186,,51,31,158,38*70
$GPGLL,4916.43903,N,12413.44836,W,023451.00,A,A*75
$GPRMC,023452.00,A,4916.44279,N,12413.44330,W,18.531,28.30,170621,,,A*79
$GPVTG,28.30,T,,M,18.531,N,34.320,K,A*0C
$
+200.00
@19.56
#1000.51
%36.44
:170
&40.20
GPGGA,023452.00,4916.44279,N,12413.44330,W,1,06,1.13,183.2,M,-1$GPRMC,023455.00,A,4916.45977,N,12413.43605,W,17.019,6.85,170621,,,A*4C
$GPVTG,6.85,T,,M,17.019,N,31.*68
$GPGSA,A,3,10,32,08,27,23,21,24,18,,,,,1.71,0.93,1.44*0E
$GPGSV,4,1,14,01,05,307,39,08,42,272,36,10,71,057,31,14,02,346,37*7A
$GPGSV,4,2,14,18,12,128,39,21,28,305,34,22,04,266,31,23,36,075,41*7E
$GPGSV,4,3,14,24,21,058,44,27,39,226,37,28,00,360,23,32,58,178,39*78
$GPGSV,4,4,14,46,33,186,,51,31,158,36*7E
$GPGLL,4916.45977,N,12413.43605,W,023455.00,A,A*7D
$GPRMC,023456.00,A,4916.46305,N,12413.43557,W,8.970,0.52,170621,,,A*73
$GPVTG,0.52,T,,M,8.970,N,16.613,K,A*0F
$GPGGA,023456.00,4916.46305,N,12413.43557,W,1,08,0.93,221.2,M,-17.7,M,,*6E
$
+200.00
@19.53
#995.43
%79.24
:174
&40.35
GPGSA,A,3,10,32,08,27,23,21,24,18,,,,,1.71,0.93,1.44*0E
$GPGSV$GPRMC,023459.00,A,4916.47547,N,12413.43385,W,17.163,358.80,170621,,,A*41
$GPVTG,358.80,T,,M,17.163,N,31.786,K,A*32
$GPGGA,023459.00,4916.47547,N,12413.43385,W,1,08,0.93,239.9,M,-17.7,M,,*6B
$GPGSA,A,3,10,32,08,27,23,21,24,18,,,,,1.71,0.93,1.44*0E
$GPGSV,4,1,15,01,05,307,23,08,42,272,32,10,71,057,35,14,02,346,37*70
$GPGSV,4,2,15,18,12,128,40,21,28,305,30,22,04,266,35,23,36,075,39*7E
$GPGSV,4,3,15,24,21,058,45,27,39,226,32,28,00,360,23,32,58,178,28*7D
$GPGSV,4,4,15,46,33,186,,48,33,192,39,51,31,158,38*4D
$GPGLL,4916.47547,N,12413.43385,W,023459.00,A,A*71
$GPRMC,023500.00,A,4916.48024,N,12413.43656,W,18.623,333.87,170621,,,A*4E
$
+200.00
@19.66
#996.33
%66.59
:178
&40.37
GPVTG,333.87,T,,M,18.623,N,34.490,K,A*35
$GPGGA,023500.00,4916$GPRMC,023503.00,A,4916.50009,N,12413.45667,W,28.473,323.76,170621,,,A*44
$GPVTG,323.76,T,,M,28.473,N,52.733,K,A*34
$GPGGA,023503.00,4916.50009,N,12413.45667,W,1,08,0.93,232.0,M,-17.7,M,,*61
$GPGSA,A,3,10,32,08,27,23,21,24,18,,,,,1.71,0.93,1.44*0E
$GPGSV,4,1,15,01,05,307,30,08,42,272,36,10,71,057,39,14,02,346,45*7F
$GPGSV,4,2,15,18,12,128,37,21,28,305,33,22,04,266,37,23,36,075,31*77
$GPGSV,4,3,15,24,21,058,36,27,39,226,32,28,00,360,25,32,58,178,31*77
$GPGSV,4,4,15,46,33,186,,48,33,192,34,51,31,158,35*4D
$GPGLL,4916.50009,N,12413.45667,W,023503.00,A,A*79
$GPRMC,023504.00,A,4916.50536,N,12413.46415,W,25.167,314.78,170621,,,A*49
$
+200.00
@19.78
#996.48
%66.11
:182
&40.36
GPVTG,314.78,T,,M,25.167,N,46.609,K,A*3E
$GPGGA,023504.00,4916$GPRMC,023507.00,A,4916.51148,N,12413.49119,W,20.576,259.30,170621,,,A*45
$GPVTG,259.30,T,,M,20.576,N,38.107,K,A*3B
$GPGGA,023507.00,4916.51148,N,12413.49119,W,1,08,0.98,229.7,M,-17.7,M,,*64
$GPGSA,A,3,10,32,08,27,23,21,24,18,,,,,1.85,0.98,1.57*0C
$GPGSV,4,1,14,01,05,307,43,08,42,272,29,10,71,057,25,14,02,346,42*7E
$GPGSV,4,2,14,18,12,128,28,21,28,305,42,22,04,266,42,23,36,075,24*78
$GPGSV,4,3,14,24,21,058,35,27,39,226,22,28,00,360,21,32,58,178,28*78
$GPGSV,4,4,14,46,33,186,,51,31,158,*7B
$GPGLL,4916.51148,N,12413.49119,W,023507.00,A,A*7A
$GPRMC,023508.00,A,4916.50793,N,12413.49819,W,20.214,224.06,170621,,,A*4E
$
+200.00
@19.86
#997.09
%59.90
:186
&40.26
GPVTG,224.06,T,,M,20.214,N,37.436,K,A*3F
$GPGGA,023508.00,4916$GPRMC,023511.00,A,4916.48939,N,12413.49506,W,26.216,148.46,170621,,,A*4B
$GPVTG,148.46,T,,M,26.216,N,48.552,K,A*3D
$GPGGA,023511.00,4916.48939,N,12413.49506,W,1,08,0.93,219.1,M,-17.7,M,,*61
$GPGSA,A,3,10,32,08,27,23,21,24,18,,,,,1.71,0.93,1.44*0E
$GPGSV,4,1,14,01,05,307,37,08,42,272,35,10,71,057,27,14,02,346,45*75
$GPGSV,4,2,14,18,12,128,34,21,28,305,37,22,04,266,31,23,36,075,24*73
$GPGSV,4,3,14,24,21,058,37,27,39,226,40,28,00,360,23,32,58,178,37*72
$GPGSV,4,4,14,46,33,186,,51,31,158,*7B
$GPGLL,4916.48939,N,12413.49506,W,023511.00,A,A*71
$GPRMC,023512.00,A,4916.48344,N,12413.48834,W,27.006,141.34,170621,,,A*4B
$
+200.00
@19.91
#998.07
%53.14
:190
&40.06
GPVTG,141.34,T,,M,27.006,N,50.016,K,A*3F
$GPGGA,023512.00,4916$GPRMC,023515.00,A,4916.46715,N,12413.46692,W,24.272,142.68,170621,,,A*46
$GPVTG,142.68,T,,M,24.272,N,44.951,K,A*38
$GPGGA,023515.00,4916.46715,N,12413.46692,W,1,08,0.95,215.0,M,-17.7,M,,*61
$GPGSA,A,3,10,32,08,27,23,21,24,18,,,,,1.74,0.95,1.45*0C
$GPGSV,4,1,14,01,05,307,38,08,42,272,33,10,71,057,24,14,02,346,39*74
$GPGSV,4,2,14,18,12,128,37,21,28,305,34,22,04,266,28,23,36,075,35*7B
$GPGSV,4,3,14,24,21,058,38,27,39,226,39,28,00,360,19,32,58,178,38*75
$GPGSV,4,4,14,46,33,186,34,51,31,158,*7C
$GPGLL,4916.46715,N,12413.46692,W,023515.00,A,A*7A
$GPRMC,023516.00,A,4916.46174,N,12413.46088,W,23.843,144.03,170621,,,A*4D
$
+200.00
@19.98
#998.46
%49.04
:194
&39.56
GPVTG,144.03,T,,M,23.843,N,44.158,K,A*3D
$GPGGA,023516.00,4916$GPRMC,023519.00,A,4916.44656,N,12413.44152,W,21.518,132.89,170621,,,A*41
$GPVTG,132.89,T,,M,21.518,N,39.852,K,A*36
$GPGGA,023519.00,4916.44656,N,12413.44152,W,1,08,0.95,211.2,M,-17.7,M,,*66
$GPGSA,A,3,10,32,08,27,23,21,24,18,,,,,1.73,0.95,1.45*0B
$GPGSV,4,1,14,01,05,307,39,08,42,272,27,10,71,058,24,14,02,346,34*72
$GPGSV,4,2,14,18,12,128,40,21,28,305,36,22,04,266,37,23,36,075,27*74
$GPGSV,4,3,14,24,21,058,30,27,39,226,38,28,00,360,21,32,58,178,34*7B
$GPGSV,4,4,14,46,33,186,39,51,31,158,*71
$GPGLL,4916.44656,N,12413.44152,W,023519.00,A,A*7B
$GPRMC,023520.00,A,4916.44383,N,12413.43501,W,17.316,119.55,170621,,,A*46
$
+200.00
@20.04
#998.37
%49.95
:198
&39.55
GPVTG,119.55,T,,M,17.316,N,32.070,K,A*30
$GPGGA,023520.00,4916$GPRMC,023523.00,A,4916.44669,N,12413.41571,W,18.167,38.83,170621,,,A*73
$GPVTG,38.83,T,,M,18.167,N,33.645,K,A*03
$GPGGA,023523.00,4916.44669,N,12413.41571,W,1,08,0.98,207.6,M,-17.7,M,,*6D
$GPGSA,A,3,10,32,08,27,23,21,24,18,,,,,1.85,0.98,1.57*0C
$GPGSV,4,1,15,01,05,307,36,08,42,272,27,10,71,058,32,14,02,345,32*7E
$GPGSV,4,2,15,18,12,128,42,21,28,305,33,22,04,266,37,23,36,075,36*72
$GPGSV,4,3,15,24,21,058,38,27,39,226,38,28,00,360,20,32,58,178,35*72
$GPGSV,4,4,15,46,33,186,37,48,33,192,33,51,31,158,39*42
$GPGLL,4916.44669,N,12413.41571,W,023523.00,A,A*7E
$GPRMC,023524.00,A,4916.45156,N,12413.41377,W,17.555,4.71,170621,,,A*46
$
+200.00
@20.08
#999.44
%39.10
:202
&39.38
GPVTG,4.71,T,,M,17.555,N,32.511,K,A*38
$GPGGA,023524.00,4916.4$GPRMC,023527.00,A,4916.46585,N,12413.43610,W,30.239,300.17,170621,,,A*45
$GPVTG,300.17,T,,M,30.239,N,56.002,K,A*32
$GPGGA,023527.00,4916.46585,N,12413.43610,W,1,08,0.93,196.0,M,-17.7,M,,*6A
$GPGSA,A,3,10,32,08,27,23,21,24,18,,,,,1.71,0.93,1.44*0E
$GPGSV,4,1,15,01,05,307,38,08,42,272,30,10,71,058,26,14,02,345,31*70
$GPGSV,4,2,15,18,12,128,41,21,28,305,33,22,04,266,35,23,36,075,34*71
$GPGSV,4,3,15,24,21,058,30,27,39,226,36,28,00,360,21,32,58,178,32*72
$GPGSV,4,4,15,46,33,186,40,48,33,192,37,51,31,158,36*49
$GPGLL,4916.46585,N,12413.43610,W,023527.00,A,A*7F
$GPRMC,023528.00,A,4916.47029,N,12413.44671,W,29.475,303.95,170621,,,A*47
$
+200.00
@20.06
#1000.17
%35.97
:206
&39.35
GPVTG,303.95,T,,M,29.475,N,54.588,K,A*38
$GPGGA,023528.00,4916$GPRMC,023531.00,A,4916.48411,N,12413.47202,W,25.324,310.47,170621,,,A*4E
$GPVTG,310.47,T,,M,25.324,N,46.900,K,A*35
$GPGGA,023531.00,4916.48411,N,12413.47202,W,1,08,0.99,192.0,M,-17.7,M,,*62
$GPGSA,A,3,10,32,08,27,23,21,24,18,,,,,2.14,0.99,1.90*0D
$GPGSV,4,1,15,01,05,307,32,08,42,272,36,10,71,058,34,14,02,345,35*7B
$GPGSV,4,2,15,18,12,128,34,21,28,305,34,22,05,266,34,23,36,075,34*74
$GPGSV,4,3,15,24,21,058,32,27,39,226,28,28,00,360,21,32,58,178,31*7C
$GPGSV,4,4,15,46,33,186,39,48,33,192,38,51,31,158,38*46
$GPGLL,4916.48411,N,12413.47202,W,023531.00,A,A*79
$GPRMC,023532.00,A,4916.48837,N,12413.48090,W,26.088,304.60,170621,,,A*45
$
+200.00
@20.12
#1000.97
%27.73
:210
&39.64
GPVTG,304.60,T,,M,26.088,N,48.316,K,A*30
$GPGGA,023532.00,4916$GPRMC,023535.00,A,4916.49692,N,12413.51110,W,24.119,257.76,170621,,,A*48
$GPVTG,257.76,T,,M,24.119,N,44.669,K,A*3A
$GPGGA,023535.00,4916.49692,N,12413.51110,W,1,08,0.95,188.6,M,-17.7,M,,*68
$GPGSA,A,3,10,32,08,27,23,21,24,18,,,,,1.73,0.95,1.45*0B
$GPGSV,4,1,15,01,05,307,44,08,42,272,39,10,71,058,28,14,02,345,44*7E
$GPGSV,4,2,15,18,12,128,26,21,28,305,44,22,05,266,42,23,36,075,34*71
$GPGSV,4,3,15,24,21,058,35,27,39,226,27,28,00,360,29,32,58,178,38*75
$GPGSV,4,4,15,46,33,186,28,48,33,192,30,51,31,158,29*4E
$GPGLL,4916.49692,N,12413.51110,W,023535.00,A,A*72
$GPRMC,023536.00,A,4916.49278,N,12413.51749,W,21.322,213.66,170621,,,A*4F
$
+200.00
@20.12
#1001.51
%22.91
:214
&39.56
GPVTG,213.66,T,,M,21.322,N,39.488,K,A*33
$GPGGA,023536.00,4916$GPRMC,023539.00,A,4916.47352,N,12413.51087,W,25.428,152.09,170621,,,A*44
$GPVTG,152.09,T,,M,25.428,N,47.094,K,A*35
$GPGGA,023539.00,4916.47352,N,12413.51087,W,1,08,1.01,182.8,M,-17.7,M,,*64
$GPGSA,A,3,10,32,08,27,23,21,24,18,,,,,1.90,1.01,1.61*0C
$GPGSV,4,1,15,01,05,307,35,08,42,272,41,10,71,058,31,14,02,345,34*78
$GPGSV,4,2,15,18,12,128,30,21,28,305,28,22,05,266,40,23,36,075,32*78
$GPGSV,4,3,15,24,21,058,39,27,39,226,40,28,00,360,31,32,59,178,30*78
$GPGSV,4,4,15,46,33,186,37,48,33,192,35,51,31,158,36*4B
$GPGLL,4916.47352,N,12413.51087,W,023539.00,A,A*76
$GPRMC,023540.00,A,4916.46793,N,12413.50458,W,25.313,140.26,170621,,,A*44
$
+200.00
@20.13
#1002.06
%19.00
:218
&39.58
GPVTG,140.26,T,,M,25.313,N,46.880,K,A*38
$GPGGA,023540.00,4916$GPRMC,023543.00,A,4916.45082,N,12413.47932,W,36.869,140.29,170621,,,A*4F
$GPVTG,140.29,T,,M,36.869,N,68.281,K,A*34
$GPGGA,023543.00,4916.45082,N,12413.47932,W,1,08,1.05,180.2,M,-17.7,M,,*69
$GPGSA,A,3,10,32,08,27,23,21,24,18,,,,,1.94,1.05,1.63*0E
$GPGSV,4,1,15,01,05,307,38,08,42,272,33,10,71,058,30,14,02,345,38*7D
$GPGSV,4,2,15,18,12,128,34,21,28,305,38,22,05,266,25,23,36,075,35*79
$GPGSV,4,3,15,24,21,058,30,27,39,226,38,28,00,360,21,32,59,178,35*7A
$GPGSV,4,4,15,46,33,186,34,48,33,192,31,51,31,158,35*4F
$GPGLL,4916.45082,N,12413.47932,W,023543.00,A,A*77
$GPRMC,023544.00,A,4916.44384,N,12413.46959,W,34.948,134.67,170621,,,A*49
$
+200.00
@19.92
#999.01
%51.18
:222
&39.78
GPVTG,134.67,T,,M,34.948,N,64.724,K,A*3B
$GPGGA,023544.00,4916$GPRMC,023547.00,A,4916.45325,N,12413.46091,W,25.408,9.91,170621,,,A*42
$GPVTG,9.91,T,,M,25.408,N,47.055,K,A*34
$GPGGA,023547.00,4916.45325,N,12413.46091,W,1,07,3.34,206.1,M,-17.7,M,,*63
$GPGSA,A,3,10,32,08,27,23,21,24,,,,,,4.52,3.34,3.04*0B
$GPGSV,4,1,15,01,05,307,35,08,42,272,36,10,71,058,29,14,02,345,38*7D
$GPGSV,4,2,15,18,12,128,,21,28,305,38,22,05,266,28,23,36,075,36*70
$GPGSV,4,3,15,24,21,058,34,27,39,226,33,28,00,360,,32,59,178,34*77
$GPGSV,4,4,15,46,33,186,,48,33,192,29,51,31,158,29*4C
$GPGLL,4916.45325,N,12413.46091,W,023547.00,A,A*7C
$GPRMC,023548.00,A,4916.46041,N,12413.45679,W,24.403,29.00,170621,,,A*7C
$
+200.00
@19.86
#995.58
%74.87
:226
&39.79
GPVTG,29.00,T,,M,24.403,N,45.194,K,A*0A
$GPGGA,023548.00,4916.$GPRMC,023551.00,A,4916.47270,N,12413.44167,W,16.744,41.30,170621,,,A*70
$GPVTG,41.30,T,,M,16.744,N,31.011,K,A*09
$GPGGA,023551.00,4916.47270,N,12413.44167,W,1,08,1.01,221.7,M,-17.7,M,,*65
$GPGSA,A,3,10,32,08,27,23,21,24,18,,,,,1.90,1.01,1.61*0C
$GPGSV,4,1,15,01,05,307,35,08,42,272,24,10,71,058,33,14,02,345,35*78
$GPGSV,4,2,15,18,12,128,36,21,28,305,34,22,05,266,43,23,36,075,36*74
$GPGSV,4,3,15,24,21,058,28,27,39,226,38,28,00,360,33,32,59,178,36*73
$GPGSV,4,4,15,46,33,186,,48,33,192,31,51,31,158,29*45
$GPGLL,4916.47270,N,12413.44167,W,023551.00,A,A*72
$GPRMC,023552.00,A,4916.47754,N,12413.43840,W,19.637,20.91,170621,,,A*7D
$
+200.00
@19.98
#995.90
%71.74
:230
&39.53
GPVTG,20.91,T,,M,19.637,N,36.368,K,A*05
$GPGGA,023552.00,4916.$GPRMC,023555.00,A,4916.49312,N,12413.43789,W,16.909,344.70,170621,,,A*4B
$GPVTG,344.70,T,,M,16.909,N,31.316,K,A*38
$GPGGA,023555.00,4916.49312,N,12413.43789,W,1,08,1.13,223.6,M,-17.7,M,,*6B
$GPGSA,A,3,10,32,08,27,23,21,24,18,,,,,1.83,1.13,1.45*0B
$GPGSV,4,1,15,01,05,307,34,08,42,272,31,10,71,058,31,14,02,345,41*7C
$GPGSV,4,2,15,18,12,128,35,21,28,305,26,22,05,266,30,23,36,075,35*73
$GPGSV,4,3,15,24,21,058,38,27,39,226,35,28,00,360,35,32,59,178,35*7A
$GPGSV,4,4,15,46,33,186,,48,33,192,39,51,31,158,35*40
$GPGLL,4916.49312,N,12413.43789,W,023555.00,A,A*7C
$GPRMC,023556.00,A,4916.49749,N,12413.44480,W,23.340,308.64,170621,,,A*43
$
+200.00
@20.04
#996.81
%62.50
:234
&39.41
GPVTG,308.64,T,,M,23.340,N,43.227,K,A*32
$GPGGA,023556.00,4916$GPRMC,023559.00,A,4916.49663,N,12413.47913,W,29.687,249.31,170621,,,A*41
$GPVTG,249.31,T,,M,29.687,N,54.981,K,A*33
$GPGGA,023559.00,4916.49663,N,12413.47913,W,1,08,1.24,214.3,M,-17.7,M,,*68
$GPGSA,A,3,10,32,08,27,23,21,24,18,,,,,2.02,1.24,1.60*02
$GPGSV,4,1,15,01,05,307,40,08,42,272,32,10,71,058,33,14,02,345,42*7D
$GPGSV,4,2,15,18,12,128,38,21,28,305,37,22,05,266,40,23,36,075,41*7A
$GPGSV,4,3,15,24,21,058,37,27,39,226,23,28,00,360,40,32,59,178,33*76
$GPGSV,4,4,15,46,33,186,,48,33,192,31,51,31,158,27*4B
$GPGLL,4916.49663,N,12413.47913,W,023559.00,A,A*7A
$GPRMC,023600.00,A,4916.49231,N,12413.48953,W,28.533,233.55,170621,,,A*44
$
+200.00
@20.04
#997.53
%56.47
:238
&39.68
GPVTG,233.55,T,,M,28.533,N,52.842,K,A*39
$GPGGA,023600.00,4916$GPRMC,023603.00,A,4916.47163,N,12413.50141,W,29.546,180.06,170621,,,A*41
$GPVTG,180.06,T,,M,29.546,N,54.719,K,A*30
$GPGGA,023603.00,4916.47163,N,12413.50141,W,1,08,0.92,207.6,M,-17.7,M,,*6F
$GPGSA,A,3,10,32,08,27,23,21,24,18,,,,,1.70,0.92,1.43*09
$GPGSV,4,1,14,01,05,307,31,08,42,272,39,10,71,058,36,14,02,345,39*78
$GPGSV,4,2,14,18,12,128,34,21,28,305,31,22,05,266,41,23,36,075,38*7E
$GPGSV,4,3,14,24,21,058,35,27,39,226,33,28,00,360,32,32,59,178,39*7B
$GPGSV,4,4,14,46,33,186,,51,31,158,*7B
$GPGLL,4916.47163,N,12413.50141,W,023603.00,A,A*76
$GPRMC,023604.00,A,4916.46361,N,12413.49949,W,29.885,167.47,170621,,,A*41
$
+200.00
@20.03
#998.34
%51.45
:242
&39.64
GPVTG,167.47,T,,M,29.885,N,55.347,K,A*30
$GPGGA,023604.00,4916$GPRMC,023607.00,A,4916.44711,N,12413.47995,W,21.123,122.89,170621,,,A*42
$GPVTG,122.89,T,,M,21.123,N,39.120,K,A*37
$GPGGA,023607.00,4916.44711,N,12413.47995,W,1,08,0.92,207.3,M,-17.7,M,,*69
$GPGSA,A,3,10,32,08,27,23,21,24,18,,,,,1.70,0.92,1.43*09
$GPGSV,4,1,14,01,05,307,38,08,42,272,33,10,71,058,25,14,02,345,35*75
$GPGSV,4,2,14,18,12,128,40,21,28,305,38,22,05,266,35,23,36,075,27*79
$GPGSV,4,3,14,24,21,058,34,27,39,226,36,28,00,360,38,32,59,178,40*7B
$GPGSV,4,4,14,46,33,186,41,51,31,158,*7E
$GPGLL,4916.44711,N,12413.47995,W,023607.00,A,A*75
$GPRMC,023608.00,A,4916.44511,N,12413.47240,W,18.880,109.01,170621,,,A*4F
$
+200.00
@20.03
#998.20
%51.41
:246
&39.43
GPVTG,109.01,T,,M,18.880,N,34.966,K,A*33
$GPGGA,023608.00,4916$GPRMC,023611.00,A,4916.45200,N,12413.45216,W,19.807,36.98,170621,,,A*73
$GPVTG,36.98,T,,M,19.807,N,36.683,K,A*06
$GPGGA,023611.00,4916.45200,N,12413.45216,W,1,08,0.98,203.6,M,-17.7,M,,*63
$GPGSA,A,3,10,32,08,27,23,21,24,18,,,,,1.85,0.98,1.57*0C
$GPGSV,4,1,14,01,05,307,30,08,42,272,28,10,71,058,38,14,02,345,35*7B
$GPGSV,4,2,14,18,12,128,40,21,28,305,38,22,05,266,42,23,36,075,33*7C
$GPGSV,4,3,14,24,21,058,25,27,39,226,39,28,00,360,33,32,59,178,35*7D
$GPGSV,4,4,14,46,33,186,33,51,31,158,27*7E
$GPGLL,4916.45200,N,12413.45216,W,023611.00,A,A*74
$GPRMC,023612.00,A,4916.45766,N,12413.44849,W,22.548,18.20,170621,,,A*75
$
+200.00
@20.07
#999.43
%39.54
:251
&39.27
GPVTG,18.20,T,,M,22.548,N,41.758,K,A*00
$GPGGA,023612.00,4916.$GPRMC,023615.00,A,4916.47983,N,12413.45882,W,32.475,324.28,170621,,,A*49
$GPVTG,324.28,T,,M,32.475,N,60.144,K,A*32
$GPGGA,023615.00,4916.47983,N,12413.45882,W,1,09,0.88,190.1,M,-17.7,M,,*6C
$GPGSA,A,3,10,32,08,27,23,21,24,18,22,,,,1.50,0.88,1.21*04
$GPGSV,4,1,14,01,05,307,35,08,42,272,31,10,71,058,35,14,02,345,42*7B
$GPGSV,4,2,14,18,11,129,37,21,28,305,35,22,05,266,33,23,36,075,38*7E
$GPGSV,4,3,14,24,21,058,34,27,39,226,34,28,00,360,37,32,59,178,40*76
$GPGSV,4,4,14,46,33,186,33,51,31,158,40*7F
$GPGLL,4916.47983,N,12413.45882,W,023615.00,A,A*75
$GPRMC,023616.00,A,4916.48594,N,12413.46884,W,32.780,309.07,170621,,,A*41
$
+200.00
@20.04
#1000.61
%31.65
:254
&39.49
GPVTG,309.07,T,,M,32.780,N,60.709,K,A*36
$GPGGA,023616.00,4916$GPRMC,023619.00,A,4916.48418,N,12413.50446,W,26.193,230.34,170621,,,A*44
$GPVTG,230.34,T,,M,26.193,N,48.509,K,A*34
$GPGGA,023619.00,4916.48418,N,12413.50446,W,1,09,0.94,185.2,M,-17.7,M,,*6A
$GPGSA,A,3,10,32,08,27,23,21,24,18,22,,,,1.64,0.94,1.34*0A
$GPGSV,4,1,14,01,05,307,44,08,42,272,36,10,71,058,34,14,02,345,36*78
$GPGSV,4,2,14,18,11,129,26,21,28,305,43,22,05,266,43,23,35,075,34*77
$GPGSV,4,3,14,24,21,058,36,27,39,226,32,28,00,360,32,32,59,178,29*78
$GPGSV,4,4,14,46,33,186,34,51,31,158,36*79
$GPGLL,4916.48418,N,12413.50446,W,023619.00,A,A*79
$GPRMC,023620.00,A,4916.47870,N,12413.51057,W,23.907,208.69,170621,,,A*45
$
+200.00
@20.04
#1000.67
%29.91
:258
&39.48
GPVTG,208.69,T,,M,23.907,N,44.275,K,A*37
$GPGGA,023620.00,4916$GPRMC,023623.00,A,4916.45806,N,12413.51446,W,28.243,172.16,170621,,,A*47
$GPVTG,172.16,T,,M,28.243,N,52.307,K,A*32
$GPGGA,023623.00,4916.45806,N,12413.51446,W,1,09,0.90,176.3,M,-17.7,M,,*65
$GPGSA,A,3,10,32,08,27,23,21,24,18,22,,,,1.54,0.90,1.25*0D
$GPGSV,4,1,14,01,05,307,38,08,42,272,27,10,71,058,31,14,02,345,29*78
$GPGSV,4,2,14,18,11,129,33,21,28,305,38,22,05,266,40,23,35,075,35*7D
$GPGSV,4,3,14,24,21,058,38,27,38,226,38,28,00,359,29,32,59,178,36*73
$GPGSV,4,4,14,46,33,186,31,51,31,158,*79
$GPGLL,4916.45806,N,12413.51446,W,023623.00,A,A*7F
$GPRMC,023624.00,A,4916.45042,N,12413.51058,W,29.405,156.82,170621,,,A*4D
$
+200.00
@20.00
#1001.69
%23.01
:262
&39.59
GPVTG,156.82,T,,M,29.405,N,54.458,K,A*37
$GPGGA,023624.00,4916$GPRMC,023627.00,A,4916.43915,N,12413.48385,W,23.076,99.16,170621,,,A*7D
$GPVTG,99.16,T,,M,23.076,N,42.736,K,A*0E
$GPGGA,023627.00,4916.43915,N,12413.48385,W,1,10,0.89,177.6,M,-17.7,M,,*60
$GPGSA,A,3,10,32,08,27,23,21,24,18,01,22,,,1.46,0.89,1.16*07
$GPGSV,4,1,15,01,05,307,39,08,42,272,35,10,71,058,30,14,02,345,34*76
$GPGSV,4,2,15,18,11,129,36,21,28,305,29,22,05,266,38,23,35,075,35*76
$GPGSV,4,3,15,24,21,058,33,27,38,226,33,28,00,359,27,32,59,178,42*7F
$GPGSV,4,4,15,46,33,186,39,48,33,192,40,51,31,158,*42
$GPGLL,4916.43915,N,12413.48385,W,023627.00,A,A*7E
$GPRMC,023628.00,A,4916.43882,N,12413.47435,W,22.096,90.10,170621,,,A*7E
$
+200.00
@19.98
#1001.84
%20.53
:266
&39.52
GPVTG,90.10,T,,M,22.096,N,40.921,K,A*04
$GPGGA,023628.00,4916.$GPRMC,023631.00,A,4916.43996,N,12413.44560,W,23.456,83.65,170621,,,A*79
$GPVTG,83.65,T,,M,23.456,N,43.440,K,A*04
$GPGGA,023631.00,4916.43996,N,12413.44560,W,1,10,0.89,173.1,M,-17.7,M,,*6E
$GPGSA,A,3,10,32,08,27,23,21,24,18,01,22,,,1.46,0.89,1.16*07
$GPGSV,4,1,15,01,05,307,35,08,42,272,39,10,71,058,36,14,02,345,27*72
$GPGSV,4,2,15,18,11,129,36,21,28,305,34,22,05,266,30,23,35,075,33*74
$GPGSV,4,3,15,24,21,058,36,27,38,226,35,28,00,359,34,32,59,178,32*79
$GPGSV,4,4,15,46,33,186,29,48,33,192,35,51,31,158,40*45
$GPGLL,4916.43996,N,12413.44560,W,023631.00,A,A*73
$GPRMC,023632.00,A,4916.44101,N,12413.43565,W,24.121,78.79,170621,,,A*72
$
+200.00
@19.94
#1002.49
%15.73
:270
&39.57
GPVTG,78.79,T,,M,24.121,N,44.673,K,A*0A
$GPGGA,023632.00,4916.$GPRMC,023635.00,A,4916.45564,N,12413.42453,W,22.970,347.86,170621,,,A*43
$GPVTG,347.86,T,,M,22.970,N,42.541,K,A*3B
$GPGGA,023635.00,4916.45564,N,12413.42453,W,1,10,0.89,166.7,M,-17.7,M,,*68
$GPGSA,A,3,10,32,08,27,23,21,24,18,01,22,,,1.46,0.89,1.16*07
$GPGSV,4,1,15,01,05,307,33,08,42,272,25,10,71,058,41,14,02,345,40*78
$GPGSV,4,2,15,18,11,129,40,21,28,305,28,22,05,266,36,23,35,075,33*7E
$GPGSV,4,3,15,24,21,058,42,27,38,226,29,28,00,359,34,32,59,178,36*73
$GPGSV,4,4,15,46,33,186,29,48,33,192,41,51,31,158,38*49
$GPGLL,4916.45564,N,12413.42453,W,023635.00,A,A*77
$GPRMC,023636.00,A,4916.46186,N,12413.42939,W,26.330,327.50,170621,,,A*4D
$
+200.00
@19.97
#1003.56
%5.57
:274
&39.42
GPVTG,327.50,T,,M,26.330,N,48.764,K,A*33
$GPGGA,023636.00,4916$GPRMC,023639.00,A,4916.47489,N,12413.46163,W,32.976,284.31,170621,,,A*48
$GPVTG,284.31,T,,M,32.976,N,61.071,K,A*39
$GPGGA,023639.00,4916.47489,N,12413.46163,W,1,10,0.85,155.0,M,-17.7,M,,*6D
$GPGSA,A,3,10,32,08,27,23,21,24,18,01,22,,,1.43,0.85,1.15*0D
$GPGSV,4,1,15,01,05,307,40,08,42,272,33,10,71,058,39,14,02,345,43*77
$GPGSV,4,2,15,18,11,129,41,21,28,305,36,22,05,266,34,23,35,075,32*73
$GPGSV,4,3,15,24,21,058,38,27,38,226,31,28,00,359,40,32,59,178,38*7A
$GPGSV,4,4,15,46,33,186,,48,33,192,30,51,31,158,31*4D
$GPGLL,4916.47489,N,12413.46163,W,023639.00,A,A*79
$GPRMC,023640.00,A,4916.47452,N,12413.47585,W,34.293,261.09,170621,,,A*4B
$
+200.00
@19.94
#1005.25
%-8.56
:279
&39.42
GPVTG,261.09,T,,M,34.293,N,63.511,K,A*3E
$GPGGA,023640.00,4916$GPRMC,023643.00,A,4916.45239,N,12413.49807,W,33.301,180.97,170621,,,A*4E
$GPVTG,180.97,T,,M,33.301,N,61.673,K,A*3D
$GPGGA,023643.00,4916.45239,N,12413.49807,W,1,10,0.87,143.1,M,-17.7,M,,*6F
$GPGSA,A,3,10,32,08,27,23,21,24,18,01,22,,,1.48,0.87,1.20*02
$GPGSV,4,1,15,01,06,307,39,08,42,272,35,10,71,058,39,14,02,345,36*7E
$GPGSV,4,2,15,18,11,129,32,21,28,305,35,22,05,266,43,23,35,075,33*75
$GPGSV,4,3,15,24,21,058,26,27,38,226,43,28,00,359,34,32,59,178,30*7B
$GPGSV,4,4,15,46,33,186,,48,33,192,33,51,31,158,32*4D
$GPGLL,4916.45239,N,12413.49807,W,023643.00,A,A*7F
$GPRMC,023644.00,A,4916.44518,N,12413.49394,W,27.895,151.31,170621,,,A*4E
$
+200.00
@19.87
#1005.01
%-0.62
:282
&39.60
GPVTG,151.31,T,,M,27.895,N,51.662,K,A*3D
$GPGGA,023644.00,4916$GPRMC,023647.00,A,4916.44194,N,12413.46569,W,24.112,65.42,170621,,,A*71
$GPVTG,65.42,T,,M,24.112,N,44.655,K,A*0A
$GPGGA,023647.00,4916.44194,N,12413.46569,W,1,10,0.87,171.2,M,-17.7,M,,*66
$GPGSA,A,3,10,32,08,27,23,21,24,18,01,22,,,1.48,0.87,1.20*02
$GPGSV,4,1,15,01,06,307,38,08,42,272,27,10,71,058,35,14,02,345,40*71
$GPGSV,4,2,15,18,11,129,43,21,28,305,29,22,05,266,28,23,35,075,41*76
$GPGSV,4,3,15,24,21,058,36,27,38,226,32,28,00,359,38,32,59,178,41*76
$GPGSV,4,4,15,46,33,186,37,48,33,192,38,51,31,158,41*46
$GPGLL,4916.44194,N,12413.46569,W,023647.00,A,A*74
$GPRMC,023648.00,A,4916.44484,N,12413.45768,W,19.852,57.69,170621,,,A*71
$
+200.00
@19.77
#999.98
%39.78
:286
&39.76
GPVTG,57.69,T,,M,19.852,N,36.766,K,A*05
$GPGGA,023648.00,4916.$GPRMC,023651.00,A,4916.45355,N,12413.43847,W,12.974,50.71,170621,,,A*77
$GPVTG,50.71,T,,M,12.974,N,24.027,K,A*04
$GPGGA,023651.00,4916.45355,N,12413.43847,W,1,10,0.90,199.3,M,-17.7,M,,*6A
$GPGSA,A,3,10,32,08,27,23,21,24,18,01,22,,,1.53,0.90,1.24*0A
$GPGSV,4,1,15,01,06,307,29,08,42,271,32,10,71,058,36,14,02,345,35*77
$GPGSV,4,2,15,18,11,129,43,21,28,305,38,22,05,266,38,23,35,075,36*77
$GPGSV,4,3,15,24,21,058,23,27,38,226,25,28,00,359,29,32,59,178,37*75
$GPGSV,4,4,15,46,33,186,33,48,33,192,29,51,31,158,34*40
$GPGLL,4916.45355,N,12413.43847,W,023651.00,A,A*79
$GPRMC,023652.00,A,4916.45851,N,12413.43430,W,19.446,22.10,170621,,,A*72
$
+200.00
@19.84
#1000.14
%35.09
:290
&39.77
GPVTG,22.10,T,,M,19.446,N,36.014,K,A*02
$GPGGA,023652.00,4916.$GPRMC,023655.00,A,4916.47674,N,12413.44451,W,28.792,313.70,170621,,,A*41
$GPVTG,313.70,T,,M,28.792,N,53.323,K,A*39
$GPGGA,023655.00,4916.47674,N,12413.44451,W,1,10,0.87,189.8,M,-17.7,M,,*6A
$GPGSA,A,3,10,32,08,27,23,21,24,18,01,22,,,1.48,0.87,1.20*02
$GPGSV,4,1,15,01,06,307,38,08,42,271,28,10,70,059,30,14,02,345,39*76
$GPGSV,4,2,15,18,11,129,31,21,28,305,35,22,05,266,28,23,35,075,38*70
$GPGSV,4,3,15,24,21,058,42,27,38,226,35,28,00,359,41,32,59,178,38*72
$GPGSV,4,4,15,46,33,186,35,48,33,192,31,51,31,158,40*4C
$GPGLL,4916.47674,N,12413.44451,W,023655.00,A,A*75
$GPRMC,023656.00,A,4916.48073,N,12413.45580,W,31.784,292.97,170621,,,A*4E
$
+200.00
@19.94
#1001.54
%23.30
:294
&39.47
GPVTG,292.97,T,,M,31.784,N,58.865,K,A*35
$GPGGA,023656.00,4916$GPRMC,023659.00,A,4916.49282,N,12413.49089,W,29.033,317.11,170621,,,A*4C
$GPVTG,317.11,T,,M,29.033,N,53.769,K,A*3D
$GPGGA,023659.00,4916.49282,N,12413.49089,W,1,10,0.88,183.1,M,-17.7,M,,*65
$GPGSA,A,3,10,32,08,27,23,21,24,18,01,22,,,1.64,0.88,1.38*0A
$GPGSV,4,1,15,01,06,307,36,08,42,271,27,10,70,059,37,14,02,345,40*7E
$GPGSV,4,2,15,18,11,129,40,21,28,305,35,22,05,266,35,23,35,075,35*77
$GPGSV,4,3,15,24,21,058,38,27,38,226,40,28,00,359,34,32,59,178,41*71
$GPGSV,4,4,15,46,33,186,,48,33,192,38,51,31,158,32*46
$GPGLL,4916.49282,N,12413.49089,W,023659.00,A,A*76
$GPRMC,023700.00,A,4916.49830,N,12413.49520,W,20.221,341.85,170621,,,A*42
$
+200.00
@19.95
#1001.21
%25.30
:298
&39.52
GPVTG,341.85,T,,M,20.221,N,37.450,K,A*30
$GPGGA,023700.00,4916$GPRMC,023703.00,A,4916.50727,N,12413.48242,W,20.728,94.14,170621,,,A*7D
$GPVTG,94.14,T,,M,20.728,N,38.389,K,A*03
$GPGGA,023703.00,4916.50727,N,12413.48242,W,1,10,0.92,176.4,M,-17.7,M,,*69
$GPGSA,A,3,10,32,08,27,23,21,24,18,01,22,,,1.63,0.92,1.34*0A
$GPGSV,4,1,14,01,06,307,41,08,42,271,38,10,70,059,31,14,02,345,38*78
$GPGSV,4,2,14,18,11,129,31,21,29,305,42,22,05,267,40,23,35,075,37*70
$GPGSV,4,3,14,24,21,058,29,27,38,226,36,28,00,359,37,32,59,178,39*7D
$GPGSV,4,4,14,46,33,186,,51,31,158,29*70
$GPGLL,4916.50727,N,12413.48242,W,023703.00,A,A*7E
$GPRMC,023704.00,A,4916.50440,N,12413.47477,W,21.660,128.77,170621,,,A*48
$
+200.00
@19.93
#1002.38
%14.80
:303
&39.50
GPVTG,128.77,T,,M,21.660,N,40.114,K,A*35
$GPGGA,023704.00,4916$GPRMC,023707.00,A,4916.48637,N,12413.46488,W,24.336,173.47,170621,,,A*4F
$GPVTG,173.47,T,,M,24.336,N,45.070,K,A*3D
$GPGGA,023707.00,4916.48637,N,12413.46488,W,1,10,1.21,168.6,M,-17.7,M,,*6E
$GPGSA,A,3,10,32,08,27,23,21,24,18,01,22,,,1.96,1.21,1.54*0F
$GPGSV,4,1,14,01,06,307,36,08,42,271,32,10,70,059,32,14,02,345,35*7C
$GPGSV,4,2,14,18,11,129,34,21,29,305,37,22,05,267,35,23,35,076,37*76
$GPGSV,4,3,14,24,21,057,40,27,38,226,37,28,00,359,37,32,59,178,36*73
$GPGSV,4,4,14,46,33,186,34,51,31,158,*7C
$GPGLL,4916.48637,N,12413.46488,W,023707.00,A,A*7D
$GPRMC,023708.00,A,4916.47974,N,12413.46372,W,23.372,171.42,170621,,,A*45
$
+200.00
@19.96
#1002.77
%13.19
:306
&39.37
GPVTG,171.42,T,,M,23.372,N,43.285,K,A*33
$GPGGA,023708.00,4916$GPRMC,023711.00,A,4916.46126,N,12413.46293,W,24.460,190.17,170621,,,A*41
$GPVTG,190.17,T,,M,24.460,N,45.299,K,A*34
$GPGGA,023711.00,4916.46126,N,12413.46293,W,1,10,0.92,167.2,M,-17.7,M,,*6E
$GPGSA,A,3,10,32,08,27,23,21,24,18,01,22,,,1.63,0.92,1.34*0A
$GPGSV,4,1,14,01,06,307,29,08,42,271,32,10,70,059,33,14,02,345,37*71
$GPGSV,4,2,14,18,11,129,37,21,29,305,34,22,05,267,39,23,35,076,31*7C
$GPGSV,4,3,14,24,21,057,41,27,38,225,36,28,00,359,40,32,59,178,31*77
$GPGSV,4,4,14,46,33,186,34,51,31,158,*7C
$GPGLL,4916.46126,N,12413.46293,W,023711.00,A,A*7F
$GPRMC,023712.00,A,4916.45487,N,12413.46680,W,27.341,206.61,170621,,,A*43
$
+200.00
@20.01
#1004.17
%0.49
:310
&39.44
GPVTG,206.61,T,,M,27.341,N,50.636,K,A*3B
$GPGGA,023712.00,4916$GPRMC,023715.00,A,4916.44914,N,12413.50175,W,32.409,287.21,170621,,,A*4A
$GPVTG,287.21,T,,M,32.409,N,60.021,K,A*3A
$GPGGA,023715.00,4916.44914,N,12413.50175,W,1,10,0.89,152.4,M,-17.7,M,,*67
$GPGSA,A,3,10,32,08,27,23,21,24,18,01,22,,,1.74,0.89,1.49*0C
$GPGSV,4,1,14,01,06,307,37,08,42,271,36,10,70,059,36,14,02,345,35*7D
$GPGSV,4,2,14,18,11,129,34,21,29,305,37,22,05,267,28,23,35,076,31*7C
$GPGSV,4,3,14,24,21,057,30,27,38,225,42,28,00,359,35,32,59,178,43*75
$GPGSV,4,4,14,46,33,186,35,51,31,158,36*78
$GPGLL,4916.44914,N,12413.50175,W,023715.00,A,A*7C
$GPRMC,023716.00,A,4916.45409,N,12413.51277,W,32.295,310.53,170621,,,A*40
$
+200.00
@20.07
#1005.18
%-6.93
:314
&39.33
GPVTG,310.53,T,,M,32.295,N,59.811,K,A*32
$GPGGA,023716.00,4916$GPRMC,023719.00,A,4916.47614,N,12413.51671,W,25.139,30.51,170621,,,A*71
