
Humidity (%)
&46.66\r
$GPRMC,011205.00,A,4919.18520,N,12419.03252,W,0.206,,280121,,,A\r
Methane (PPM)
+439.26\r
Temperature (*c)
@13.33\r
Pressure (hPa)
#1001.93\r
Altitude (m)
%94.71\r
\r
Humidity (%)
&46.63\r
$GPRMC,011207.00,A,4919.18736,N,12419.03403,W,0.265,,280121,,,A\r
Methane (PPM)
+441.70\r
Temperature (*c)
@13.23\r
Pressure (hPa)
#1001.96\r
Altitude (m)
%94.45\r
\r
Humidity (%)
&46.88\r
$GPRMC,011209.00,A,4919.18882,N,12419.03487,W,0.116,,280121,,,A\r
Methane (PPM)
+441.70\r
Temperature (*c)
@12.91\r
Pressure (hPa)
#1001.88\r
Altitude (m)
%94.83\r
\r
Humidity (%)
&47.45\r
$GPRMC,011211.00,A,4919.18834,N,12419.03515,W,1.631,,280121,,,A\r
Methane (PPM)
+439.26\r
Temperature (*c)
@12.83\r
Pressure (hPa)
#1001.92\r
Altitude (m)
%94.62\r
\r
Humidity (%)
&47.44\r
$GPRMC,011213.00,A,4919.18882,N,12419.03493,W,1.199,,280121,,,A\r
Methane (PPM)
+441.70\r
Temperature (*c)
@12.67\r
Pressure (hPa)
#1001.96\r
Altitude (m)
%94.61\r
\r
Humidity (%)
&47.91\r
$GPRMC,011215.00,A,4919.18898,N,12419.03459,W,0.388,,280121,,,A\r
Methane (PPM)
+441.70\r
Temperature (*c)
@12.54\r
Pressure (hPa)
#1001.93\r
Altitude (m)
%94.71\r
\r
Humidity (%)
&48.04\r
$GPRMC,011217.00,A,4919.18688,N,12419.03415,W,0.992,,280121,,,A,A,4919.18678,N,12419.03391,W,0.683,,280121,,,A*6F\r
$GPVTG,,T,,M,0.683,N,1.265,K,A*2E\r
$GPGGA,011219.00,4919.18678,N,12419.03391,W,1,05,2.48,30.6,M,-17.7,M,,*54\r
$GPGSA,A,3,17,28,14,15,13,,,,,,,,3.94,2.48,3.06*08\r
$GPGSV,3,1,10,01,21,042,,06,,,28,12,12,273,18,13,23,212,26*4B\r
$GPGSV,3,2,10,14,38,084,29,15,24,253,29,17,75,089,21,19,69,184,20*73\r
$GPGSV,3,3,10,24,,,34,28,47,078,26*4B\r
$GPGLL,4919.18678,N,12419.03391,W,011219.00,A,A*73\r
4.53\r
\r
Humidity (%)
&48.33\r
$GPRMC,011220.00,A,4919.18670,N,12419.03378,W,0.324,,280121,,,A\r
Methane (PPM)
+439.26\r
Temperature (*c)
@12.22\r
Pressure (hPa)
#1001.93\r
Altitude (m)
%94.82\r
\r
Humidity (%)
&48.92\r
$GPRMC,011222.00,A,4919.18695,N,12419.03323,W,1.600,,280121,,,A\r
Methane (PPM)
+427.05\r
Temperature (*c)
@11.74\r
Pressure (hPa)
#1001.94\r
Altitude (m)
%94.64\r
\r
Humidity (%)
&49.71\r
$GPRMC,011224.00,A,4919.18740,N,12419.03137,W,2.786,,280121,,,A\r
Methane (PPM)
+424.61\r
Temperature (*c)
@11.70\r
Pressure (hPa)
#1001.98\r
Altitude (m)
%94.59\r
\r
Humidity (%)
&50.09\r
$GPRMC,011226.00,A,4919.18751,N,12419.02948,W,2.250,,280121,,,A\r
Methane (PPM)
+424.61\r
Temperature (*c)
@11.46\r
Pressure (hPa)
#1001.88\r
Altitude (m)
%95.05\r
\r
Humidity (%)
&50.40\r
$GPRMC,011228.00,A,4919.18783,N,12419.02788,W,1.579,,280121,,,A\r
Methane (PPM)
+429.49\r
Temperature (*c)
@11.30\r
Pressure (hPa)
#1001.95\r
Altitude (m)
%94.49\r
\r
Humidity (%)
&50.98\r
$GPRMC,011230.00,A,4919.18837,N,12419.02609,W,2.245,,280121,,,A\r
Methane (PPM)
+429.49\r
Temperature (*c)
@10.99\r
Pressure (hPa)
#1001.96\r
Altitude (m)
%94.46\r
\r
Humidity (%)
&51.67\r
$GPRMC,011232.00,A,4919.18921,N,12419.02387,W,2.340,,280121,,,A\r
Methane (PPM)
+422.17\r
Temperature (*c)
@10.60\r
Pressure (hPa)
#1001.96\r
Altitude (m)
%94.34\r
\r
Humidity (%)
&52.34\r
$GPRMC,011234.00,A,4919.18999,N,12419.02225,W,1.693,,280121,,,A\r
Methane (PPM)
+419.73\r
Temperature (*c)
@10.51\r
Pressure (hPa)
#1001.98\r
Altitude (m)
%93.96\r
\r
Humidity (%)
&52.80\r
$GPRMC,011236.00,A,4919.19098,N,12419.02074,W,1.853,,280121,,,A\r
Methane (PPM)
+424.61\r
Temperature (*c)
@10.37\r
Pressure (hPa)
#1002.04\r
Altitude (m)
%93.92\r
\r
Humidity (%)
&53.13\r
$GPRMC,011238.00,A,4919.19155,N,12419.02041,W,1.372,,280121,,,A19.19288,N,12419.02023,W,1.651,,280121,,,A*6C\r
$GPVTG,,T,,M,1.651,N,3.057,K,A*21\r
$GPGGA,011240.00,4919.19288,N,12419.02023,W,1,05,2.49,27.1,M,-17.7,M,,*59\r
$GPGSA,A,3,17,28,14,15,13,,,,,,,,3.94,2.49,3.06*09\r
$GPGSV,3,1,12,01,20,042,34,06,,,31,12,12,273,18,13,22,212,28*48\r
$GPGSV,3,2,12,14,38,084,29,15,24,253,21,17,75,089,21,19,69,184,27*7E\r
$GPGSV,3,3,12,21,,,27,24,,,36,28,47,078,26,30,,,34*49\r
$GPGLL,4919.19288,N,12419.02023,W,011240.00,A,A*7E\r
3.77\r
\r
Humidity (%)
&53.51\r
$GPRMC,011241.00,A,4919.19436,N,12419.02084,W,2.206,,280121,,,A\r
Methane (PPM)
+434.38\r
Temperature (*c)
@10.22\r
Pressure (hPa)
#1002.06\r
Altitude (m)
%93.57\r
\r
Humidity (%)
&53.75\r
$GPRMC,011243.00,A,4919.19547,N,12419.02089,W,2.024,,280121,,,A\r
Methane (PPM)
+436.82\r
Temperature (*c)
@10.14\r
Pressure (hPa)
#1002.08\r
Altitude (m)
%93.32\r
\r
Humidity (%)
&54.20\r
$GPRMC,011245.00,A,4919.19695,N,12419.02077,W,2.413,6.78,280121\r
Methane (PPM)
+439.26\r
Temperature (*c)
@10.14\r
Pressure (hPa)
#1002.08\r
Altitude (m)
%93.40\r
\r
Humidity (%)
&54.83\r
$GPRMC,011247.00,A,4919.19870,N,12419.02096,W,2.600,2.15,280121\r
Methane (PPM)
+441.70\r
Temperature (*c)
@10.11\r
Pressure (hPa)
#1002.11\r
Altitude (m)
%93.15\r
\r
Humidity (%)
&54.52\r
$GPRMC,011249.00,A,4919.19912,N,12419.02049,W,1.838,,280121,,,A\r
Methane (PPM)
+441.70\r
Temperature (*c)
@10.06\r
Pressure (hPa)
#1002.11\r
Altitude (m)
%92.70\r
\r
Humidity (%)
&54.56\r
$GPRMC,011251.00,A,4919.20172,N,12419.02134,W,2.921,352.16,2801\r
Methane (PPM)
+444.14\r
Temperature (*c)
@9.95\r
Pressure (hPa)
#1002.16\r
Altitude (m)
%93.04\r
\r
Humidity (%)
&54.74\r
$GPRMC,011253.00,A,4919.20267,N,12419.02145,W,2.499,349.87,2801\r
Methane (PPM)
+439.26\r
Temperature (*c)
@9.71\r
Pressure (hPa)
#1002.11\r
Altitude (m)
%92.94\r
\r
Humidity (%)
&55.03\r
$GPRMC,011255.00,A,4919.20402,N,12419.02084,W,2.406,,280121,,,A\r
Methane (PPM)
+439.26\r
Temperature (*c)
@9.71\r
Pressure (hPa)
#1002.13\r
Altitude (m)
%93.05\r
\r
Humidity (%)
&55.17\r
$GPRMC,011257.00,A,4919.20535,N,12419.02112,W,2.268,347.56,2801$GPRMC,011259.00,A,4919.20729,N,12419.02083,W,2.766,355.27,280121,,,A*74\r
$GPVTG,355.27,T,,M,2.766,N,5.122,K,A*3A\r
$GPGGA,011259.00,4919.20729,N,12419.02083,W,1,05,2.49,18.6,M,-17.7,M,,*54\r
$GPGSA,A,3,17,28,14,15,13,,,,,,,,3.95,2.49,3.06*08\r
$GPGSV,3,1,12,01,20,042,36,06,,,38,12,12,273,20,13,22,212,25*45\r
$GPGSV,3,2,12,14,38,084,24,15,24,253,24,17,74,088,29,19,69,184,29*70\r
$GPGSV,3,3,12,21,,,39,24,,,23,28,47,079,25,30,,,41*42\r
$GPGLL,4919.20729,N,12419.02083,W,011259.00,A,A*78\r
2.94\r
\r
Humidity (%)
&55.45\r
$GPRMC,011300.00,A,4919.20844,N,12419.02118,W,3.043,353.50,2801\r
Methane (PPM)
+439.26\r
Temperature (*c)
@9.50\r
Pressure (hPa)
#1002.14\r
Altitude (m)
%92.56\r
\r
Humidity (%)
&55.73\r
$GPRMC,011302.00,A,4919.20893,N,12419.02000,W,2.481,357.99,2801\r
Methane (PPM)
+439.26\r
Temperature (*c)
@9.40\r
Pressure (hPa)
#1002.21\r
Altitude (m)
%92.34\r
\r
Humidity (%)
&56.08\r
$GPRMC,011304.00,A,4919.20963,N,12419.01959,W,2.180,358.39,2801\r
Methane (PPM)
+436.82\r
Temperature (*c)
@9.22\r
Pressure (hPa)
#1002.19\r
Altitude (m)
%92.18\r
\r
Humidity (%)
&56.56\r
$GPRMC,011306.00,A,4919.20944,N,12419.01922,W,2.012,342.02,2801\r
Methane (PPM)
+434.38\r
Temperature (*c)
@9.06\r
Pressure (hPa)
#1002.22\r
Altitude (m)
%91.94\r
\r
Humidity (%)
&56.95\r
$GPRMC,011308.00,A,4919.21010,N,12419.01969,W,2.240,,280121,,,A\r
Methane (PPM)
+434.38\r
Temperature (*c)
@8.91\r
Pressure (hPa)
#1002.27\r
Altitude (m)
%92.09\r
\r
Humidity (%)
&57.34\r
$GPRMC,011310.00,A,4919.21074,N,12419.01821,W,1.860,,280121,,,A\r
Methane (PPM)
+434.38\r
Temperature (*c)
@8.77\r
Pressure (hPa)
#1002.27\r
Altitude (m)
%91.66\r
\r
Humidity (%)
&57.71\r
$GPRMC,011312.00,A,4919.21403,N,12419.01930,W,2.667,353.88,2801\r
Methane (PPM)
+434.38\r
Temperature (*c)
@8.67\r
Pressure (hPa)
#1002.26\r
Altitude (m)
%91.86\r
\r
Humidity (%)
&58.14\r
$GPRMC,011314.00,A,4919.21617,N,12419.01933,W,2.978,355.64,2801\r
Methane (PPM)
+431.93\r
Temperature (*c)
@8.58\r
Pressure (hPa)
#1002.30\r
Altitude (m)
%91.69\r
\r
Humidity (%)
&58.40\r
$GPRMC,011316.00,A,4919.21745,N,12419.01904,W,2.799,358.80,2801$GPRMC,011318.00,A,4919.21878,N,12419.01789,W,3.394,,280121,,,A*64\r
$GPVTG,,T,,M,3.394,N,6.285,K,A*27\r
$GPGGA,011318.00,4919.21878,N,12419.01789,W,1,04,19.34,15.4,M,-17.7,M,,*6A\r
$GPGSA,A,3,17,28,14,15,,,,,,,,,19.64,19.34,3.42*0F\r
$GPGSV,3,1,12,01,20,042,34,06,,,38,12,12,273,28,13,22,212,17*4E\r
$GPGSV,3,2,12,14,37,084,22,15,24,253,26,17,74,088,24,19,70,184,27*70\r
$GPGSV,3,3,12,21,,,38,24,,,37,28,47,079,23,30,,,31*47\r
$GPGLL,4919.21878,N,12419.01789,W,011318.00,A,A*78\r
1.08\r
\r
Humidity (%)
&58.77\r
$GPRMC,011319.00,A,4919.21959,N,12419.01785,W,3.151,3.48,280121\r
Methane (PPM)
+431.93\r
Temperature (*c)
@8.32\r
Pressure (hPa)
#1002.36\r
Altitude (m)
%91.32\r
\r
Humidity (%)
&59.10\r
$GPRMC,011321.00,A,4919.22065,N,12419.01685,W,3.076,,280121,,,A\r
Methane (PPM)
+431.93\r
Temperature (*c)
@8.20\r
Pressure (hPa)
#1002.34\r
Altitude (m)
%91.34\r
\r
Humidity (%)
&59.47\r
$GPRMC,011323.00,A,4919.22067,N,12419.01587,W,2.481,,280121,,,A\r
Methane (PPM)
+434.38\r
Temperature (*c)
@8.12\r
Pressure (hPa)
#1002.36\r
Altitude (m)
%90.80\r
\r
Humidity (%)
&59.88\r
$GPRMC,011325.00,A,4919.22103,N,12419.01476,W,2.085,,280121,,,A\r
Methane (PPM)
+434.38\r
Temperature (*c)
@8.04\r
Pressure (hPa)
#1002.40\r
Altitude (m)
%90.60\r
\r
Humidity (%)
&60.50\r
$GPRMC,011327.00,A,4919.22522,N,12419.01611,W,2.596,358.56,2801\r
Methane (PPM)
+434.38\r
Temperature (*c)
@7.85\r
Pressure (hPa)
#1002.40\r
Altitude (m)
%90.45\r
\r
Humidity (%)
&60.90\r
$GPRMC,011329.00,A,4919.22701,N,12419.01635,W,2.462,1.05,280121\r
Methane (PPM)
+434.38\r
Temperature (*c)
@7.80\r
Pressure (hPa)
#1002.43\r
Altitude (m)
%90.27\r
\r
Humidity (%)
&61.28\r
$GPRMC,011331.00,A,4919.22895,N,12419.01626,W,2.945,7.34,280121\r
Methane (PPM)
+436.82\r
Temperature (*c)
@7.81\r
Pressure (hPa)
#1002.44\r
Altitude (m)
%90.34\r
\r
Humidity (%)
&61.63\r
$GPRMC,011333.00,A,4919.23043,N,12419.01655,W,2.669,0.95,280121\r
Methane (PPM)
+434.38\r
Temperature (*c)
@7.67\r
Pressure (hPa)
#1002.47\r
Altitude (m)
%89.70\r
\r
Humidity (%)
&61.83\r
$GPRMC,011335.00,A,4919.23214,N,12419.01665,W,3.087,359.91,2801\r
Methane (PPM)
+436.82\r
Temperature (*c)
@7.70\r
Pressure (hPa)
#1002.51\r
Altitude (m)
%90.01\r
\r
Humidity (%)
&62.00\r
$GPRMC,011337.00,A,4919.23334,N,12419.01709,W,2.902,354.94,2801,A,4919.23449,N,12419.01692,W,2.416,358.45,280121,,,A*73\r
$GPVTG,358.45,T,,M,2.416,N,4.474,K,A*30\r
$GPGGA,011337.00,4919.23449,N,12419.01692,W,1,06,1.87,10.5,M,-17.7,M,,*57\r
$GPGSA,A,3,17,28,14,15,13,06,,,,,,,3.55,1.87,3.02*07\r
$GPGSV,3,1,12,01,20,042,33,06,17,155,37,12,12,273,23,13,22,212,28*76\r
$GPGSV,3,2,12,14,37,084,25,15,24,253,32,17,74,088,22,19,70,184,31*73\r
$GPGSV,3,3,12,21,,,31,24,,,34,28,47,079,24,30,,,26*4C\r
$GPGLL,4919.23449,N,12419.01692,W,011337.00,A,A*72\r
9.71\r
\r
Humidity (%)
&62.30\r
$GPRMC,011338.00,A,4919.23553,N,12419.01681,W,3.167,2.23,280121\r
Methane (PPM)
+444.14\r
Temperature (*c)
@7.58\r
Pressure (hPa)
#1002.56\r
Altitude (m)
%89.30\r
\r
Humidity (%)
&62.47\r
$GPRMC,011340.00,A,4919.23690,N,12419.01663,W,2.706,4.70,280121\r
Methane (PPM)
+444.14\r
Temperature (*c)
@7.58\r
Pressure (hPa)
#1002.59\r
Altitude (m)
%89.26\r
\r
Humidity (%)
&62.64\r
$GPRMC,011342.00,A,4919.23762,N,12419.01718,W,2.398,358.82,2801\r
Methane (PPM)
+441.70\r
Temperature (*c)
@7.56\r
Pressure (hPa)
#1002.60\r
Altitude (m)
%89.25\r
\r
Humidity (%)
&63.06\r
$GPRMC,011344.00,A,4919.23908,N,12419.01711,W,2.354,358.43,2801\r
Methane (PPM)
+441.70\r
Temperature (*c)
@7.54\r
Pressure (hPa)
#1002.61\r
Altitude (m)
%88.81\r
\r
Humidity (%)
&63.17\r
$GPRMC,011346.00,A,4919.24102,N,12419.01717,W,2.690,357.26,2801\r
Methane (PPM)
+441.70\r
Temperature (*c)
@7.49\r
Pressure (hPa)
#1002.63\r
Altitude (m)
%88.69\r
\r
Humidity (%)
&63.74\r
$GPRMC,011348.00,A,4919.24195,N,12419.01804,W,2.022,346.13,2801\r
Methane (PPM)
+441.70\r
Temperature (*c)
@7.48\r
Pressure (hPa)
#1002.69\r
Altitude (m)
%88.26\r
\r
Humidity (%)
&63.83\r
$GPRMC,011350.00,A,4919.24350,N,12419.01770,W,2.122,2.94,280121\r
Methane (PPM)
+436.82\r
Temperature (*c)
@7.48\r
Pressure (hPa)
#1002.72\r
Altitude (m)
%88.06\r
\r
Humidity (%)
&63.92\r
$GPRMC,011352.00,A,4919.24371,N,12419.01766,W,2.295,11.44,28012\r
Methane (PPM)
+439.26\r
Temperature (*c)
@7.50\r
Pressure (hPa)
#1002.72\r
Altitude (m)
%87.67\r
\r
Humidity (%)
&63.97\r
$GPRMC,011354.00,A,4919.24563,N,12419.01740,W,2.787,5.08,280121,011356.00,A,4919.24704,N,12419.01726,W,2.351,7.58,280121,,,A*76\r
$GPVTG,7.58,T,,M,2.351,N,4.354,K,A*34\r
$GPGGA,011356.00,4919.24704,N,12419.01726,W,1,07,1.57,13.6,M,-17.7,M,,*5F\r
$GPGSA,A,3,17,28,14,15,13,24,06,,,,,,3.36,1.57,2.97*04\r
$GPGSV,3,1,12,01,20,042,34,06,18,155,32,12,12,273,16,13,22,211,25*73\r
$GPGSV,3,2,12,14,37,084,32,15,24,252,16,17,74,087,33,19,70,183,27*7D\r
$GPGSV,3,3,12,21,,,37,24,44,299,22,28,46,079,31,30,,,28*74\r
$GPGLL,4919.24704,N,12419.01726,W,011356.00,A,A*76\r
7.84\r
\r
Humidity (%)
&64.09\r
$GPRMC,011357.00,A,4919.24774,N,12419.01728,W,2.397,1.88,280121\r
Methane (PPM)
+441.70\r
Temperature (*c)
@7.52\r
Pressure (hPa)
#1002.77\r
Altitude (m)
%87.65\r
\r
Humidity (%)
&63.90\r
$GPRMC,011359.00,A,4919.24909,N,12419.01741,W,2.405,357.60,2801\r
Methane (PPM)
+441.70\r
Temperature (*c)
@7.49\r
Pressure (hPa)
#1002.76\r
Altitude (m)
%87.74\r
\r
Humidity (%)
&64.24\r
$GPRMC,011401.00,A,4919.25080,N,12419.01742,W,2.639,6.53,280121\r
Methane (PPM)
+444.14\r
Temperature (*c)
@7.52\r
Pressure (hPa)
#1002.79\r
Altitude (m)
%87.49\r
\r
Humidity (%)
&64.29\r
$GPRMC,011403.00,A,4919.25243,N,12419.01781,W,2.535,356.04,2801\r
Methane (PPM)
+446.58\r
Temperature (*c)
@7.49\r
Pressure (hPa)
#1002.78\r
Altitude (m)
%87.55\r
\r
Humidity (%)
&64.93\r
$GPRMC,011405.00,A,4919.25363,N,12419.01826,W,2.868,350.06,2801\r
Methane (PPM)
+446.58\r
Temperature (*c)
@7.52\r
Pressure (hPa)
#1002.80\r
Altitude (m)
%87.03\r
\r
Humidity (%)
&64.75\r
$GPRMC,011407.00,A,4919.25497,N,12419.01909,W,2.417,347.03,2801\r
Methane (PPM)
+446.58\r
Temperature (*c)
@7.49\r
Pressure (hPa)
#1002.82\r
Altitude (m)
%86.93\r
\r
Humidity (%)
&64.68\r
$GPRMC,011409.00,A,4919.25669,N,12419.01901,W,2.060,355.11,2801\r
Methane (PPM)
+444.14\r
Temperature (*c)
@7.47\r
Pressure (hPa)
#1002.85\r
Altitude (m)
%86.97\r
\r
Humidity (%)
&64.63\r
$GPRMC,011411.00,A,4919.25796,N,12419.01906,W,2.441,358.39,2801\r
Methane (PPM)
+446.58\r
Temperature (*c)
@7.49\r
Pressure (hPa)
#1002.89\r
Altitude (m)
%86.63\r
\r
Humidity (%)
&64.67\r
$GPRMC,011413.00,A,4919.25927,N,12419.01958,W,2.388,354.43,2801MC,011415.00,A,4919.26040,N,12419.01955,W,2.429,348.55,280121,,,A*74\r
$GPVTG,348.55,T,,M,2.429,N,4.498,K,A*3E\r
$GPGGA,011415.00,4919.26040,N,12419.01955,W,1,08,1.26,11.3,M,-17.7,M,,*5E\r
$GPGSA,A,3,17,19,28,14,15,13,24,06,,,,,2.32,1.26,1.95*0E\r
$GPGSV,3,1,12,01,20,042,27,06,18,154,29,12,12,273,21,13,22,211,29*72\r
$GPGSV,3,2,12,14,37,084,26,15,24,252,21,17,74,087,27,19,70,183,33*7C\r
$GPGSV,3,3,12,21,,,20,24,44,299,26,28,46,079,30,30,,,25*7A\r
$GPGLL,4919.26040,N,12419.01955,W,011415.00,A,A*79\r
6.41\r
\r
Humidity (%)
&64.66\r
$GPRMC,011416.00,A,4919.26104,N,12419.01964,W,2.178,347.34,2801\r
Methane (PPM)
+446.58\r
Temperature (*c)
@7.48\r
Pressure (hPa)
#1002.94\r
Altitude (m)
%86.42\r
\r
Humidity (%)
&64.59\r
$GPRMC,011418.00,A,4919.26224,N,12419.01973,W,2.561,351.75,2801\r
Methane (PPM)
+446.58\r
Temperature (*c)
@7.49\r
Pressure (hPa)
#1002.92\r
Altitude (m)
%86.25\r
\r
Humidity (%)
&64.55\r
$GPRMC,011420.00,A,4919.26333,N,12419.02038,W,2.199,340.88,2801\r
Methane (PPM)
+446.58\r
Temperature (*c)
@7.47\r
Pressure (hPa)
#1002.96\r
Altitude (m)
%86.15\r
\r
Humidity (%)
&64.56\r
$GPRMC,011422.00,A,4919.26460,N,12419.02136,W,2.421,330.38,2801\r
Methane (PPM)
+446.58\r
Temperature (*c)
@7.47\r
Pressure (hPa)
#1002.96\r
Altitude (m)
%85.76\r
\r
Humidity (%)
&64.62\r
$GPRMC,011424.00,A,4919.26607,N,12419.02143,W,2.451,341.28,2801\r
Methane (PPM)
+444.14\r
Temperature (*c)
@7.43\r
Pressure (hPa)
#1002.99\r
Altitude (m)
%85.78\r
\r
Humidity (%)
&64.60\r
$GPRMC,011426.00,A,4919.26788,N,12419.02168,W,3.102,350.35,2801\r
Methane (PPM)
+439.26\r
Temperature (*c)
@7.44\r
Pressure (hPa)
#1003.04\r
Altitude (m)
%85.30\r
\r
Humidity (%)
&64.65\r
$GPRMC,011428.00,A,4919.26978,N,12419.02118,W,3.113,359.38,2801\r
Methane (PPM)
+436.82\r
Temperature (*c)
@7.44\r
Pressure (hPa)
#1003.03\r
Altitude (m)
%85.39\r
\r
Humidity (%)
&64.72\r
$GPRMC,011430.00,A,4919.27112,N,12419.02072,W,2.418,4.73,280121\r
Methane (PPM)
+439.26\r
Temperature (*c)
@7.43\r
Pressure (hPa)
#1003.05\r
Altitude (m)
%85.16\r
\r
Humidity (%)
&64.82\r
$GPRMC,011432.00,A,4919.27237,N,12419.02022,W,2.158,5.46,2801210,A,4919.27320,N,12419.01892,W,2.238,,280121,,,A*6E\r
$GPVTG,,T,,M,2.238,N,4.144,K,A*2D\r
$GPGGA,011434.00,4919.27320,N,12419.01892,W,1,08,1.27,9.0,M,-17.7,M,,*68\r
$GPGSA,A,3,17,19,28,14,15,13,24,06,,,,,2.33,1.27,1.95*0E\r
$GPGSV,3,1,12,01,20,042,28,06,18,154,28,12,12,273,17,13,22,211,20*70\r
$GPGSV,3,2,12,14,37,085,25,15,24,252,19,17,74,086,29,19,70,183,27*7F\r
$GPGSV,3,3,12,24,45,299,17,28,46,079,27,30,,,17,46,28,147,35*43\r
$GPGLL,4919.27320,N,12419.01892,W,011434.00,A,A*74\r
4.80\r
\r
Humidity (%)
&64.97\r
$GPRMC,011435.00,A,4919.27394,N,12419.01853,W,2.556,14.45,28012\r
Methane (PPM)
+444.14\r
Temperature (*c)
@7.41\r
Pressure (hPa)
#1003.11\r
Altitude (m)
%84.58\r
\r
Humidity (%)
&64.79\r
$GPRMC,011437.00,A,4919.27524,N,12419.01804,W,2.656,8.61,280121\r
Methane (PPM)
+446.58\r
Temperature (*c)
@7.39\r
Pressure (hPa)
#1003.12\r
Altitude (m)
%84.76\r
\r
Humidity (%)
&65.05\r
$GPRMC,011439.00,A,4919.27675,N,12419.01827,W,2.743,357.32,2801\r
Methane (PPM)
+449.02\r
Temperature (*c)
@7.39\r
Pressure (hPa)
#1003.12\r
Altitude (m)
%84.49\r
\r
Humidity (%)
&64.99\r
$GPRMC,011441.00,A,4919.27802,N,12419.01748,W,2.988,1.91,280121\r
Methane (PPM)
+449.02\r
Temperature (*c)
@7.39\r
Pressure (hPa)
#1003.16\r
Altitude (m)
%84.13\r
\r
Humidity (%)
&65.21\r
$GPRMC,011443.00,A,4919.27955,N,12419.01724,W,2.499,4.30,280121\r
Methane (PPM)
+451.46\r
Temperature (*c)
@7.40\r
Pressure (hPa)
#1003.17\r
Altitude (m)
%84.12\r
\r
Humidity (%)
&65.48\r
$GPRMC,011445.00,A,4919.28101,N,12419.01745,W,2.532,355.52,2801\r
Methane (PPM)
+451.46\r
Temperature (*c)
@7.41\r
Pressure (hPa)
#1003.18\r
Altitude (m)
%83.99\r
\r
Humidity (%)
&65.42\r
$GPRMC,011447.00,A,4919.28334,N,12419.01757,W,3.354,0.96,280121\r
Methane (PPM)
+451.46\r
Temperature (*c)
@7.40\r
Pressure (hPa)
#1003.24\r
Altitude (m)
%83.55\r
\r
Humidity (%)
&65.40\r
$GPRMC,011449.00,A,4919.28489,N,12419.01808,W,3.283,351.22,2801\r
Methane (PPM)
+449.02\r
Temperature (*c)
@7.38\r
Pressure (hPa)
#1003.28\r
Altitude (m)
%83.52\r
\r
Humidity (%)
&65.16\r
$GPRMC,011451.00,A,4919.28646,N,12419.01849,W,2.769,351.47,2801MC,011453.00,A,4919.28827,N,12419.01862,W,3.087,353.03,280121,,,A*7C\r
$GPVTG,353.03,T,,M,3.087,N,5.718,K,A*3C\r
$GPGGA,011453.00,4919.28827,N,12419.01862,W,1,07,1.38,6.8,M,-17.7,M,,*63\r
$GPGSA,A,3,17,19,28,14,15,24,06,,,,,,2.39,1.38,1.96*0B\r
$GPGSV,3,1,11,01,20,041,27,06,18,154,33,12,13,273,15,13,22,211,12*77\r
$GPGSV,3,2,11,14,37,085,30,15,23,252,15,17,74,086,28,19,70,183,29*7C\r
$GPGSV,3,3,11,24,45,299,26,28,46,079,27,30,,,28*72\r
$GPGLL,4919.28827,N,12419.01862,W,011453.00,A,A*79\r
3.34\r
\r
Humidity (%)
&65.27\r
$GPRMC,011454.00,A,4919.28915,N,12419.01862,W,2.918,353.21,2801\r
Methane (PPM)
+449.02\r
Temperature (*c)
@7.37\r
Pressure (hPa)
#1003.29\r
Altitude (m)
%83.41\r
\r
Humidity (%)
&65.40\r
$GPRMC,011456.00,A,4919.29060,N,12419.01875,W,2.850,354.98,2801\r
Methane (PPM)
+446.58\r
Temperature (*c)
@7.35\r
Pressure (hPa)
#1003.30\r
Altitude (m)
%83.54\r
\r
Humidity (%)
&65.76\r
$GPRMC,011458.00,A,4919.29267,N,12419.01845,W,3.280,6.30,280121\r
Methane (PPM)
+444.14\r
Temperature (*c)
@7.34\r
Pressure (hPa)
#1003.27\r
Altitude (m)
%83.54\r
\r
Humidity (%)
&65.59\r
$GPRMC,011500.00,A,4919.29372,N,12419.01937,W,1.878,,280121,,,A\r
Methane (PPM)
+444.14\r
Temperature (*c)
@7.34\r
Pressure (hPa)
#1003.28\r
Altitude (m)
%83.30\r
\r
Humidity (%)
&65.60\r
$GPRMC,011502.00,A,4919.29466,N,12419.01981,W,2.359,355.09,2801\r
Methane (PPM)
+444.14\r
Temperature (*c)
@7.32\r
Pressure (hPa)
#1003.27\r
Altitude (m)
%83.23\r
\r
Humidity (%)
&65.55\r
$GPRMC,011504.00,A,4919.29618,N,12419.01947,W,2.613,3.99,280121\r
Methane (PPM)
+444.14\r
Temperature (*c)
@7.28\r
Pressure (hPa)
#1003.33\r
Altitude (m)
%83.11\r
\r
Humidity (%)
&65.42\r
$GPRMC,011506.00,A,4919.29751,N,12419.01936,W,2.775,359.16,2801\r
Methane (PPM)
+444.14\r
Temperature (*c)
@7.27\r
Pressure (hPa)
#1003.34\r
Altitude (m)
%82.86\r
\r
Humidity (%)
&65.40\r
$GPRMC,011508.00,A,4919.29848,N,12419.01981,W,1.539,,280121,,,A\r
Methane (PPM)
+444.14\r
Temperature (*c)
@7.25\r
Pressure (hPa)
#1003.30\r
Altitude (m)
%82.90\r
\r
Humidity (%)
&65.48\r
$GPRMC,011510.00,A,4919.29991,N,12419.02043,W,2.645,353.44,2801GPRMC,011512.00,A,4919.30115,N,12419.02078,W,2.789,351.35,280121,,,A*76\r
$GPVTG,351.35,T,,M,2.789,N,5.166,K,A*3C\r
$GPGGA,011512.00,4919.30115,N,12419.02078,W,1,07,1.37,4.7,M,-17.7,M,,*64\r
$GPGSA,A,3,17,19,28,14,13,24,06,,,,,,2.51,1.37,2.10*01\r
$GPGSV,3,1,11,01,20,041,16,06,18,154,31,12,13,273,21,13,22,211,27*76\r
$GPGSV,3,2,11,14,37,085,29,15,23,252,18,17,74,085,30,19,70,183,30*7B\r
$GPGSV,3,3,11,24,45,299,26,28,46,079,29,30,,,26*72\r
$GPGLL,4919.30115,N,12419.02078,W,011512.00,A,A*7C\r
3.01\r
\r
Humidity (%)
&65.62\r
$GPRMC,011513.00,A,4919.30216,N,12419.02095,W,2.779,351.16,2801\r
Methane (PPM)
+446.58\r
Temperature (*c)
@7.13\r
Pressure (hPa)
#1003.33\r
Altitude (m)
%83.02\r
\r
Humidity (%)
&65.70\r
$GPRMC,011515.00,A,4919.30329,N,12419.01997,W,1.761,6.74,280121\r
Methane (PPM)
+446.58\r
Temperature (*c)
@7.13\r
Pressure (hPa)
#1003.34\r
Altitude (m)
%82.84\r
\r
Humidity (%)
&65.81\r
$GPRMC,011517.00,A,4919.30454,N,12419.01918,W,2.415,3.72,280121\r
Methane (PPM)
+449.02\r
Temperature (*c)
@7.13\r
Pressure (hPa)
#1003.35\r
Altitude (m)
%82.78\r
\r
Humidity (%)
&65.78\r
$GPRMC,011519.00,A,4919.30624,N,12419.01913,W,3.001,347.79,2801\r
Methane (PPM)
+451.46\r
Temperature (*c)
@7.08\r
Pressure (hPa)
#1003.33\r
Altitude (m)
%82.96\r
\r
Humidity (%)
&65.75\r
$GPRMC,011521.00,A,4919.30749,N,12419.01979,W,2.805,333.29,2801\r
Methane (PPM)
+449.02\r
Temperature (*c)
@7.04\r
Pressure (hPa)
#1003.34\r
Altitude (m)
%83.02\r
\r
Humidity (%)
&65.94\r
$GPRMC,011523.00,A,4919.30853,N,12419.02035,W,2.319,321.23,2801\r
Methane (PPM)
+439.26\r
Temperature (*c)
@6.88\r
Pressure (hPa)
#1003.33\r
Altitude (m)
%82.58\r
\r
Humidity (%)
&66.25\r
$GPRMC,011525.00,A,4919.30916,N,12419.02011,W,0.294,,280121,,,A\r
Methane (PPM)
+431.93\r
Temperature (*c)
@6.76\r
Pressure (hPa)
#1003.33\r
Altitude (m)
%82.64\r
\r
Humidity (%)
&66.59\r
$GPRMC,011527.00,A,4919.30902,N,12419.01919,W,0.050,,280121,,,A\r
Methane (PPM)
+429.49\r
Temperature (*c)
@6.63\r
Pressure (hPa)
#1003.31\r
Altitude (m)
%82.70\r
\r
Humidity (%)
&66.94\r
$GPRMC,011529.00,A,4919.30870,N,12419.01793,W,0.041,,280121,,,AGPRMC,011531.00,A,4919.30852,N,12419.01692,W,0.058,,280121,,,A*6A\r
$GPVTG,,T,,M,0.058,N,0.108,K,A*27\r
$GPGGA,011531.00,4919.30852,N,12419.01692,W,1,08,1.38,10.7,M,-17.7,M,,*5B\r
$GPGSA,A,3,17,19,28,14,15,13,24,06,,,,,2.40,1.38,1.96*07\r
$GPGSV,3,1,11,01,20,041,,06,18,154,34,12,13,273,24,13,21,211,20*75\r
$GPGSV,3,2,11,14,37,085,33,15,23,252,22,17,74,084,28,19,71,183,25*74\r
$GPGSV,3,3,11,24,45,299,33,28,46,079,30,30,,,34*7D\r
$GPGLL,4919.30852,N,12419.01692,W,011531.00,A,A*76\r
2.55\r
\r
Humidity (%)
&67.36\r
$GPRMC,011532.00,A,4919.30875,N,12419.01643,W,0.049,,280121,,,A\r
Methane (PPM)
+444.14\r
Temperature (*c)
@6.41\r
Pressure (hPa)
#1003.38\r
Altitude (m)
%82.37\r
\r
Humidity (%)
&67.60\r
$GPRMC,011534.00,A,4919.30873,N,12419.01560,W,0.087,,280121,,,A\r
Methane (PPM)
+449.02\r
Temperature (*c)
@6.34\r
Pressure (hPa)
#1003.36\r
Altitude (m)
%82.67\r
\r
Humidity (%)
&67.92\r
$GPRMC,011536.00,A,4919.30872,N,12419.01501,W,0.132,,280121,,,A\r
Methane (PPM)
+451.46\r
Temperature (*c)
@6.20\r
Pressure (hPa)
#1003.40\r
Altitude (m)
%82.59\r
\r
Humidity (%)
&68.28\r
$GPRMC,011538.00,A,4919.30884,N,12419.01474,W,0.167,,280121,,,A\r
Methane (PPM)
+456.35\r
Temperature (*c)
@6.13\r
Pressure (hPa)
#1003.35\r
Altitude (m)
%82.12\r
\r
Humidity (%)
&68.59\r
$GPRMC,011540.00,A,4919.30900,N,12419.01465,W,0.017,,280121,,,A\r
Methane (PPM)
+456.35\r
Temperature (*c)
@6.04\r
Pressure (hPa)
#1003.39\r
Altitude (m)
%82.22\r
\r
Humidity (%)
&68.87\r
$GPRMC,011542.00,A,4919.30902,N,12419.01442,W,0.373,,280121,,,A\r
Methane (PPM)
+458.79\r
Temperature (*c)
@5.98\r
Pressure (hPa)
#1003.38\r
Altitude (m)
%82.16\r
\r
Humidity (%)
&69.13\r
$GPRMC,011544.00,A,4919.30918,N,12419.01435,W,0.047,,280121,,,A\r
Methane (PPM)
+451.46\r
Temperature (*c)
@5.90\r
Pressure (hPa)
#1003.39\r
Altitude (m)
%82.46\r
\r
Humidity (%)
&69.43\r
$GPRMC,011546.00,A,4919.30928,N,12419.01431,W,0.111,,280121,,,A\r
Methane (PPM)
+446.58\r
Temperature (*c)
@5.84\r
Pressure (hPa)
#1003.37\r
Altitude (m)
%82.43\r
\r
Humidity (%)
&69.71\r
$GPRMC,011548.00,A,4919.30934,N,12419.01448,W,0.139,,280121,,,A$GPRMC,011550.00,A,4919.30931,N,12419.01451,W,0.136,,280121,,,A*6D\r
$GPVTG,,T,,M,0.136,N,0.252,K,A*22\r
$GPGGA,011550.00,4919.30931,N,12419.01451,W,1,08,1.28,12.4,M,-17.7,M,,*55\r
$GPGSA,A,3,17,19,28,14,15,13,24,06,,,,,2.34,1.28,1.96*05\r
$GPGSV,3,1,12,01,20,041,08,06,18,154,35,12,13,273,22,13,21,211,22*7B\r
$GPGSV,3,2,12,14,37,085,27,15,23,252,11,17,74,084,28,19,71,183,24*73\r
$GPGSV,3,3,12,22,00,054,,24,45,299,29,28,46,079,32,30,,,29*4A\r
$GPGLL,4919.30931,N,12419.01451,W,011550.00,A,A*78\r
2.58\r
\r
Humidity (%)
&69.99\r
$GPRMC,011551.00,A,4919.30935,N,12419.01450,W,0.101,,280121,,,A\r
Methane (PPM)
+446.58\r
Temperature (*c)
@5.77\r
Pressure (hPa)
#1003.35\r
Altitude (m)
%82.64\r
\r
Humidity (%)
&69.94\r
$GPRMC,011553.00,A,4919.30944,N,12419.01440,W,0.266,,280121,,,A\r
Methane (PPM)
+451.46\r
Temperature (*c)
@5.77\r
Pressure (hPa)
#1003.37\r
Altitude (m)
%82.70\r
\r
Humidity (%)
&70.16\r
$GPRMC,011555.00,A,4919.30963,N,12419.01447,W,0.210,,280121,,,A\r
Methane (PPM)
+456.35\r
Temperature (*c)
@5.79\r
Pressure (hPa)
#1003.34\r
Altitude (m)
%82.63\r
\r
Humidity (%)
&70.37\r
$GPRMC,011557.00,A,4919.30949,N,12419.01473,W,0.124,,280121,,,A\r
Methane (PPM)
+466.11\r
Temperature (*c)
@5.78\r
Pressure (hPa)
#1003.38\r
Altitude (m)
%82.61\r
\r
Humidity (%)
&70.63\r
$GPRMC,011559.00,A,4919.30919,N,12419.01513,W,0.508,,280121,,,A\r
Methane (PPM)
+473.44\r
Temperature (*c)
@5.79\r
Pressure (hPa)
#1003.36\r
Altitude (m)
%82.53\r
\r
Humidity (%)
&70.60\r
$GPRMC,011601.00,A,4919.30934,N,12419.01537,W,0.235,,280121,,,A\r
Methane (PPM)
+473.44\r
Temperature (*c)
@5.79\r
Pressure (hPa)
#1003.38\r
Altitude (m)
%82.94\r
\r
Humidity (%)
&70.78\r
$GPRMC,011603.00,A,4919.30911,N,12419.01595,W,0.621,,280121,,,A\r
Methane (PPM)
+463.67\r
Temperature (*c)
@5.70\r
Pressure (hPa)
#1003.33\r
Altitude (m)
%82.60\r
\r
Humidity (%)
&70.83\r
$GPRMC,011605.00,A,4919.30916,N,12419.01596,W,0.266,,280121,,,A\r
Methane (PPM)
+458.79\r
Temperature (*c)
@5.70\r
Pressure (hPa)
#1003.34\r
Altitude (m)
%83.01\r
\r
Humidity (%)
&70.90\r
$GPRMC,011607.00,A,4919.30990,N,12419.01627,W,0.185,,280121,,,A$GPRMC,011609.00,A,4919.31112,N,12419.01605,W,1.185,,280121,,,A*60\r
$GPVTG,,T,,M,1.185,N,2.195,K,A*21\r
$GPGGA,011609.00,4919.31112,N,12419.01605,W,1,08,1.28,12.1,M,-17.7,M,,*54\r
$GPGSA,A,3,17,19,28,14,15,13,24,06,,,,,2.34,1.28,1.96*05\r
$GPGSV,3,1,12,01,20,041,14,06,18,154,21,12,13,274,16,13,21,211,17*75\r
$GPGSV,3,2,12,14,36,085,22,15,23,251,24,17,74,084,25,19,71,182,25*7F\r
$GPGSV,3,3,12,22,00,054,,24,45,298,28,28,46,080,18,30,,,17*49\r
$GPGLL,4919.31112,N,12419.01605,W,011609.00,A,A*7C\r
3.04\r
\r
Humidity (%)
&70.82\r
$GPRMC,011610.00,A,4919.31153,N,12419.01554,W,1.967,,280121,,,A\r
Methane (PPM)
+461.23\r
Temperature (*c)
@5.73\r
Pressure (hPa)
#1003.31\r
Altitude (m)
%83.03\r
\r
Humidity (%)
&70.60\r
$GPRMC,011612.00,A,4919.31146,N,12419.01582,W,0.267,,280121,,,A\r
Methane (PPM)
+463.67\r
Temperature (*c)
@5.73\r
Pressure (hPa)
#1003.34\r
Altitude (m)
%83.01\r
\r
Humidity (%)
&70.51\r
$GPRMC,011614.00,A,4919.31250,N,12419.01587,W,0.445,,280121,,,A\r
Methane (PPM)
+466.11\r
Temperature (*c)
@5.72\r
Pressure (hPa)
#1003.34\r
Altitude (m)
%82.76\r
\r
Humidity (%)
&70.55\r
$GPRMC,011616.00,A,4919.31314,N,12419.01595,W,1.337,270.83,2801\r
Methane (PPM)
+471.00\r
Temperature (*c)
@5.72\r
Pressure (hPa)
#1003.30\r
Altitude (m)
%82.91\r
\r
Humidity (%)
&70.64\r
$GPRMC,011618.00,A,4919.31406,N,12419.01582,W,0.238,,280121,,,A\r
Methane (PPM)
+480.76\r
Temperature (*c)
@5.73\r
Pressure (hPa)
#1003.32\r
Altitude (m)
%83.06\r
\r
Humidity (%)
&70.83\r
$GPRMC,011620.00,A,4919.31531,N,12419.01555,W,0.293,,280121,,,A\r
Methane (PPM)
+492.97\r
Temperature (*c)
@5.73\r
Pressure (hPa)
#1003.36\r
Altitude (m)
%82.52\r
\r
Humidity (%)
&71.04\r
$GPRMC,011622.00,A,4919.31595,N,12419.01583,W,0.549,,280121,,,A\r
Methane (PPM)
+497.85\r
Temperature (*c)
@5.73\r
Pressure (hPa)
#1003.34\r
Altitude (m)
%82.59\r
\r
Humidity (%)
&71.29\r
$GPRMC,011624.00,A,4919.31671,N,12419.01554,W,0.902,,280121,,,A\r
Methane (PPM)
+495.41\r
Temperature (*c)
@5.70\r
Pressure (hPa)
#1003.38\r
Altitude (m)
%82.67\r
\r
Humidity (%)
&71.34\r
$GPRMC,011626.00,A,4919.31795,N,12419.01495,W,1.311,,280121,,,A$GPRMC,011628.00,A,4919.31939,N,12419.01445,W,2.363,355.63,280121,,,A*75\r
$GPVTG,355.63,T,,M,2.363,N,4.377,K,A*38\r
$GPGGA,011628.00,4919.31939,N,12419.01445,W,1,08,1.28,14.7,M,-17.7,M,,*50\r
$GPGSA,A,3,17,19,28,14,15,13,24,06,,,,,2.34,1.28,1.96*05\r
$GPGSV,3,1,12,01,20,041,16,06,18,154,30,12,13,274,18,13,21,211,22*7F\r
$GPGSV,3,2,12,14,36,085,35,15,23,251,19,17,74,084,30,19,71,182,17*72\r
$GPGSV,3,3,12,22,00,054,,24,45,298,30,28,46,080,36,30,,,27*4F\r
$GPGLL,4919.31939,N,12419.01445,W,011628.00,A,A*78\r
2.86\r
\r
Humidity (%)
&71.50\r
$GPRMC,011629.00,A,4919.32043,N,12419.01427,W,3.963,356.03,2801\r
Methane (PPM)
+478.32\r
Temperature (*c)
@5.69\r
Pressure (hPa)
#1003.36\r
Altitude (m)
%82.97\r
\r
Humidity (%)
&71.53\r
$GPRMC,011631.00,A,4919.32260,N,12419.01430,W,2.920,2.71,280121\r
Methane (PPM)
+478.32\r
Temperature (*c)
@5.71\r
Pressure (hPa)
#1003.35\r
Altitude (m)
%83.00\r
\r
Humidity (%)
&71.52\r
$GPRMC,011633.00,A,4919.32407,N,12419.01445,W,1.073,,280121,,,A\r
Methane (PPM)
+480.76\r
Temperature (*c)
@5.71\r
Pressure (hPa)
#1003.35\r
Altitude (m)
%82.76\r
\r
Humidity (%)
&71.46\r
$GPRMC,011635.00,A,4919.32469,N,12419.01419,W,0.620,,280121,,,A\r
Methane (PPM)
+483.20\r
Temperature (*c)
@5.69\r
Pressure (hPa)
#1003.37\r
Altitude (m)
%82.34\r
\r
Humidity (%)
&71.41\r
$GPRMC,011637.00,A,4919.32583,N,12419.01355,W,1.640,,280121,,,A\r
Methane (PPM)
+483.20\r
Temperature (*c)
@5.70\r
Pressure (hPa)
#1003.41\r
Altitude (m)
%82.24\r
\r
Humidity (%)
&71.44\r
$GPRMC,011639.00,A,4919.32666,N,12419.01304,W,1.599,,280121,,,A\r
Methane (PPM)
+485.64\r
Temperature (*c)
@5.70\r
Pressure (hPa)
#1003.43\r
Altitude (m)
%82.26\r
\r
Humidity (%)
&71.48\r
$GPRMC,011641.00,A,4919.32774,N,12419.01231,W,1.081,,280121,,,A\r
Methane (PPM)
+488.09\r
Temperature (*c)
@5.68\r
Pressure (hPa)
#1003.45\r
Altitude (m)
%81.93\r
\r
Humidity (%)
&71.63\r
$GPRMC,011643.00,A,4919.32835,N,12419.01149,W,2.093,13.19,28012\r
Methane (PPM)
+488.09\r
Temperature (*c)
@5.70\r
Pressure (hPa)
#1003.48\r
Altitude (m)
%81.38\r
\r
Humidity (%)
&71.84\r
$GPRMC,011645.00,A,4919.32958,N,12419.01117,W,2.504,,280121,,,A,A,4919.33135,N,12419.01084,W,3.692,9.60,280121,,,A*70\r
$GPVTG,9.60,T,,M,3.692,N,6.838,K,A*39\r
$GPGGA,011647.00,4919.33135,N,12419.01084,W,1,08,1.28,14.9,M,-17.7,M,,*58\r
$GPGSA,A,3,17,19,28,14,15,13,24,06,,,,,2.34,1.28,1.96*05\r
$GPGSV,3,1,12,01,20,041,31,06,19,154,19,12,13,274,30,13,21,211,21*79\r
$GPGSV,3,2,12,14,36,085,10,15,23,251,24,17,73,083,26,19,71,182,20*78\r
$GPGSV,3,3,12,22,00,054,,24,46,298,23,28,45,080,22,30,,,24*4B\r
$GPGLL,4919.33135,N,12419.01084,W,011647.00,A,A*7E\r
0.79\r
\r
Humidity (%)
&72.03\r
$GPRMC,011648.00,A,4919.33180,N,12419.00990,W,2.668,27.31,28012\r
Methane (PPM)
+485.64\r
Temperature (*c)
@5.72\r
Pressure (hPa)
#1003.63\r
Altitude (m)
%80.41\r
\r
Humidity (%)
&71.98\r
$GPRMC,011650.00,A,4919.33291,N,12419.00892,W,2.329,,280121,,,A\r
Methane (PPM)
+483.20\r
Temperature (*c)
@5.72\r
Pressure (hPa)
#1003.66\r
Altitude (m)
%80.13\r
\r
Humidity (%)
&72.07\r
$GPRMC,011652.00,A,4919.33408,N,12419.00889,W,2.834,,280121,,,A\r
Methane (PPM)
+485.64\r
Temperature (*c)
@5.73\r
Pressure (hPa)
#1003.70\r
Altitude (m)
%79.67\r
\r
Humidity (%)
&72.05\r
$GPRMC,011654.00,A,4919.33567,N,12419.00844,W,3.047,17.57,28012\r
Methane (PPM)
+483.20\r
Temperature (*c)
@5.73\r
Pressure (hPa)
#1003.74\r
Altitude (m)
%79.33\r
\r
Humidity (%)
&72.01\r
$GPRMC,011656.00,A,4919.33704,N,12419.00798,W,2.371,1.86,280121\r
Methane (PPM)
+483.20\r
Temperature (*c)
@5.72\r
Pressure (hPa)
#1003.77\r
Altitude (m)
%79.07\r
\r
Humidity (%)
&71.91\r
$GPRMC,011658.00,A,4919.33774,N,12419.00987,W,3.131,342.02,2801\r
Methane (PPM)
+483.20\r
Temperature (*c)
@5.70\r
Pressure (hPa)
#1003.83\r
Altitude (m)
%78.55\r
\r
Humidity (%)
&71.96\r
$GPRMC,011700.00,A,4919.33854,N,12419.00985,W,1.706,,280121,,,A\r
Methane (PPM)
+480.76\r
Temperature (*c)
@5.66\r
Pressure (hPa)
#1003.86\r
Altitude (m)
%78.70\r
\r
Humidity (%)
&72.17\r
$GPRMC,011702.00,A,4919.33912,N,12419.01024,W,1.575,347.32,2801\r
Methane (PPM)
+471.00\r
Temperature (*c)
@5.55\r
Pressure (hPa)
#1003.85\r
Altitude (m)
%78.61\r
\r
Humidity (%)
&72.32\r
$GPRMC,011704.00,A,4919.34059,N,12419.01064,W,2.673,357.85,2801011706.00,A,4919.34156,N,12419.01058,W,1.846,355.62,280121,,,A*7A\r
$GPVTG,355.62,T,,M,1.846,N,3.418,K,A*3F\r
$GPGGA,011706.00,4919.34156,N,12419.01058,W,1,08,1.29,14.7,M,-17.7,M,,*50\r
$GPGSA,A,3,17,19,28,14,15,13,24,06,,,,,2.34,1.29,1.96*04\r
$GPGSV,3,1,12,01,19,041,12,06,19,154,23,12,13,274,20,13,21,211,17*7F\r
$GPGSV,3,2,12,14,36,085,33,15,23,251,19,17,73,083,33,19,71,182,31*73\r
$GPGSV,3,3,12,22,00,054,,24,46,298,25,28,45,080,33,30,,,13*49\r
$GPGLL,4919.34156,N,12419.01058,W,011706.00,A,A*79\r
8.20\r
\r
Humidity (%)
&72.55\r
$GPRMC,011707.00,A,4919.34223,N,12419.01013,W,2.211,3.44,280121\r
Methane (PPM)
+461.23\r
Temperature (*c)
@5.50\r
Pressure (hPa)
#1003.90\r
Altitude (m)
%78.14\r
\r
Humidity (%)
&72.71\r
$GPRMC,011709.00,A,4919.34263,N,12419.00906,W,2.302,,280121,,,A\r
Methane (PPM)
+456.35\r
Temperature (*c)
@5.40\r
Pressure (hPa)
#1003.90\r
Altitude (m)
%78.18\r
\r
Humidity (%)
&72.82\r
$GPRMC,011711.00,A,4919.34370,N,12419.00856,W,3.025,2.21,280121\r
Methane (PPM)
+449.02\r
Temperature (*c)
@5.33\r
Pressure (hPa)
#1003.92\r
Altitude (m)
%77.93\r
\r
Humidity (%)
&73.00\r
$GPRMC,011713.00,A,4919.34523,N,12419.00832,W,2.470,5.02,280121\r
Methane (PPM)
+446.58\r
Temperature (*c)
@5.31\r
Pressure (hPa)
#1003.91\r
Altitude (m)
%77.88\r
\r
Humidity (%)
&73.17\r
$GPRMC,011715.00,A,4919.34681,N,12419.00814,W,1.930,,280121,,,A\r
Methane (PPM)
+449.02\r
Temperature (*c)
@5.28\r
Pressure (hPa)
#1003.92\r
Altitude (m)
%77.76\r
\r
Humidity (%)
&73.24\r
$GPRMC,011717.00,A,4919.34816,N,12419.00843,W,1.920,,280121,,,A\r
Methane (PPM)
+449.02\r
Temperature (*c)
@5.22\r
Pressure (hPa)
#1003.91\r
Altitude (m)
%77.85\r
\r
Humidity (%)
&73.28\r
$GPRMC,011719.00,A,4919.34913,N,12419.00849,W,0.511,,280121,,,A\r
Methane (PPM)
+449.02\r
Temperature (*c)
@5.21\r
Pressure (hPa)
#1003.95\r
Altitude (m)
%77.57\r
\r
Humidity (%)
&73.33\r
$GPRMC,011721.00,A,4919.35179,N,12419.00915,W,2.891,359.74,2801\r
Methane (PPM)
+453.91\r
Temperature (*c)
@5.17\r
Pressure (hPa)
#1004.01\r
Altitude (m)
%77.83\r
\r
Humidity (%)
&73.46\r
$GPRMC,011723.00,A,4919.35372,N,12419.00947,W,2.621,358.82,2801,4919.35571,N,12419.00928,W,2.817,1.85,280121,,,A*78\r
$GPVTG,1.85,T,,M,2.817,N,5.217,K,A*3C\r
$GPGGA,011725.00,4919.35571,N,12419.00928,W,1,07,1.46,9.4,M,-17.7,M,,*67\r
$GPGSA,A,3,17,19,28,14,15,13,24,,,,,,2.50,1.46,2.03*06\r
$GPGSV,3,1,11,01,19,041,22,06,19,154,,12,13,274,18,13,21,211,21*70\r
$GPGSV,3,2,11,14,36,085,32,15,23,251,23,17,73,082,31,19,71,182,20*7B\r
$GPGSV,3,3,11,22,00,054,,24,46,298,24,28,45,080,35*4C\r
$GPGLL,4919.35571,N,12419.00928,W,011725.00,A,A*77\r
7.83\r
\r
Humidity (%)
&73.62\r
$GPRMC,011726.00,A,4919.35586,N,12419.00908,W,1.101,,280121,,,A\r
Methane (PPM)
+458.79\r
Temperature (*c)
@5.09\r
Pressure (hPa)
#1003.97\r
Altitude (m)
%77.64\r
\r
Humidity (%)
&73.75\r
$GPRMC,011728.00,A,4919.35648,N,12419.00906,W,0.709,,280121,,,A\r
Methane (PPM)
+461.23\r
Temperature (*c)
@5.06\r
Pressure (hPa)
#1003.94\r
Altitude (m)
%77.53\r
\r
Humidity (%)
&73.95\r
$GPRMC,011730.00,A,4919.35770,N,12419.00897,W,1.895,9.01,280121\r
Methane (PPM)
+463.67\r
Temperature (*c)
@4.99\r
Pressure (hPa)
#1003.96\r
Altitude (m)
%77.67\r
\r
Humidity (%)
&74.20\r
$GPRMC,011732.00,A,4919.35943,N,12419.00881,W,3.762,3.22,280121\r
Methane (PPM)
+461.23\r
Temperature (*c)
@4.92\r
Pressure (hPa)
#1003.96\r
Altitude (m)
%77.25\r
\r
Humidity (%)
&74.42\r
$GPRMC,011734.00,A,4919.36070,N,12419.00844,W,1.771,,280121,,,A\r
Methane (PPM)
+466.11\r
Temperature (*c)
@4.94\r
Pressure (hPa)
#1003.96\r
Altitude (m)
%77.81\r
\r
Humidity (%)
&74.68\r
$GPRMC,011736.00,A,4919.35988,N,12419.00783,W,0.994,,280121,,,A\r
Methane (PPM)
+473.44\r
Temperature (*c)
@4.95\r
Pressure (hPa)
#1003.94\r
Altitude (m)
%77.89\r
\r
Humidity (%)
&74.85\r
$GPRMC,011738.00,A,4919.35948,N,12419.00809,W,0.108,,280121,,,A\r
Methane (PPM)
+475.88\r
Temperature (*c)
@4.95\r
Pressure (hPa)
#1003.96\r
Altitude (m)
%77.71\r
\r
Humidity (%)
&74.91\r
$GPRMC,011740.00,A,4919.35917,N,12419.00937,W,0.363,,280121,,,A\r
Methane (PPM)
+478.32\r
Temperature (*c)
@4.94\r
Pressure (hPa)
#1003.90\r
Altitude (m)
%77.81\r
\r
Humidity (%)
&74.84\r
$GPRMC,011742.00,A,4919.35969,N,12419.00969,W,0.448,,280121,,,APRMC,011744.00,A,4919.35941,N,12419.00940,W,0.647,,280121,,,A*65\r
$GPVTG,,T,,M,0.647,N,1.198,K,A*27\r
$GPGGA,011744.00,4919.35941,N,12419.00940,W,1,07,1.46,9.8,M,-17.7,M,,*6D\r
$GPGSA,A,3,17,19,28,14,15,13,24,,,,,,2.50,1.46,2.03*06\r
$GPGSV,3,1,11,01,19,040,20,06,19,154,,12,14,274,22,13,20,211,27*7A\r
$GPGSV,3,2,11,14,36,086,15,15,23,251,18,17,73,082,21,19,71,182,23*77\r
$GPGSV,3,3,11,22,00,054,,24,46,298,30,28,45,080,19*47\r
$GPGLL,4919.35941,N,12419.00940,W,011744.00,A,A*71\r
8.08\r
\r
Humidity (%)
&74.71\r
$GPRMC,011745.00,A,4919.36008,N,12419.00972,W,1.569,,280121,,,A\r
Methane (PPM)
+483.20\r
Temperature (*c)
@4.93\r
Pressure (hPa)
#1003.94\r
Altitude (m)
%77.61\r
\r
Humidity (%)
&74.75\r
$GPRMC,011747.00,A,4919.36019,N,12419.00973,W,1.451,,280121,,,A\r
Methane (PPM)
+480.76\r
Temperature (*c)
@4.94\r
Pressure (hPa)
#1003.96\r
Altitude (m)
%77.75\r
\r
Humidity (%)
&74.81\r
$GPRMC,011749.00,A,4919.36122,N,12419.00773,W,0.657,,280121,,,A\r
Methane (PPM)
+480.76\r
Temperature (*c)
@4.89\r
Pressure (hPa)
#1003.97\r
Altitude (m)
%77.48\r
\r
Humidity (%)
&74.95\r
$GPRMC,011751.00,A,4919.36221,N,12419.00706,W,2.178,,280121,,,A\r
Methane (PPM)
+471.00\r
Temperature (*c)
@4.84\r
Pressure (hPa)
#1003.94\r
Altitude (m)
%77.71\r
\r
Humidity (%)
&75.05\r
$GPRMC,011753.00,A,4919.36341,N,12419.00575,W,2.860,8.60,280121\r
Methane (PPM)
+468.55\r
Temperature (*c)
@4.83\r
Pressure (hPa)
#1003.94\r
Altitude (m)
%78.10\r
\r
Humidity (%)
&75.26\r
$GPRMC,011755.00,A,4919.36457,N,12419.00505,W,2.109,,280121,,,A\r
Methane (PPM)
+449.02\r
Temperature (*c)
@4.77\r
Pressure (hPa)
#1003.95\r
Altitude (m)
%77.61\r
\r
Humidity (%)
&75.35\r
$GPRMC,011757.00,A,4919.36578,N,12419.00449,W,1.294,,280121,,,A\r
Methane (PPM)
+451.46\r
Temperature (*c)
@4.80\r
Pressure (hPa)
#1004.00\r
Altitude (m)
%77.41\r
\r
Humidity (%)
&75.43\r
$GPRMC,011759.00,A,4919.36766,N,12419.00546,W,3.045,,280121,,,A\r
Methane (PPM)
+461.23\r
Temperature (*c)
@4.81\r
Pressure (hPa)
#1004.02\r
Altitude (m)
%76.99\r
\r
Humidity (%)
&75.57\r
$GPRMC,011801.00,A,4919.36894,N,12419.00665,W,2.110,,280121,,,A$GPRMC,011803.00,A,4919.37109,N,12419.00674,W,2.025,354.12,280121,,,A*78\r
$GPVTG,354.12,T,,M,2.025,N,3.751,K,A*39\r
$GPGGA,011803.00,4919.37109,N,12419.00674,W,1,07,1.47,1.6,M,-17.7,M,,*68\r
$GPGSA,A,3,17,19,28,14,15,13,24,,,,,,2.50,1.47,2.02*06\r
$GPGSV,3,1,11,01,19,040,25,06,19,154,,12,14,274,21,13,20,211,18*70\r
$GPGSV,3,2,11,14,36,086,34,15,23,251,22,17,73,081,29,19,72,181,21*74\r
$GPGSV,3,3,11,22,00,054,,24,46,298,31,28,45,080,35*48\r
$GPGLL,4919.37109,N,12419.00674,W,011803.00,A,A*73\r
7.21\r
\r
Humidity (%)
&75.49\r
$GPRMC,011804.00,A,4919.37171,N,12419.00649,W,1.145,,280121,,,A\r
Methane (PPM)
+473.44\r
Temperature (*c)
@4.83\r
Pressure (hPa)
#1004.00\r
Altitude (m)
%76.90\r
\r
Humidity (%)
&75.40\r
$GPRMC,011806.00,A,4919.37302,N,12419.00842,W,3.322,,280121,,,A\r
Methane (PPM)
+475.88\r
Temperature (*c)
@4.84\r
Pressure (hPa)
#1004.05\r
Altitude (m)
%76.95\r
\r
Humidity (%)
&75.39\r
$GPRMC,011808.00,A,4919.37410,N,12419.01019,W,2.840,324.83,2801\r
Methane (PPM)
+478.32\r
Temperature (*c)
@4.85\r
Pressure (hPa)
#1004.02\r
Altitude (m)
%77.05\r
\r
Humidity (%)
&75.33\r
$GPRMC,011810.00,A,4919.37493,N,12419.01224,W,2.962,307.66,2801\r
Methane (PPM)
+473.44\r
Temperature (*c)
@4.83\r
Pressure (hPa)
#1003.98\r
Altitude (m)
%77.28\r
\r
Humidity (%)
&75.38\r
$GPRMC,011812.00,A,4919.37547,N,12419.01341,W,1.735,,280121,,,A\r
Methane (PPM)
+475.88\r
Temperature (*c)
@4.85\r
Pressure (hPa)
#1004.06\r
Altitude (m)
%76.92\r
\r
Humidity (%)
&75.37\r
$GPRMC,011814.00,A,4919.37649,N,12419.01445,W,2.232,312.54,2801\r
Methane (PPM)
+475.88\r
Temperature (*c)
@4.84\r
Pressure (hPa)
#1004.05\r
Altitude (m)
%76.77\r
\r
Humidity (%)
&75.36\r
$GPRMC,011816.00,A,4919.37781,N,12419.01523,W,2.392,318.35,2801\r
Methane (PPM)
+478.32\r
Temperature (*c)
@4.85\r
Pressure (hPa)
#1004.09\r
Altitude (m)
%76.67\r
\r
Humidity (%)
&75.43\r
$GPRMC,011818.00,A,4919.37825,N,12419.01646,W,1.987,,280121,,,A\r
Methane (PPM)
+480.76\r
Temperature (*c)
@4.86\r
Pressure (hPa)
#1004.07\r
Altitude (m)
%76.37\r
\r
Humidity (%)
&75.45\r
$GPRMC,011820.00,A,4919.37935,N,12419.01689,W,2.026,345.13,2801$GPRMC,011822.00,A,4919.38067,N,12419.01694,W,1.971,348.38,280121,,,A*7C\r
$GPVTG,348.38,T,,M,1.971,N,3.650,K,A*37\r
$GPGGA,011822.00,4919.38067,N,12419.01694,W,1,08,1.30,1.0,M,-17.7,M,,*6B\r
$GPGSA,A,3,17,19,28,14,15,13,24,06,,,,,2.35,1.30,1.96*0D\r
$GPGSV,3,1,11,01,19,040,33,06,19,154,26,12,14,274,22,13,20,210,27*7D\r
$GPGSV,3,2,11,14,35,086,30,15,22,251,22,17,73,081,32,19,72,181,23*7A\r
$GPGSV,3,3,11,22,00,054,,24,46,298,19,28,45,080,31*46\r
$GPGLL,4919.38067,N,12419.01694,W,011822.00,A,A*79\r
6.22\r
\r
Humidity (%)
&75.45\r
$GPRMC,011823.00,A,4919.38115,N,12419.01693,W,2.005,350.35,2801\r
Methane (PPM)
+471.00\r
Temperature (*c)
@4.89\r
Pressure (hPa)
#1004.19\r
Altitude (m)
%75.85\r
\r
Humidity (%)
&75.44\r
$GPRMC,011825.00,A,4919.38261,N,12419.01660,W,2.307,5.76,280121\r
Methane (PPM)
+473.44\r
Temperature (*c)
@4.88\r
Pressure (hPa)
#1004.24\r
Altitude (m)
%75.62\r
\r
Humidity (%)
&75.42\r
$GPRMC,011827.00,A,4919.38348,N,12419.01619,W,2.098,7.73,280121\r
Methane (PPM)
+473.44\r
Temperature (*c)
@4.89\r
Pressure (hPa)
#1004.18\r
Altitude (m)
%75.39\r
\r
Humidity (%)
&75.42\r
$GPRMC,011829.00,A,4919.38439,N,12419.01586,W,2.082,10.97,28012\r
Methane (PPM)
+475.88\r
Temperature (*c)
@4.91\r
Pressure (hPa)
#1004.20\r
Altitude (m)
%75.36\r
\r
Humidity (%)
&75.54\r
$GPRMC,011831.00,A,4919.38477,N,12419.01536,W,1.438,,280121,,,A\r
Methane (PPM)
+478.32\r
Temperature (*c)
@4.89\r
Pressure (hPa)
#1004.24\r
Altitude (m)
%75.11\r
\r
Humidity (%)
&75.44\r
$GPRMC,011833.00,A,4919.38391,N,12419.01499,W,0.791,,280121,,,A\r
Methane (PPM)
+480.76\r
Temperature (*c)
@4.90\r
Pressure (hPa)
#1004.22\r
Altitude (m)
%75.07\r
\r
Humidity (%)
&75.51\r
$GPRMC,011835.00,A,4919.38383,N,12419.01534,W,0.170,,280121,,,A\r
Methane (PPM)
+475.88\r
Temperature (*c)
@4.87\r
Pressure (hPa)
#1004.39\r
Altitude (m)
%74.02\r
\r
Humidity (%)
&75.69\r
$GPRMC,011837.00,A,4919.38400,N,12419.01544,W,0.272,,280121,,,A\r
Methane (PPM)
+475.88\r
Temperature (*c)
@4.84\r
Pressure (hPa)
#1004.37\r
Altitude (m)
%74.64\r
\r
Humidity (%)
&75.84\r
$GPRMC,011839.00,A,4919.38386,N,12419.01537,W,0.087,,280121,,,A$GPRMC,011841.00,A,4919.38392,N,12419.01562,W,0.153,,280121,,,A*69\r
$GPVTG,,T,,M,0.153,N,0.283,K,A*2D\r
$GPGGA,011841.00,4919.38392,N,12419.01562,W,1,08,1.30,3.0,M,-17.7,M,,*6F\r
$GPGSA,A,3,17,19,28,14,15,13,24,06,,,,,2.35,1.30,1.96*0D\r
$GPGSV,3,1,12,01,19,040,32,06,19,154,21,12,14,274,26,13,20,210,24*7F\r
$GPGSV,3,2,12,14,35,086,32,15,22,251,23,17,73,081,26,19,72,181,24*78\r
$GPGSV,3,3,12,21,,,25,22,00,053,,24,46,298,30,28,45,080,33*4F\r
$GPGLL,4919.38392,N,12419.01562,W,011841.00,A,A*7F\r
5.39\r
\r
Humidity (%)
&75.97\r
$GPRMC,011842.00,A,4919.38393,N,12419.01576,W,0.109,,280121,,,A\r
Methane (PPM)
+480.76\r
Temperature (*c)
@4.83\r
Pressure (hPa)
#1004.24\r
Altitude (m)
%74.97\r
\r
Humidity (%)
&75.93\r
$GPRMC,011844.00,A,4919.38405,N,12419.01569,W,0.307,,280121,,,A\r
Methane (PPM)
+480.76\r
Temperature (*c)
@4.82\r
Pressure (hPa)
#1004.29\r
Altitude (m)
%73.97\r
\r
Humidity (%)
&75.92\r
$GPRMC,011846.00,A,4919.38435,N,12419.01548,W,0.255,,280121,,,A\r
Methane (PPM)
+473.44\r
Temperature (*c)
@4.79\r
Pressure (hPa)
#1004.28\r
Altitude (m)
%75.21\r
\r
Humidity (%)
&76.00\r
$GPRMC,011848.00,A,4919.38468,N,12419.01537,W,0.244,,280121,,,A\r
Methane (PPM)
+463.67\r
Temperature (*c)
@4.78\r
Pressure (hPa)
#1004.23\r
Altitude (m)
%75.30\r
\r
Humidity (%)
&75.93\r
$GPRMC,011850.00,A,4919.38428,N,12419.01551,W,1.193,113.77,2801\r
Methane (PPM)
+461.23\r
Temperature (*c)
@4.78\r
Pressure (hPa)
#1004.22\r
Altitude (m)
%76.06\r
\r
Humidity (%)
&75.94\r
$GPRMC,011852.00,A,4919.38323,N,12419.01541,W,1.688,161.25,2801\r
Methane (PPM)
+451.46\r
Temperature (*c)
@4.75\r
Pressure (hPa)
#1004.14\r
Altitude (m)
%76.17\r
\r
Humidity (%)
&75.94\r
$GPRMC,011854.00,A,4919.38234,N,12419.01523,W,1.938,171.23,2801\r
Methane (PPM)
+451.46\r
Temperature (*c)
@4.73\r
Pressure (hPa)
#1004.10\r
Altitude (m)
%76.55\r
\r
Humidity (%)
&75.99\r
$GPRMC,011856.00,A,4919.38142,N,12419.01493,W,1.800,168.23,2801\r
Methane (PPM)
+453.91\r
Temperature (*c)
@4.73\r
Pressure (hPa)
#1004.09\r
Altitude (m)
%76.60\r
\r
Humidity (%)
&76.13\r
$GPRMC,011858.00,A,4919.38026,N,12419.01476,W,1.721,172.96,2801$GPRMC,011900.00,A,4919.37919,N,12419.01474,W,2.234,182.08,280121,,,A*70\r
$GPVTG,182.08,T,,M,2.234,N,4.137,K,A*38\r
$GPGGA,011900.00,4919.37919,N,12419.01474,W,1,08,1.30,3.8,M,-17.7,M,,*63\r
$GPGSA,A,3,17,19,28,14,15,13,24,06,,,,,2.36,1.30,1.97*0F\r
$GPGSV,4,1,13,01,19,040,21,06,20,154,22,12,14,274,26,13,20,210,35*72\r
$GPGSV,4,2,13,14,35,086,23,15,22,250,34,17,73,080,22,19,72,181,29*71\r
$GPGSV,4,3,13,21,,,23,22,00,053,,24,46,298,35,28,45,080,24*4C\r
$GPGSV,4,4,13,46,28,147,31*43\r
$GPGLL,4919.37919,N,12419.01474,W,011900.00,A,A*7B\r
6.86\r
\r
Humidity (%)
&76.20\r
$GPRMC,011901.00,A,4919.37848,N,12419.01491,W,2.031,184.96,2801\r
Methane (PPM)
+436.82\r
Temperature (*c)
@4.68\r
Pressure (hPa)
#1004.02\r
Altitude (m)
%77.11\r
\r
Humidity (%)
&76.23\r
$GPRMC,011903.00,A,4919.37747,N,12419.01525,W,2.266,188.01,2801\r
Methane (PPM)
+422.17\r
Temperature (*c)
@4.65\r
Pressure (hPa)
#1004.04\r
Altitude (m)
%77.39\r
\r
Humidity (%)
&76.35\r
$GPRMC,011905.00,A,4919.37655,N,12419.01463,W,1.850,169.27,2801\r
Methane (PPM)
+412.40\r
Temperature (*c)
@4.61\r
Pressure (hPa)
#1004.02\r
Altitude (m)
%77.24\r
\r
Humidity (%)
&76.45\r
$GPRMC,011907.00,A,4919.37567,N,12419.01361,W,2.028,145.81,2801\r
Methane (PPM)
+405.08\r
Temperature (*c)
@4.58\r
Pressure (hPa)
#1004.05\r
Altitude (m)
%77.18\r
\r
Humidity (%)
&76.56\r
$GPRMC,011909.00,A,4919.37495,N,12419.01214,W,2.275,138.12,2801\r
Methane (PPM)
+414.84\r
Temperature (*c)
@4.53\r
Pressure (hPa)
#1004.02\r
Altitude (m)
%77.07\r
\r
Humidity (%)
&76.69\r
$GPRMC,011911.00,A,4919.37427,N,12419.01116,W,1.468,,280121,,,A\r
Methane (PPM)
+422.17\r
Temperature (*c)
@4.49\r
Pressure (hPa)
#1004.03\r
Altitude (m)
%76.89\r
\r
Humidity (%)
&76.76\r
$GPRMC,011913.00,A,4919.37338,N,12419.00967,W,2.280,136.39,2801\r
Methane (PPM)
+436.82\r
Temperature (*c)
@4.49\r
Pressure (hPa)
#1004.03\r
Altitude (m)
%77.23\r
\r
Humidity (%)
&76.85\r
$GPRMC,011915.00,A,4919.37234,N,12419.00802,W,2.636,131.79,2801$GPRMC,011917.00,A,4919.37133,N,12419.00670,W,2.563,135.07,280121,,,A*77\r
$GPVTG,135.07,T,,M,2.563,N,4.747,K,A*3F\r
$GPGGA,011917.00,4919.37133,N,12419.00670,W,1,08,1.30,2.8,M,-17.7,M,,*63\r
$GPGSA,A,3,17,19,28,14,15,13,24,06,,,,,2.36,1.30,1.97*0F\r
$GPGSV,3,1,12,01,19,040,18,06,20,154,14,12,14,274,25,13,20,210,20*7C\r
$GPGSV,3,2,12,14,35,086,24,15,22,250,36,17,73,080,23,19,72,181,28*72\r
$GPGSV,3,3,12,21,,,19,22,00,053,,24,46,297,25,28,44,081,24*4D\r
$GPGLL,4919.37133,N,12419.00670,W,011917.00,A,A*7A\r
6.91\r
\r
Humidity (%)
&76.92\r
$GPRMC,011918.00,A,4919.37063,N,12419.00640,W,2.536,143.49,2801\r
Methane (PPM)
+468.55\r
Temperature (*c)
@4.47\r
Pressure (hPa)
#1004.02\r
Altitude (m)
%77.31\r
\r
Humidity (%)
&77.05\r
$GPRMC,011920.00,A,4919.36895,N,12419.00560,W,2.760,161.93,2801\r
Methane (PPM)
+475.88\r
Temperature (*c)
@4.48\r
Pressure (hPa)
#1003.93\r
Altitude (m)
%77.76\r
\r
Humidity (%)
&77.14\r
$GPRMC,011922.00,A,4919.36779,N,12419.00565,W,2.526,171.84,2801\r
Methane (PPM)
+483.20\r
Temperature (*c)
@4.49\r
Pressure (hPa)
#1003.94\r
Altitude (m)
%77.65\r
\r
Humidity (%)
&77.19\r
$GPRMC,011924.00,A,4919.36694,N,12419.00555,W,1.938,166.62,2801\r
Methane (PPM)
+488.09\r
Temperature (*c)
@4.48\r
Pressure (hPa)
#1003.96\r
Altitude (m)
%77.75\r
\r
Humidity (%)
&77.17\r
$GPRMC,011926.00,A,4919.36539,N,12419.00541,W,2.309,171.12,2801\r
Methane (PPM)
+492.97\r
Temperature (*c)
@4.48\r
Pressure (hPa)
#1003.97\r
Altitude (m)
%77.55\r
\r
Humidity (%)
&77.16\r
$GPRMC,011928.00,A,4919.36385,N,12419.00598,W,2.128,181.90,2801\r
Methane (PPM)
+495.41\r
Temperature (*c)
@4.48\r
Pressure (hPa)
#1003.95\r
Altitude (m)
%77.75\r
\r
Humidity (%)
&77.24\r
$GPRMC,011930.00,A,4919.36220,N,12419.00588,W,2.371,178.37,2801\r
Methane (PPM)
+495.41\r
Temperature (*c)
@4.49\r
Pressure (hPa)
#1003.96\r
Altitude (m)
%77.81\r
\r
Humidity (%)
&77.31\r
$GPRMC,011932.00,A,4919.36095,N,12419.00622,W,2.530,188.16,2801\r
Methane (PPM)
+495.41\r
Temperature (*c)
@4.48\r
Pressure (hPa)
#1003.94\r
Altitude (m)
%78.10\r
\r
Humidity (%)
&77.37\r
$GPRMC,011934.00,A,4919.36006,N,12419.00661,W,2.369,185.20,28011936.00,A,4919.35883,N,12419.00741,W,2.672,196.61,280121,,,A*7D\r
$GPVTG,196.61,T,,M,2.672,N,4.949,K,A*35\r
$GPGGA,011936.00,4919.35883,N,12419.00741,W,1,07,1.49,3.1,M,-17.7,M,,*6A\r
$GPGSA,A,3,17,19,28,14,15,13,24,,,,,,2.50,1.49,2.01*0B\r
$GPGSV,3,1,12,01,19,040,19,06,20,154,,12,14,274,21,13,20,210,34*79\r
$GPGSV,3,2,12,14,35,086,22,15,22,250,24,17,73,079,23,19,73,180,26*7F\r
$GPGSV,3,3,12,21,,,22,22,00,053,,24,47,297,28,28,44,081,21*4C\r
$GPGLL,4919.35883,N,12419.00741,W,011936.00,A,A*7A\r
7.81\r
\r
Humidity (%)
&77.40\r
$GPRMC,011937.00,A,4919.35810,N,12419.00803,W,2.750,197.33,2801\r
Methane (PPM)
+495.41\r
Temperature (*c)
@4.50\r
Pressure (hPa)
#1004.00\r
Altitude (m)
%77.50\r
\r
Humidity (%)
&77.38\r
$GPRMC,011939.00,A,4919.35710,N,12419.00903,W,2.241,197.96,2801\r
Methane (PPM)
+495.41\r
Temperature (*c)
@4.50\r
Pressure (hPa)
#1003.97\r
Altitude (m)
%77.42\r
\r
Humidity (%)
&77.34\r
$GPRMC,011941.00,A,4919.35575,N,12419.00939,W,2.337,,280121,,,A\r
Methane (PPM)
+495.41\r
Temperature (*c)
@4.52\r
Pressure (hPa)
#1003.97\r
Altitude (m)
%77.69\r
\r
Humidity (%)
&77.39\r
$GPRMC,011943.00,A,4919.35449,N,12419.01045,W,2.618,,280121,,,A\r
Methane (PPM)
+495.41\r
Temperature (*c)
@4.53\r
Pressure (hPa)
#1003.97\r
Altitude (m)
%77.71\r
\r
Humidity (%)
&77.58\r
$GPRMC,011945.00,A,4919.35318,N,12419.01122,W,2.474,,280121,,,A\r
Methane (PPM)
+497.85\r
Temperature (*c)
@4.55\r
Pressure (hPa)
#1003.95\r
Altitude (m)
%77.57\r
\r
Humidity (%)
&77.59\r
$GPRMC,011947.00,A,4919.35114,N,12419.01153,W,2.899,189.87,2801\r
Methane (PPM)
+492.97\r
Temperature (*c)
@4.54\r
Pressure (hPa)
#1003.94\r
Altitude (m)
%77.95\r
\r
Humidity (%)
&77.56\r
$GPRMC,011949.00,A,4919.34914,N,12419.01270,W,3.365,196.37,2801\r
Methane (PPM)
+492.97\r
Temperature (*c)
@4.52\r
Pressure (hPa)
#1003.96\r
Altitude (m)
%77.74\r
\r
Humidity (%)
&77.68\r
$GPRMC,011951.00,A,4919.34762,N,12419.01399,W,1.509,,280121,,,A\r
Methane (PPM)
+492.97\r
Temperature (*c)
@4.57\r
Pressure (hPa)
#1003.94\r
Altitude (m)
%77.62\r
\r
Humidity (%)
&77.86\r
$GPRMC,011953.00,A,4919.34653,N,12419.01461,W,3.202,202.65,2801C,011955.00,A,4919.34507,N,12419.01566,W,1.944,,280121,,,A*60\r
$GPVTG,,T,,M,1.944,N,3.601,K,A*2F\r
$GPGGA,011955.00,4919.34507,N,12419.01566,W,1,08,1.31,7.6,M,-17.7,M,,*6A\r
$GPGSA,A,3,17,19,28,14,15,13,24,06,,,,,2.36,1.31,1.97*0E\r
$GPGSV,3,1,12,01,19,039,30,06,20,154,15,12,14,274,21,13,20,210,30*7C\r
$GPGSV,3,2,12,14,35,086,17,15,22,250,31,17,73,079,22,19,73,180,23*79\r
$GPGSV,3,3,12,21,,,26,22,00,053,,24,47,297,27,28,44,081,23*45\r
$GPGLL,4919.34507,N,12419.01566,W,011955.00,A,A*79\r
8.22\r
\r
Humidity (%)
&77.92\r
$GPRMC,011956.00,A,4919.34464,N,12419.01568,W,2.339,192.00,2801\r
Methane (PPM)
+488.09\r
Temperature (*c)
@4.53\r
Pressure (hPa)
#1003.91\r
Altitude (m)
%78.24\r
\r
Humidity (%)
&77.93\r
$GPRMC,011958.00,A,4919.34328,N,12419.01703,W,2.711,,280121,,,A\r
Methane (PPM)
+471.00\r
Temperature (*c)
@4.49\r
Pressure (hPa)
#1003.89\r
Altitude (m)
%78.63\r
\r
Humidity (%)
&77.96\r
$GPRMC,012000.00,A,4919.34187,N,12419.01720,W,2.292,192.29,2801\r
Methane (PPM)
+449.02\r
Temperature (*c)
@4.48\r
Pressure (hPa)
#1003.82\r
Altitude (m)
%78.28\r
\r
Humidity (%)
&78.08\r
$GPRMC,012002.00,A,4919.34051,N,12419.01696,W,2.265,194.53,2801\r
Methane (PPM)
+444.14\r
Temperature (*c)
@4.50\r
Pressure (hPa)
#1003.88\r
Altitude (m)
%78.48\r
\r
Humidity (%)
&78.20\r
$GPRMC,012004.00,A,4919.33968,N,12419.01665,W,1.773,,280121,,,A\r
Methane (PPM)
+451.46\r
Temperature (*c)
@4.53\r
Pressure (hPa)
#1003.85\r
Altitude (m)
%78.78\r
\r
Humidity (%)
&78.17\r
$GPRMC,012006.00,A,4919.33894,N,12419.01700,W,1.462,,280121,,,A\r
Methane (PPM)
+463.67\r
Temperature (*c)
@4.54\r
Pressure (hPa)
#1003.75\r
Altitude (m)
%79.49\r
\r
Humidity (%)
&78.13\r
$GPRMC,012008.00,A,4919.33801,N,12419.01633,W,2.525,,280121,,,A\r
Methane (PPM)
+468.55\r
Temperature (*c)
@4.51\r
Pressure (hPa)
#1003.73\r
Altitude (m)
%79.78\r
\r
Humidity (%)
&78.12\r
$GPRMC,012010.00,A,4919.33649,N,12419.01625,W,2.949,188.57,2801\r
Methane (PPM)
+473.44\r
Temperature (*c)
@4.52\r
Pressure (hPa)
#1003.66\r
Altitude (m)
%80.43\r
\r
Humidity (%)
&78.04\r
$GPRMC,012012.00,A,4919.33468,N,12419.01560,W,2.867,181.42,28014.00,A,4919.33272,N,12419.01575,W,2.624,182.21,280121,,,A*73\r
$GPVTG,182.21,T,,M,2.624,N,4.860,K,A*3D\r
$GPGGA,012014.00,4919.33272,N,12419.01575,W,1,07,1.51,12.0,M,-17.7,M,,*5E\r
$GPGSA,A,3,17,19,28,15,13,24,06,,,,,,2.71,1.51,2.25*04\r
$GPGSV,3,1,12,01,19,039,22,06,20,153,25,12,15,275,20,13,19,210,28*79\r
$GPGSV,3,2,12,14,35,086,09,15,22,250,26,17,72,079,24,19,73,180,28*7C\r
$GPGSV,3,3,12,21,,,17,22,01,053,,24,47,297,33,28,44,081,17*44\r
$GPGLL,4919.33272,N,12419.01575,W,012014.00,A,A*76\r
0.81\r
\r
Humidity (%)
&77.95\r
$GPRMC,012015.00,A,4919.33179,N,12419.01582,W,2.939,181.67,2801\r
Methane (PPM)
+473.44\r
Temperature (*c)
@4.48\r
Pressure (hPa)
#1003.56\r
Altitude (m)
%81.30\r
\r
Humidity (%)
&77.98\r
$GPRMC,012017.00,A,4919.33006,N,12419.01583,W,2.554,178.66,2801\r
Methane (PPM)
+453.91\r
Temperature (*c)
@4.44\r
Pressure (hPa)
#1003.48\r
Altitude (m)
%81.62\r
\r
Humidity (%)
&78.00\r
$GPRMC,012019.00,A,4919.32855,N,12419.01622,W,2.592,183.17,2801\r
Methane (PPM)
+429.49\r
Temperature (*c)
@4.40\r
Pressure (hPa)
#1003.44\r
Altitude (m)
%81.92\r
\r
Humidity (%)
&78.06\r
$GPRMC,012021.00,A,4919.32668,N,12419.01624,W,3.918,181.87,2801\r
Methane (PPM)
+424.61\r
Temperature (*c)
@4.40\r
Pressure (hPa)
#1003.38\r
Altitude (m)
%82.53\r
\r
Humidity (%)
&78.05\r
$GPRMC,012023.00,A,4919.32550,N,12419.01658,W,3.233,187.69,2801\r
Methane (PPM)
+424.61\r
Temperature (*c)
@4.40\r
Pressure (hPa)
#1003.36\r
Altitude (m)
%82.54\r
\r
Humidity (%)
&78.07\r
$GPRMC,012025.00,A,4919.32500,N,12419.01783,W,2.440,210.19,2801\r
Methane (PPM)
+414.84\r
Temperature (*c)
@4.41\r
Pressure (hPa)
#1003.36\r
Altitude (m)
%82.44\r
\r
Humidity (%)
&78.28\r
$GPRMC,012027.00,A,4919.32436,N,12419.01919,W,1.361,223.19,2801\r
Methane (PPM)
+424.61\r
Temperature (*c)
@4.43\r
Pressure (hPa)
#1003.37\r
Altitude (m)
%82.53\r
\r
Humidity (%)
&78.26\r
$GPRMC,012029.00,A,4919.32434,N,12419.02005,W,1.024,,280121,,,A\r
Methane (PPM)
+434.38\r
Temperature (*c)
@4.46\r
Pressure (hPa)
#1003.36\r
Altitude (m)
%82.68\r
\r
Humidity (%)
&78.24\r
$GPRMC,012031.00,A,4919.32317,N,12419.02096,W,0.414,,280121,,,AMC,012033.00,A,4919.32302,N,12419.02096,W,0.365,,280121,,,A*6E\r
$GPVTG,,T,,M,0.365,N,0.677,K,A*25\r
$GPGGA,012033.00,4919.32302,N,12419.02096,W,1,08,1.31,15.0,M,-17.7,M,,*59\r
$GPGSA,A,3,17,19,28,14,15,13,24,06,,,,,2.36,1.31,1.97*0E\r
$GPGSV,3,1,11,01,19,039,20,06,20,153,28,12,15,275,28,13,19,210,31*75\r
$GPGSV,3,2,11,14,35,086,17,15,22,250,28,17,72,079,30,19,73,180,29*7A\r
$GPGSV,3,3,11,22,01,053,,24,47,297,34,28,44,081,29*48\r
$GPGLL,4919.32302,N,12419.02096,W,012033.00,A,A*7F\r
2.72\r
\r
Humidity (%)
&78.27\r
$GPRMC,012034.00,A,4919.32290,N,12419.02108,W,0.215,,280121,,,A\r
Methane (PPM)
+466.11\r
Temperature (*c)
@4.42\r
Pressure (hPa)
#1003.33\r
Altitude (m)
%82.65\r
\r
Humidity (%)
&78.37\r
$GPRMC,012036.00,A,4919.32306,N,12419.02085,W,0.258,,280121,,,A\r
Methane (PPM)
+495.41\r
Temperature (*c)
@4.48\r
Pressure (hPa)
#1003.34\r
Altitude (m)
%83.24\r
\r
Humidity (%)
&78.34\r
$GPRMC,012038.00,A,4919.32329,N,12419.02082,W,0.253,,280121,,,A\r
Methane (PPM)
+507.62\r
Temperature (*c)
@4.51\r
Pressure (hPa)
#1003.28\r
Altitude (m)
%83.44\r
\r
Humidity (%)
&78.17\r
$GPRMC,012040.00,A,4919.32320,N,12419.02082,W,0.261,,280121,,,A\r
Methane (PPM)
+497.85\r
Temperature (*c)
@4.54\r
Pressure (hPa)
#1003.34\r
Altitude (m)
%83.20\r
\r
Humidity (%)
&77.97\r
$GPRMC,012042.00,A,4919.32329,N,12419.02070,W,0.098,,280121,,,A\r
Methane (PPM)
+510.06\r
Temperature (*c)
@4.52\r
Pressure (hPa)
#1003.33\r
Altitude (m)
%83.04\r
\r
Humidity (%)
&78.10\r
$GPRMC,012044.00,A,4919.32329,N,12419.02058,W,0.097,,280121,,,A\r
Methane (PPM)
+507.62\r
Temperature (*c)
@4.60\r
Pressure (hPa)
#1003.29\r
Altitude (m)
%83.16\r
\r
Humidity (%)
&78.04\r
$GPRMC,012046.00,A,4919.32320,N,12419.02063,W,0.178,,280121,,,A\r
Methane (PPM)
+497.85\r
Temperature (*c)
@4.61\r
Pressure (hPa)
#1003.32\r
Altitude (m)
%83.39\r
\r
Humidity (%)
&77.91\r
$GPRMC,012048.00,A,4919.32311,N,12419.02091,W,0.222,,280121,,,A\r
Methane (PPM)
+512.50\r
Temperature (*c)
@4.56\r
Pressure (hPa)
#1003.30\r
Altitude (m)
%83.28\r
\r
Humidity (%)
&77.88\r
$GPRMC,012050.00,A,4919.32325,N,12419.02089,W,0.019,,280121,,,A$GPRMC,012052.00,A,4919.32357,N,12419.02087,W,0.498,,280121,,,A*6C\r
$GPVTG,,T,,M,0.498,N,0.922,K,A*2F\r
$GPGGA,012052.00,4919.32357,N,12419.02087,W,1,08,1.31,11.3,M,-17.7,M,,*59\r
$GPGSA,A,3,17,19,28,14,15,13,24,06,,,,,2.37,1.31,1.97*0F\r
$GPGSV,3,1,11,01,19,039,20,06,20,153,25,12,15,275,25,13,19,210,25*70\r
$GPGSV,3,2,11,14,35,086,16,15,22,250,29,17,72,078,27,19,73,180,29*7D\r
$GPGSV,3,3,11,22,01,053,,24,47,297,30,28,44,081,30*44\r
$GPGLL,4919.32357,N,12419.02087,W,012052.00,A,A*78\r
2.97\r
\r
Humidity (%)
&77.68\r
$GPRMC,012053.00,A,4919.32377,N,12419.02081,W,0.498,,280121,,,A\r
Methane (PPM)
+492.97\r
Temperature (*c)
@4.62\r
Pressure (hPa)
#1003.36\r
Altitude (m)
%82.67\r
\r
Humidity (%)
&77.58\r
$GPRMC,012055.00,A,4919.32383,N,12419.02057,W,0.228,,280121,,,A\r
Methane (PPM)
+483.20\r
Temperature (*c)
@4.61\r
Pressure (hPa)
#1003.35\r
Altitude (m)
%82.71\r
\r
Humidity (%)
&77.59\r
$GPRMC,012057.00,A,4919.32417,N,12419.01987,W,0.741,,280121,,,A\r
Methane (PPM)
+500.29\r
Temperature (*c)
@4.60\r
Pressure (hPa)
#1003.36\r
Altitude (m)
%82.84\r
\r
Humidity (%)
&77.60\r
$GPRMC,012059.00,A,4919.32421,N,12419.01970,W,0.513,,280121,,,A\r
Methane (PPM)
+514.94\r
Temperature (*c)
@4.60\r
Pressure (hPa)
#1003.39\r
Altitude (m)
%83.00\r
\r
Humidity (%)
&77.62\r
$GPRMC,012101.00,A,4919.32439,N,12419.01919,W,0.600,,280121,,,A\r
Methane (PPM)
+519.82\r
Temperature (*c)
@4.54\r
Pressure (hPa)
#1003.33\r
Altitude (m)
%82.81\r
\r
Humidity (%)
&77.66\r
$GPRMC,012103.00,A,4919.32433,N,12419.01935,W,0.564,,280121,,,A\r
Methane (PPM)
+488.09\r
Temperature (*c)
@4.46\r
Pressure (hPa)
#1003.30\r
Altitude (m)
%83.18\r
\r
Humidity (%)
&77.69\r
$GPRMC,012105.00,A,4919.32435,N,12419.01925,W,0.124,,280121,,,A\r
Methane (PPM)
+453.91\r
Temperature (*c)
@4.44\r
Pressure (hPa)
#1003.33\r
Altitude (m)
%83.33\r
\r
Humidity (%)
&77.78\r
$GPRMC,012107.00,A,4919.32435,N,12419.01923,W,0.148,,280121,,,A\r
Methane (PPM)
+427.05\r
Temperature (*c)
@4.38\r
Pressure (hPa)
#1003.31\r
Altitude (m)
%83.08\r
\r
Humidity (%)
&77.87\r
